id,lon,lat,Address
6460925543,31.345998,30.0876317, || 98 Omar Ibn El-Khattab_ Almazah_ Heliopolis_ Cairo Governorate 11757_ Egypt || 18 El-Horeya_ Almazah_ Heliopolis_ Cairo Governorate_ Egypt || 24 El-Horeya_ Almazah_ Heliopolis_ Cairo Governorate_ Egypt || El-Horeya_ Almazah_ Heliopolis_ Cairo Governorate_ Egypt
330077552,31.3379597,30.0795764, || اسلام_ الجولف_ مدينة نصر__ الجولف_ مدينة نصر_ محافظة القاهرة‬__ Al Golf_ Nasr City_ Cairo Governorate_ Egypt || 19 Sobhy Fahmy_ Al Golf_ Nasr City_ Cairo Governorate_ Egypt || Islam_ Al Golf_ Nasr City_ Cairo Governorate_ Egypt || 19 Sobhy Fahmy_ Al Golf_ Nasr City_ Cairo Governorate_ Egypt
270423014,31.3420626,30.0794829, || 27 Tag Al Din Al Sobki_ Masaken Al Mohandesin_ Nasr City_ Cairo Governorate_ Egypt || Mostafa Abd El-Aal_ Masaken Al Mohandesin_ Nasr City_ Cairo Governorate_ Egypt || 15 Al Rahala Al Boughdadi_ Masaken Al Mohandesin_ Nasr City_ Cairo Governorate_ Egypt || Masaken Al Mohandesin_ Nasr City_ Cairo Governorate_ Egypt
6584163945,31.3389606,30.098979, || 7 Hassan El-Attar_ El-Nozha_ El Nozha_ Cairo Governorate_ Egypt || 7 El-Khalifa El-Mansour_ El-Nozha_ El Nozha_ Cairo Governorate_ Egypt || 8 El-Khalifa El-Mansour_ El-Nozha_ El Nozha_ Cairo Governorate_ Egypt || 1-7 El-Khalifa El-Mansour_ El-Nozha_ El Nozha_ Cairo Governorate_ Egypt
7265006375,31.3500376,30.1045689, || عثمان ابن عفان_ المطار_ قسم النزهة__ Al Matar_ El Nozha_ Cairo Governorate_ Egypt || 132 Othman Ibn Affan_ Al Matar_ El Nozha_ Cairo Governorate_ Egypt || 124 Othman Ibn Affan_ Al Matar_ El Nozha_ Cairo Governorate_ Egypt || 132-124 Othman Ibn Affan_ Al Matar_ El Nozha_ Cairo Governorate_ Egypt
7872626510,31.3277184,30.1030026, || 14 El Hegaz St_ El-Bostan_ Heliopolis_ Cairo Governorate_ Egypt || El Hegaz St_ El-Bostan_ Heliopolis_ Cairo Governorate_ Egypt || El-Bostan_ Heliopolis_ Cairo Governorate_ Egypt || Heliopolis_ Cairo Governorate_ Egypt
6614575690,31.3039902,30.0964327, || 2 Debes_ El-Zaytoun Sharkeya_ Zeitoun_ Cairo Governorate_ Egypt || 3 Debes_ El-Zaytoun Sharkeya_ Zeitoun_ Cairo Governorate_ Egypt || Saraya Al Koba_ El-Zaytoun Sharkeya_ Zeitoun_ Cairo Governorate_ Egypt || El-Zaytoun Sharkeya_ Zeitoun_ Cairo Governorate_ Egypt
6568245750,31.31586,30.0756953, || 22 Youssef Abbas_ Ash Sharekat_ Nasr City_ Cairo Governorate_ Egypt || 22 Youssef Abbas_ Ash Sharekat_ Nasr City_ Cairo Governorate_ Egypt || Ahmed Fouad Nessim_ Ash Sharekat_ Nasr City_ Cairo Governorate_ Egypt || Ash Sharekat_ Nasr City_ Cairo Governorate_ Egypt
7227251757,31.3278775,30.0869292, || Nafak Al Orouba_ المنتزه_ مصر الجديدة_ محافظة القاهرة‬__ El-Montaza_ Heliopolis_ Cairo Governorate_ Egypt || Nafak Al Orouba_ El-Montaza_ Heliopolis_ Cairo Governorate_ Egypt || 15 El-Orouba_ El-Montaza_ Heliopolis_ Cairo Governorate_ Egypt || El-Orouba_ El-Montaza_ Heliopolis_ Cairo Governorate_ Egypt
6076965791,31.3182872,30.1025801, || ١٢٨ شارع جسر السويس - الدور الرابع - أعلي البنك الاهلي EG_ El-Zaytoun Sharkeya_ Zeitoun_ Cairo Governorate_ Egypt || 47 Snan Basha_ El-Zaytoun El-Bahareya_ Heliopolis_ Cairo Governorate_ Egypt || 44 Snan Basha_ El-Zaytoun Sharkeya_ Heliopolis_ Cairo Governorate_ Egypt || El-Khayat Ln_ El-Zaytoun Sharkeya_ Zeitoun_ Cairo Governorate_ Egypt
32537630,31.3197504,30.0904351, || إبراهيم اللقاني_ مصر الجديدة__ El-Montaza_ Heliopolis_ Cairo Governorate_ Egypt || Al Itihadeya_ El-Montaza_ Heliopolis_ Cairo Governorate_ Egypt || 17 Ibrahim Al Lakani_ El-Montaza_ Heliopolis_ Cairo Governorate_ Egypt || 16 Ibrahim Al Lakani_ El-Montaza_ Heliopolis_ Cairo Governorate_ Egypt
269119699,31.3155017,30.0904401, || 16 Al Nadi_ El-Montaza_ Heliopolis_ Cairo Governorate_ Egypt || Heliopolis Sporting Club_ Mansheya El-Bakry_ Heliopolis_ Cairo Governorate_ Egypt || Ali El-Rouby_ Mansheya El-Bakry_ Heliopolis_ Cairo Governorate_ Egypt || 1 Mostafa Kamel_ Mansheya El-Bakry_ Heliopolis_ Cairo Governorate_ Egypt
6572779728,31.3396908,30.072666, || 10 Omarat Al Madfaaia_ Masaken Al Mohandesin_ Nasr City_ Cairo Governorate_ Egypt || Rabaa El Adaweya Garage_ Al Golf_ Nasr City_ Cairo Governorate_ Egypt || Omarat Al Madfaaia_ Masaken Al Mohandesin_ Nasr City_ Cairo Governorate_ Egypt || Masaken Al Mohandesin_ Nasr City_ Cairo Governorate_ Egypt
6584310626,31.3067868,30.0866851, || Triumph Hotel_ Mansheya El-Bakry_ Heliopolis_ Cairo Governorate_ Egypt || Ehsan Abd Al Kodoos_ Mansheya El-Bakry_ Heliopolis_ Cairo Governorate_ Egypt || 5 Al Ghabarti_ Mansheya El-Bakry_ Heliopolis_ Cairo Governorate_ Egypt || Mansheya El-Bakry_ Heliopolis_ Cairo Governorate_ Egypt
6076965584,31.312218,30.1026941, || 11 Al Leith_ El-Zaytoun Sharkeya_ Zeitoun_ Cairo Governorate_ Egypt || 11 Al Leith_ El-Zaytoun Sharkeya_ Zeitoun_ Cairo Governorate_ Egypt || Taqseem Maher_ El-Zaytoun Sharkeya_ Zeitoun_ Cairo Governorate_ Egypt || El-Zaytoun Sharkeya_ Zeitoun_ Cairo Governorate_ Egypt
6602409024,31.3114198,30.0926246, || 21 Al Sheikh Abou Al Nour_ Mansheya El-Bakry_ Heliopolis_ Cairo Governorate_ Egypt || Al Sheikh Abou Al Nour_ Mansheya El-Bakry_ Heliopolis_ Cairo Governorate_ Egypt || 21 Al Sheikh Abou Al Nour_ Mansheya El-Bakry_ Heliopolis_ Cairo Governorate_ Egypt || Mansheya El-Bakry_ Heliopolis_ Cairo Governorate_ Egypt
7872192210,31.3153117,30.0935135, || Cinema Roxy_ El-Montaza_ Heliopolis_ Cairo Governorate_ Egypt || 111 El Hegaz St_ El-Montaza_ Heliopolis_ Cairo Governorate_ Egypt || 1 Ibrahim Al Lakani_ El-Montaza_ Heliopolis_ Cairo Governorate_ Egypt || 111 El Hegaz St_ El-Montaza_ Heliopolis_ Cairo Governorate_ Egypt
7872973462,31.3361886,30.096916, || 51 Othman Ibn Affan_ Almazah_ Heliopolis_ Cairo Governorate_ Egypt || 51 Othman Ibn Affan_ Almazah_ Heliopolis_ Cairo Governorate_ Egypt || 51 Othman Ibn Afan_ Almazah_ Heliopolis_ Cairo Governorate_ Egypt || 1 Fawzi Al Motaee Basa_ Almazah_ Heliopolis_ Cairo Governorate_ Egypt
6572779428,31.3414059,30.0773191, || ش Hassan Aflaton_ Masaken Al Mohandesin_ Nasr City_ Cairo Governorate_ Egypt || 12 Omarat Al Saudeya_ Masaken Al Mohandesin_ Nasr City_ Cairo Governorate_ Egypt || 10 Omarat Al Saudeya_ Nasr City_ Cairo Governorate_ Egypt || Al Bank_ Masaken Al Mohandesin_ Nasr City_ Cairo Governorate_ Egypt
8244627953,31.3150676,30.0777191, || 13 Salah Salem St_ Ash Sharekat_ Nasr City_ Cairo Governorate_ Egypt || Accountability State Auth._ Ash Sharekat_ Nasr City_ Cairo Governorate_ Egypt || Mostafa Abou Zahra_ Ash Sharekat_ Nasr City_ Cairo Governorate_ Egypt || Ash Sharekat_ Nasr City_ Cairo Governorate_ Egypt
6074412166,31.303498,30.1024675, || الزيتون الغربية_ الزيتون__ AZ Zaytoun Al Gharbeyah_ Zeitoun_ Cairo Governorate_ Egypt || Ahmed Mousa_ AZ Zaytoun Al Gharbeyah_ Zeitoun_ Cairo Governorate_ Egypt || AZ Zaytoun Al Gharbeyah_ Zeitoun_ Cairo Governorate_ Egypt || Zeitoun_ Cairo Governorate_ Egypt
6606113724,31.3044119,30.0947838, || 2 سعد الدروي_ منزل عبد العظيم ابراهيم الزيتون الشرقية_ الزيتون__ El-Zaytoun Sharkeya_ Zeitoun_ Cairo Governorate_ Egypt || 1 Awlad Eid_ El-Zaytoun Sharkeya_ Zeitoun_ Cairo Governorate_ Egypt || 1 Awlad Eid_ El-Zaytoun Sharkeya_ Zeitoun_ Cairo Governorate_ Egypt || Dr Mahmoud Khaleel Ln_ El-Zaytoun Sharkeya_ Zeitoun_ Cairo Governorate_ Egypt
6510225658,31.3118302,30.1048699, || 40 Salim Al Awal_ El-Zaytoun Sharkeya_ Zeitoun_ Cairo Governorate_ Egypt || 40 Salim Al Awal_ El-Zaytoun Sharkeya_ Zeitoun_ Cairo Governorate_ Egypt || 38 Salim Al Awal_ El-Zaytoun Sharkeya_ Zeitoun_ Cairo Governorate_ Egypt || 39 Salim Al Awal_ El-Zaytoun Sharkeya_ Zeitoun_ Cairo Governorate_ Egypt
7198313606,31.3390965,30.0903295, || 1 Al Wadi_ Almazah_ Heliopolis_ Cairo Governorate_ Egypt || 1 Al Wadi_ Almazah_ Heliopolis_ Cairo Governorate_ Egypt || Al Wadi_ Almazah_ Heliopolis_ Cairo Governorate_ Egypt || Almazah_ Heliopolis_ Cairo Governorate_ Egypt
7872626519,31.3269625,30.1023979, || 63 El Hegaz St_ El-Nozha_ El Nozha_ Cairo Governorate_ Egypt || 12 El Hegaz St_ El-Bostan_ Heliopolis_ Cairo Governorate_ Egypt || 63 El Hegaz St_ El-Bostan_ Heliopolis_ Cairo Governorate_ Egypt || El-Bostan_ Heliopolis_ Cairo Governorate_ Egypt
7872626509,31.3277284,30.103268, || 138 El Hegaz St_ El-Bostan_ Heliopolis_ Cairo Governorate_ Egypt || 14 El Hegaz St_ El-Montaza_ Heliopolis_ Cairo Governorate_ Egypt || 14 El Hegaz St_ El-Bostan_ Heliopolis_ Cairo Governorate_ Egypt || El Hegaz St_ El-Bostan_ Heliopolis_ Cairo Governorate_ Egypt
6594809712,31.3116306,30.103635, || 4 Al Leith_ El-Zaytoun Sharkeya_ Zeitoun_ Cairo Governorate_ Egypt || 2 Al Leith_ El-Zaytoun Sharkeya_ Zeitoun_ Cairo Governorate_ Egypt || Toman Bai_ El-Zaytoun Sharkeya_ Zeitoun_ Cairo Governorate_ Egypt || El-Zaytoun Sharkeya_ Zeitoun_ Cairo Governorate_ Egypt
7206789806,31.3160312,30.0945447, || 1 Al Maahad Al Eshtraki_ El-Montaza_ Heliopolis_ Cairo Governorate_ Egypt || 1 El-Saada_ El-Montaza_ Heliopolis_ Cairo Governorate_ Egypt || Roxy_ El-Montaza_ Heliopolis_ Cairo Governorate_ Egypt || El Hegaz St_ El-Montaza_ Heliopolis_ Cairo Governorate_ Egypt
8315387961,31.2960282,30.0997911, || 82 Wadi Al Nile_ AZ Zaytoun Al Qebleyah_ Zeitoun_ Cairo Governorate_ Egypt || 82 Wadi Al Nile_ AZ Zaytoun Al Qebleyah_ Zeitoun_ Cairo Governorate_ Egypt || 18 Wadi Al Nile_ AZ Zaytoun Al Qebleyah_ Zeitoun_ Cairo Governorate_ Egypt || Wadi Al Nile_ AZ Zaytoun Al Qebleyah_ Zeitoun_ Cairo Governorate_ Egypt
6317352225,31.3373574,30.0747172, || 65 Abdel Azim Wazeer St_ Al Golf_ Nasr City_ Cairo Governorate_ Egypt || 65 Sour Dar Al Defaa Al Gawy_ Al Golf_ Nasr City_ Cairo Governorate_ Egypt || 7 Sour Dar Al Defaa Al Gawy_ Al Golf_ Nasr City_ Cairo Governorate_ Egypt || Al Golf_ Nasr City_ Cairo Governorate_ Egypt
8234870677,31.3503282,30.0826294, || 35 El-Shaheed Ibrahim El-Shaikh_ Almazah_ Heliopolis_ Cairo Governorate_ Egypt || Moustafa Sayed Al Maghrabi_ Almazah_ Heliopolis_ Cairo Governorate_ Egypt || 36 El-Shaheed Ibrahim El-Shaikh_ Almazah_ Heliopolis_ Cairo Governorate_ Egypt || Almazah_ Heliopolis_ Cairo Governorate_ Egypt
7206789917,31.3120308,30.0962689, || المنتزه_ مصر الجديدة__ El-Montaza_ Heliopolis_ Cairo Governorate_ Egypt || 77 Gesr Al Suez_ El-Montaza_ Heliopolis_ Cairo Governorate_ Egypt || 10 El-MAGD_ El-Montaza_ Heliopolis_ Cairo Governorate_ Egypt || 77 Gesr Al Suez_ El-Montaza_ Heliopolis_ Cairo Governorate_ Egypt
6600451961,31.3075731,30.1045235, || 1 Saeed El-Banna_ AZ Zaytoun Al Gharbeyah_ Zeitoun_ Cairo Governorate_ Egypt || 1 Saeed El-Banna_ AZ Zaytoun Al Gharbeyah_ Zeitoun_ Cairo Governorate_ Egypt || 4-8 Ahmed Afify Ln_ AZ Zaytoun Al Gharbeyah_ Zeitoun_ Cairo Governorate_ Egypt || AZ Zaytoun Al Gharbeyah_ Zeitoun_ Cairo Governorate_ Egypt
330064057,31.3177434,30.0795669, || 2 El Tayaran St_ Al Golf_ Nasr City_ Cairo Governorate_ Egypt || 3 El Tayaran St_ Ash Sharekat_ Nasr City_ Cairo Governorate_ Egypt || Sonesta Hotel (Al Tayaran St.)_ Ash Sharekat_ Nasr City_ Cairo Governorate_ Egypt || 3 El Tayaran St_ Ash Sharekat_ Nasr City_ Cairo Governorate_ Egypt
7868789391,31.3347472,30.0863277, || Telecom Egypt Central (Almaza)_ Al Golf_ Heliopolis_ Cairo Governorate_ Egypt || El-Sayed El-Marghany_ Al Golf_ Nasr City_ Cairo Governorate_ Egypt || 82 50M_ Almazah_ Heliopolis_ Cairo Governorate_ Egypt || Al Golf_ Nasr City_ Cairo Governorate_ Egypt
4393502214,31.2997175,30.0789113, || Infantry House (Heliopolis)_ Mansheya El-Bakry_ Heliopolis_ Cairo Governorate_ Egypt || Ismail Al Fangari_ El-Qobba Bridge_ Al Waili_ Cairo Governorate_ Egypt || El-Qobba Bridge_ Al Waili_ Cairo Governorate_ Egypt || Heliopolis_ Cairo Governorate_ Egypt
6574089430,31.3401425,30.0761979, || 5 El-Nozha_ Almazah_ Heliopolis_ Cairo Governorate_ Egypt || Masaken Al Mohandesin_ Nasr City_ Cairo Governorate_ Egypt || Nasr City_ Cairo Governorate_ Egypt || Cairo Governorate_ Egypt
7208831098,31.3197621,30.0914377, || 4 Ibrahim Nour El-Deen_ El-Montaza_ Heliopolis_ Cairo Governorate_ Egypt || 4 Dr Sayed Abd El-Wahid_ El-Montaza_ Heliopolis_ Cairo Governorate_ Egypt || 10 Ibrahim Nour El-Deen_ El-Montaza_ Heliopolis_ Cairo Governorate_ Egypt || Dr Sayed Abd El-Wahid_ El-Montaza_ Heliopolis_ Cairo Governorate_ Egypt
272479377,31.3327615,30.0834013, || 22 Shams Al Din Al Zahabi_ Al Golf_ Nasr City_ Cairo Governorate_ Egypt || Fadel Al Khedr_ Al Golf_ Nasr City_ Cairo Governorate_ Egypt || 5 Shafeek El-Deeb_ Al Golf_ Nasr City_ Cairo Governorate_ Egypt || Al Golf_ Nasr City_ Cairo Governorate_ Egypt
273006942,31.3304849,30.1035383, || 3 Al Mahkma_ El-Nozha_ El Nozha_ Cairo Governorate_ Egypt || 3 Al Mahkma_ El-Nozha_ El Nozha_ Cairo Governorate_ Egypt || 3-4 Al Mahkma_ El-Nozha_ El Nozha_ Cairo Governorate_ Egypt || El-Nozha_ El Nozha_ Cairo Governorate_ Egypt
7208831422,31.3244816,30.0911536, || 6 Baghdad_ El-Montaza_ Heliopolis_ Cairo Governorate_ Egypt || 1 Baghdad_ El-Montaza_ Heliopolis_ Cairo Governorate_ Egypt || Saint Cyril Church_ El-Montaza_ Heliopolis_ Cairo Governorate_ Egypt || 1 Ibrahim_ El-Montaza_ Heliopolis_ Cairo Governorate_ Egypt
8256765995,31.3079071,30.0752394, || Salah Salem St_ Al Estad_ Nasr City_ Cairo Governorate_ Egypt || 22 Salah Salem St_ Al Estad_ Qesm Than Madinet Nasr_ Cairo Governorate_ Egypt || Al Estad_ Nasr City_ Cairo Governorate_ Egypt || Qesm Than Madinet Nasr_ Cairo Governorate_ Egypt
7208831534,31.3174965,30.0925036, || 1 شارع غرناطة _ شارع ابراهيم اللقانى _ روكسى_ El-Montaza_ Heliopolis_ Cairo Governorate_ Egypt || 67 Shafeek Ghobrial_ El-Montaza_ Heliopolis_ Cairo Governorate_ Egypt || 1 Ibrahim Al Lakani_ El-Montaza_ Heliopolis_ Cairo Governorate_ Egypt || Al Maahad Al Eshtraki_ El-Montaza_ Heliopolis_ Cairo Governorate_ Egypt
339844052,31.2929354,30.0881837, || Teraat Al Gabal_ AZ Zaytoun Al Qebleyah_ Zeitoun_ Cairo Governorate_ Egypt || AZ Zaytoun Al Qebleyah_ Zeitoun_ Cairo Governorate_ Egypt || Zeitoun_ Cairo Governorate_ Egypt || Cairo Governorate_ Egypt
377624600,31.3303515,30.0869948, || 5 Ibn Batota_ El-Montaza_ Heliopolis_ Cairo Governorate_ Egypt || 6 Ibn Batota_ El-Montaza_ Heliopolis_ Cairo Governorate_ Egypt || Ibn Batota_ El-Montaza_ Heliopolis_ Cairo Governorate_ Egypt || El-Montaza_ Heliopolis_ Cairo Governorate_ Egypt
7208830891,31.3282366,30.0875947, || 15 El-Orouba_ El-Montaza_ Heliopolis_ Cairo Governorate_ Egypt || 24 Abd El-Salam Zaki_ El-Montaza_ Heliopolis_ Cairo Governorate_ Egypt || Nafak Al Orouba_ El-Montaza_ Heliopolis_ Cairo Governorate_ Egypt || 15 El-Orouba_ El-Montaza_ Heliopolis_ Cairo Governorate_ Egypt
6071601297,31.356048,30.0788334, || Passage Inside Armed Forces_ Masaken Al Mohandesin_ Nasr City_ Cairo Governorate_ Egypt || Masaken Al Mohandesin_ Nasr City_ Cairo Governorate_ Egypt || Nasr City_ Cairo Governorate_ Egypt || Cairo Governorate_ Egypt
7864776808,31.2949094,30.1045669, || 39 Al Sawah_ AZ Zaytoun Al Qebleyah_ Zeitoun_ Cairo Governorate_ Egypt || Bisco Misr (Al Zaytoun)_ AZ Zaytoun Al Qebleyah_ El Amireya_ Cairo Governorate_ Egypt || 39 Al Sawah_ AZ Zaytoun Al Qebleyah_ Zeitoun_ Cairo Governorate_ Egypt || AZ Zaytoun Al Qebleyah_ Zeitoun_ Cairo Governorate_ Egypt
7871989030,31.3075537,30.0790637, || Ehsan Abd Al Kodoos_ Mansheya El-Bakry_ Heliopolis_ Cairo Governorate_ Egypt || Mansheya El-Bakry_ Heliopolis_ Cairo Governorate_ Egypt || Heliopolis_ Cairo Governorate_ Egypt || Cairo Governorate_ Egypt
6569883971,31.3176488,30.0739772, || 27 Ateya El Kholy St._ Cairo Governorate_ Egypt_ Youssef Abbas_ Ash Sharekat_ Nasr City_ Cairo Governorate_ Egypt || Youssef Abbas_ Ash Sharekat_ Nasr City_ Cairo Governorate_ Egypt || 49 Khedr El-Touny_ Ash Sharekat_ Nasr City_ Cairo Governorate_ Egypt || Ash Sharekat_ Nasr City_ Cairo Governorate_ Egypt
6600507939,31.3175429,30.1031256, || Mohammed Hanafy Ln_ El-Zaytoun Sharkeya_ Zeitoun_ Cairo Governorate_ Egypt || El-Zaytoun Sharkeya_ Zeitoun_ Cairo Governorate_ Egypt || Zeitoun_ Cairo Governorate_ Egypt || Cairo Governorate_ Egypt
6076965794,31.31683,30.1043068, || 33 Mohammed Mousa Ln_ El-Zaytoun Sharkeya_ Zeitoun_ Cairo Governorate_ Egypt || الزيتون الشرقية_ الزيتون__ El-Zaytoun Sharkeya_ Zeitoun_ Cairo Governorate_ Egypt || 12 Mohammed Mousa Ln_ El-Zaytoun Sharkeya_ Zeitoun_ Cairo Governorate_ Egypt || 33 Mohammed Mousa Ln_ El-Zaytoun Sharkeya_ Zeitoun_ Cairo Governorate_ Egypt
7191589971,31.3448521,30.0858819, || 36 Abd El-Moneim Hafez_ Almazah_ Heliopolis_ Cairo Governorate_ Egypt || 46 Abd El-Moneim Hafez_ Almazah_ Heliopolis_ Cairo Governorate_ Egypt || Mokhtar Khallaf_ Almazah_ Heliopolis_ Cairo Governorate_ Egypt || 41 Abd El-Moneim Hafez_ Almazah_ Heliopolis_ Cairo Governorate_ Egypt
436038932,31.318269,30.0919695, || 5 Ibrahim Al Lakani_ El-Montaza_ Heliopolis_ Cairo Governorate 11341_ Egypt || 6 Soliman Basha_ El-Montaza_ Heliopolis_ Cairo Governorate_ Egypt || 10 Soliman Basha_ El-Montaza_ Heliopolis_ Cairo Governorate_ Egypt || 1-5 Ibrahim Al Lakani_ El-Montaza_ Heliopolis_ Cairo Governorate_ Egypt
6612676839,31.2939505,30.0845902, || 12 Mostafa Mansour_ El-Qobba Bridge_ Al Waili_ Cairo Governorate_ Egypt || 12 Mostafa Mansour_ El-Qobba Bridge_ Al Waili_ Cairo Governorate_ Egypt || 11 Mostafa Mansour_ El-Qobba Bridge_ Al Waili_ Cairo Governorate_ Egypt || El-Qobba Bridge_ Al Waili_ Cairo Governorate_ Egypt
6581328728,31.3217479,30.0974512, || المعهد الإشتراكي_ البستان_ قسم مصر الجديدة__ El-Bostan_ Heliopolis_ Cairo Governorate_ Egypt || 21 El-Higaz_ El-Bostan_ Heliopolis_ Cairo Governorate_ Egypt || 58 Nazih Khalifa_ El-Bostan_ Heliopolis_ Cairo Governorate_ Egypt || 35-43 Nazih Khalifa_ El-Bostan_ Heliopolis_ Cairo Governorate_ Egypt
6536245942,31.2945501,30.0779552, || Martial Passage_ El-Qobba Bridge_ Al Waili_ Cairo Governorate_ Egypt || El-Qobba Bridge_ Al Waili_ Cairo Governorate_ Egypt || Al Waili_ Cairo Governorate_ Egypt || Cairo_ Cairo Governorate_ Egypt
339842849,31.3003359,30.0948877, || Teraat Al Gabal_ AZ Zaytoun Al Qebleyah_ Zeitoun_ Cairo Governorate_ Egypt || 71 Saraya Al Koba_ El-Zaytoun Sharkeya_ Zeitoun_ Cairo Governorate_ Egypt || AZ Zaytoun Al Qebleyah_ Zeitoun_ Cairo Governorate_ Egypt || Zeitoun_ Cairo Governorate_ Egypt
7188563004,31.3472538,30.0861252, || Tivoli Dome_ عمر بن الخطاب_ الماظة_ قسم مصر الجديدة_ محافظة القاهرة‬__ الماظة_ قسم مصر الجديدة_ محافظة القاهرة‬_ Egypt || Omar Ibn El-Khattab_ Almazah_ Heliopolis_ Cairo Governorate_ Egypt || Almazah_ Heliopolis_ Cairo Governorate_ Egypt || Heliopolis_ Cairo Governorate_ Egypt
6572659146,31.3382935,30.0732314, || 50 El-Nozha_ Al Golf_ Nasr City_ Cairo Governorate_ Egypt || El-Nozha_ Al Golf_ Nasr City_ Cairo Governorate_ Egypt || Rabaa Buildings_ Al Golf_ Nasr City_ Cairo Governorate_ Egypt || Al Golf_ Nasr City_ Cairo Governorate_ Egypt
6594787870,31.312953,30.1032473, || 11 Al Leith_ El-Zaytoun Sharkeya_ Zeitoun_ Cairo Governorate_ Egypt || 11 Al Leith_ El-Zaytoun Sharkeya_ Zeitoun_ Cairo Governorate_ Egypt || Al Leith_ El-Zaytoun Sharkeya_ Zeitoun_ Cairo Governorate_ Egypt || 6 El-Sedeek_ El-Zaytoun Sharkeya_ Zeitoun_ Cairo Governorate_ Egypt
7937028022,31.3414822,30.0728423, || City Stars Terminal_ Masaken Al Mohandesin_ Nasr City_ Cairo Governorate_ Egypt || 8 Omarat Al Madfaaia_ Masaken Al Mohandesin_ Nasr City_ Cairo Governorate_ Egypt || Omarat Al Madfaaia_ Masaken Al Mohandesin_ Nasr City_ Cairo Governorate_ Egypt || 11 Omarat Al Madfaaia_ Masaken Al Mohandesin_ Nasr City_ Cairo Governorate_ Egypt
6572779496,31.3399655,30.0767491, || 3 Omarat Al Saudeya_ Al Golf_ Nasr City_ Cairo Governorate_ Egypt || 5 Omarat Al Saudeya_ Nasr City_ Cairo Governorate_ Egypt || 3-13 Omarat Al Saudeya_ Nasr City_ Cairo Governorate_ Egypt || Masaken Al Mohandesin_ Nasr City_ Cairo Governorate_ Egypt
6569748963,31.3188405,30.0733299, || 51 التوفيق_ El-Tawfik_ Nasr City_ Cairo Governorate_ Egypt || 51 التوفيق_ El-Tawfik_ Nasr City_ Cairo Governorate_ Egypt || 4-6 Khedr El-Touny_ El-Tawfik_ Nasr City_ Cairo Governorate_ Egypt || El-Tawfik_ Nasr City_ Cairo Governorate_ Egypt
8415484021,31.3114363,30.104252, || 34 سليم الاول_ الزيتون الشرقية__ El-Zaytoun Sharkeya_ Zeitoun_ Cairo Governorate_ Egypt || 36 Salim Al Awal_ El-Zaytoun El-Bahareya_ Zeitoun_ Cairo Governorate_ Egypt || 33 Salim Al Awal_ El-Zaytoun Sharkeya_ Zeitoun_ Cairo Governorate_ Egypt || 36 Salim Al Awal_ El-Zaytoun Sharkeya_ Zeitoun_ Cairo Governorate_ Egypt
6594769721,31.2993293,30.0999588, || 7 سوزان مبارك_ الزيتون القبلية_ الزيتون__ AZ Zaytoun Al Qebleyah_ Zeitoun_ Cairo Governorate_ Egypt || 2 Souzan Moubarak_ AZ Zaytoun Al Qebleyah_ Zeitoun_ Cairo Governorate_ Egypt || 7 Souzan Moubarak_ AZ Zaytoun Al Qebleyah_ Zeitoun_ Cairo Governorate_ Egypt || AZ Zaytoun Al Qebleyah_ Zeitoun_ Cairo Governorate_ Egypt
432773208,31.3172716,30.0876126, || Omar Shalaby Trail_ Mansheya El-Bakry_ Heliopolis_ Cairo Governorate_ Egypt || Mansheya El-Bakry_ Heliopolis_ Cairo Governorate_ Egypt || Heliopolis_ Cairo Governorate_ Egypt || Cairo Governorate_ Egypt
8264776669,31.3385246,30.1045648, || 20 Mohammed Shafeek_ El-Nozha_ El Nozha_ Cairo Governorate_ Egypt || 18 Mohammed Shafeek_ El-Nozha_ El Nozha_ Cairo Governorate_ Egypt || 19 Mohammed Shafeek_ El-Nozha_ El Nozha_ Cairo Governorate_ Egypt || 20-7 Mohammed Shafeek_ El-Nozha_ El Nozha_ Cairo Governorate_ Egypt
8668026940,31.3006434,30.0764377, || Ismail Al Fangari_ El-Qobba Bridge_ Al Waili_ Cairo Governorate_ Egypt || El-Qobba Bridge_ Al Waili_ Cairo Governorate_ Egypt || Heliopolis_ Cairo Governorate_ Egypt || Cairo_ Cairo Governorate_ Egypt
7869023515,31.3495202,30.1012809, || 129 El-Lewaa Abd El-Aziz Ali_ El-Nozha_ El Nozha_ Cairo Governorate_ Egypt || 5 El-Shaheed Mahmoud Hassouna_ El-Nozha_ El Nozha_ Cairo Governorate_ Egypt || Abd El-Aziz Fahmy_ El-Nozha_ El Nozha_ Cairo Governorate_ Egypt || El-Nozha_ El Nozha_ Cairo Governorate_ Egypt
6574089312,31.3428729,30.073882, || 15 Omarat Al Madfaaia_ Masaken Al Mohandesin_ Nasr City_ Cairo Governorate_ Egypt || 16 Omarat Al Madfaaia_ Masaken Al Mohandesin_ Nasr City_ Cairo Governorate_ Egypt || 14 Makrem Ebeid Ext_ Masaken Al Mohandesin_ Nasr City_ Cairo Governorate_ Egypt || Masaken Al Mohandesin_ Nasr City_ Cairo Governorate_ Egypt
6086656862,31.2956008,30.0838469, || Kobry Al Qobba_ El-Qobba Bridge_ Heliopolis_ Cairo Governorate_ Egypt || كوبرى القبة__ كوبري القبة_ الوايلى_ محافظة القاهرة‬_ Egypt || El-Khalifa El-Maamoun_ El-Qobba Bridge_ Al Waili_ Cairo Governorate_ Egypt || El-Qobba Bridge_ Al Waili_ Cairo Governorate_ Egypt
6594769715,31.2957666,30.1013499, || 97 Souzan Moubarak_ AZ Zaytoun Al Qebleyah_ Zeitoun_ Cairo Governorate_ Egypt || 97 Souzan Moubarak_ AZ Zaytoun Al Qebleyah_ Zeitoun_ Cairo Governorate_ Egypt || Souzan Moubarak_ AZ Zaytoun Al Qebleyah_ Zeitoun_ Cairo Governorate_ Egypt || AZ Zaytoun Al Qebleyah_ Zeitoun_ Cairo Governorate_ Egypt
3796945249,31.3171513,30.0806038, || El Tayaran St_ Al Golf_ Nasr City_ Cairo Governorate_ Egypt || 1 Salah Salem St_ Nasr City_ Cairo Governorate_ Egypt || Al Golf_ Nasr City_ Cairo Governorate_ Egypt || Nasr City_ Cairo Governorate_ Egypt
8248211996,31.3483608,30.0966137, || Al Galaa Theater Passage_ Sheraton Al Matar_ El Nozha_ Cairo Governorate_ Egypt || Sheraton Al Matar_ El Nozha_ Cairo Governorate_ Egypt || El Nozha_ Cairo Governorate_ Egypt || Cairo Governorate_ Egypt
6317749332,31.3048936,30.0863689, || El-Khalifa El-Maamoun_ Mansheya El-Bakry_ Heliopolis_ Cairo Governorate_ Egypt || 22 El-Khalifa El-Maamoun_ Mansheya El-Bakry_ Heliopolis_ Cairo Governorate_ Egypt || Mansheya El-Bakry_ Heliopolis_ Cairo Governorate_ Egypt || Heliopolis_ Cairo Governorate_ Egypt
8278629078,31.3199684,30.0730365, || التوفيق_ مدينة نصر__ El-Tawfik_ Nasr City_ Cairo Governorate_ Egypt || Al Tawfiq_ El-Tawfik_ Nasr City_ Cairo Governorate_ Egypt || El-Tawfik_ Nasr City_ Cairo Governorate_ Egypt || Nasr City_ Cairo Governorate_ Egypt
6580084655,31.3508392,30.1003526, || Al Galaa Military Hospital_ El-Nozha_ El Nozha_ Cairo Governorate_ Egypt || 136 El-Orouba_ El-Nozha_ El Nozha_ Cairo Governorate_ Egypt || 136 El-Orouba_ Al Matar_ El Nozha_ Cairo Governorate_ Egypt || 156 El-Orouba_ El-Nozha_ El Nozha_ Cairo Governorate_ Egypt
7187826222,31.347536,30.0970691, || Al Galaa Club_ Sheraton Al Matar_ El Nozha_ Cairo Governorate_ Egypt || Al Galaa Theater Passage_ Sheraton Al Matar_ El Nozha_ Cairo Governorate_ Egypt || Sheraton Al Matar_ El Nozha_ Cairo Governorate_ Egypt || El Nozha_ Cairo Governorate_ Egypt
6570417942,31.3206491,30.0727545, || Al Tawfiq_ El-Tawfik_ Nasr City_ Cairo Governorate_ Egypt || El-Tawfik_ Nasr City_ Cairo Governorate_ Egypt || Nasr City_ Cairo Governorate_ Egypt || Cairo Governorate_ Egypt
533746692,31.343419,30.076251, || 17 Omarat Al Saudeya_ Masaken Al Mohandesin_ Nasr City_ Cairo Governorate_ Egypt || Makrem Ebeid Ext_ Masaken Al Mohandesin_ Nasr City_ Cairo Governorate_ Egypt || 17 Omarat Al Saudeya_ Masaken Al Mohandesin_ Nasr City_ Cairo Governorate_ Egypt || Masaken Al Mohandesin_ Nasr City_ Cairo Governorate_ Egypt
6572876284,31.3475521,30.0720261, || مساكن المهندسين_ مدينة نصر__ Masaken Al Mohandesin_ Nasr City_ Cairo Governorate_ Egypt || Al Emdad & Al Tamween_ Masaken Al Mohandesin_ Nasr City_ Cairo Governorate_ Egypt || Masaken Al Mohandesin_ Nasr City_ Cairo Governorate_ Egypt || Nasr City_ Cairo Governorate_ Egypt
6616676904,31.2969002,30.0877733, || 4 Issa Abou Zeid_ El-Zaytoun Sharkeya_ Zeitoun_ Cairo Governorate_ Egypt || 12a Dar El-Salam_ St_ Zeitoun_ Cairo Governorate_ Egypt || 4 Issa Abou Zeid_ El-Zaytoun Sharkeya_ Zeitoun_ Cairo Governorate_ Egypt || Issa Abou Zeid_ El-Zaytoun Sharkeya_ Zeitoun_ Cairo Governorate_ Egypt
270423042,31.3400967,30.0796002, || 9 El-Nozha Bridge_ Masaken Al Mohandesin_ Nasr City_ Cairo Governorate_ Egypt || 9 El-Nozha Bridge_ Al Golf_ Nasr City_ Cairo Governorate_ Egypt || El-Nozha_ Nasr City_ Cairo Governorate_ Egypt || Masaken Al Mohandesin_ Nasr City_ Cairo Governorate_ Egypt
8234286110,31.3042469,30.0824979, || Unnamed Road_ Mansheya El-Bakry_ Heliopolis_ Cairo Governorate_ Egypt || Mansheya El-Bakry_ Heliopolis_ Cairo Governorate_ Egypt || Heliopolis_ Cairo Governorate_ Egypt || Cairo Governorate_ Egypt
6517553685,31.3100532,30.1001606, || Mahmoud Hasan_ El-Zaytoun Sharkeya_ Zeitoun_ Cairo Governorate_ Egypt || El-Zaytoun Sharkeya_ Zeitoun_ Cairo Governorate_ Egypt || Zeitoun_ Cairo Governorate_ Egypt || Cairo Governorate_ Egypt
6600507977,31.3174992,30.1022856, || 65 نصوح_ الزيتون الشرقية_ الزيتون__ El-Zaytoun Sharkeya_ Zeitoun_ Cairo Governorate_ Egypt || Snan Basha_ El-Zaytoun Sharkeya_ Zeitoun_ Cairo Governorate_ Egypt || El-Zaytoun Sharkeya_ Zeitoun_ Cairo Governorate_ Egypt || Zeitoun_ Cairo Governorate_ Egypt
6451966392,31.3150952,30.1051427, || 23 Tawfik Khaleel_ El-Zaytoun Sharkeya_ Zeitoun_ Cairo Governorate_ Egypt || الزيتون الشرقية_ الزيتون__ El-Zaytoun Sharkeya_ Zeitoun_ Cairo Governorate_ Egypt || 14 Dar El-Saada_ El-Zaytoun Sharkeya_ Zeitoun_ Cairo Governorate_ Egypt || 23 Haret Senan_ El-Zaytoun Sharkeya_ Zeitoun_ Cairo Governorate_ Egypt
6603274529,31.3146733,30.1032944, || Toman Bay St. ( Heliopolis)_ El-Zaytoun Sharkeya_ Zeitoun_ Cairo Governorate_ Egypt || 109 Toman Bai_ El-Zaytoun Sharkeya_ Zeitoun_ Cairo Governorate_ Egypt || 109 Toman Bai_ El-Zaytoun Sharkeya_ Zeitoun_ Cairo Governorate_ Egypt || Toman Bai_ El-Zaytoun Sharkeya_ Zeitoun_ Cairo Governorate_ Egypt
6616676703,31.306347,30.0964235, || Saraya Al Koba_ El-Zaytoun Sharkeya_ Zeitoun_ Cairo Governorate_ Egypt || 23 Saraya Al Koba_ El-Zaytoun Sharkeya_ Zeitoun_ Cairo Governorate_ Egypt || El-Zaytoun Sharkeya_ Zeitoun_ Cairo Governorate_ Egypt || Zeitoun_ Cairo Governorate_ Egypt
7232904757,31.3347818,30.074494, || 56 Rabaa El Adaweya El Estesmary Buildings__ الجولف_ مدينة نصر_ محافظة القاهرة‬_ Egypt || 56 Rabaa El Adaweya El Estesmary Buildings_ Al Golf_ Nasr City_ Cairo Governorate_ Egypt || Passage Inside Military Area_ Al Golf_ Nasr City_ Cairo Governorate_ Egypt || Al Golf_ Nasr City_ Cairo Governorate_ Egypt
33471095,31.352203,30.0868441, || حسين كامل_ قسم النزهة__ Almazah_ El Nozha_ Cairo Governorate_ Egypt || 2 Moheb Kasem_ Almazah_ Heliopolis_ Cairo Governorate_ Egypt || Hussein Kamel_ Almazah_ El Nozha_ Cairo Governorate_ Egypt || 30 Ibrahim El-Sayed_ Almazah_ Heliopolis_ Cairo Governorate_ Egypt
7881159053,31.3191855,30.0881209, || Republic Palace_ El-Sayed El-Merghani_ El-Montaza_ Heliopolis_ Cairo Governorate_ Egypt || El-Sayed El-Merghany_ El-Montaza_ Heliopolis_ Cairo Governorate_ Egypt || Mansheya El-Bakry_ Heliopolis_ Cairo Governorate_ Egypt || Heliopolis_ Cairo Governorate_ Egypt
8256766037,31.3095949,30.0738383, || Ehsan Abd Al Kodoos_ Al Estad_ Nasr City_ Cairo Governorate_ Egypt || Al Estad_ Nasr City_ Cairo Governorate_ Egypt || Qesm Than Madinet Nasr_ Cairo Governorate_ Egypt || Cairo Governorate_ Egypt
7873018585,31.3360959,30.0968869, || 51 Othman Ibn Affan_ Almazah_ Heliopolis_ Cairo Governorate_ Egypt || 51 Othman Ibn Affan_ Almazah_ Heliopolis_ Cairo Governorate_ Egypt || 51 Othman Ibn Afan_ Almazah_ Heliopolis_ Cairo Governorate_ Egypt || 51 Othman Ibn Affan_ Almazah_ Heliopolis_ Cairo Governorate_ Egypt
6512538250,31.3063219,30.0776156, || Unnamed Road_ Mansheya El-Bakry_ Heliopolis_ Cairo Governorate_ Egypt || Mansheya El-Bakry_ Heliopolis_ Cairo Governorate_ Egypt || Heliopolis_ Cairo Governorate_ Egypt || Cairo Governorate_ Egypt
415859976,31.343943,30.0760674, || Omarat Milsa_ Masaken Al Mohandesin_ Nasr City_ Cairo Governorate_ Egypt || 17 Omarat Al Saudeya_ Masaken Al Mohandesin_ Nasr City_ Cairo Governorate_ Egypt || Masaken Al Mohandesin_ Nasr City_ Cairo Governorate_ Egypt || Nasr City_ Cairo Governorate_ Egypt
4393502196,31.2922275,30.0768019, || كوبري القبة_ الوايلى__ El-Qobba Bridge_ Al Waili_ Cairo Governorate_ Egypt || Organization of African Unity St_ El-Qobba Bridge_ Al Waili_ Cairo Governorate_ Egypt || El-Qobba Bridge_ Al Waili_ Cairo Governorate_ Egypt || Al Waili_ Cairo Governorate_ Egypt
7198313954,31.3408043,30.0863889, || 56 El-Nozha_ Almazah_ Heliopolis_ Cairo Governorate_ Egypt || 56 El-Nozha_ Almazah_ Heliopolis_ Cairo Governorate_ Egypt || Nozha Bridge Entrance_ Almazah_ Heliopolis_ Cairo Governorate_ Egypt || 56 El-Nozha_ Almazah_ Heliopolis_ Cairo Governorate_ Egypt
6572234817,31.3446924,30.078236, || القاهره الكبرى القاهرة الكبرى_ Masaken Al Mohandesin_ Nasr City_ Cairo Governorate_ Egypt || 6 Omarat Milsa_ Masaken Al Mohandesin_ Nasr City_ Cairo Governorate_ Egypt || 23 Hassan Aflaton_ Masaken Al Mohandesin_ Nasr City_ Cairo Governorate_ Egypt || Hassan Aflaton_ Masaken Al Mohandesin_ Nasr City_ Cairo Governorate_ Egypt
8234294176,31.3172055,30.0883048, || HSC Club entrance_ منشية البكري_ مصر الجديدة__ Mansheya El-Bakry_ Heliopolis_ Cairo Governorate_ Egypt || 17 El-Sayed El-Marghany_ Mansheya El-Bakry_ Heliopolis_ Cairo Governorate_ Egypt || Heliopolis Sporting Club_ Mansheya El-Bakry_ Heliopolis_ Cairo Governorate_ Egypt || HSC Club Entrance_ Mansheya El-Bakry_ Heliopolis_ Cairo Governorate_ Egypt
7484086464,31.2968114,30.0820224, || Ismail Al Fangari_ El-Qobba Bridge_ Al Waili_ Cairo Governorate_ Egypt || El-Qobba Bridge_ Al Waili_ Cairo Governorate_ Egypt || Al Waili_ Cairo Governorate_ Egypt || Cairo_ Cairo Governorate_ Egypt
6569748932,31.3196329,30.0737962, || التوفيق_ مدينة نصر_ محافظة القاهرة‬___ التوفيق_ مدينة نصر_ محافظة القاهرة‬_ Egypt || 49 Al Tawfiq_ El-Tawfik_ Nasr City_ Cairo Governorate_ Egypt || 50 Al Tawfiq_ El-Tawfik_ Nasr City_ Cairo Governorate_ Egypt || Khedr El-Touny_ El-Tawfik_ Nasr City_ Cairo Governorate_ Egypt
7188562539,31.3533167,30.0828411, || 4 El-Shaheed Ahmed Fathi Kamel_ Almazah_ Heliopolis_ Cairo Governorate_ Egypt || 17 El-Shaheed Ahmed Fathi Kamel_ Almazah_ Heliopolis_ Cairo Governorate_ Egypt || 22 El-Shaheed Ahmed Fathi Kamel_ Almazah_ Heliopolis_ Cairo Governorate_ Egypt || 23-24 El-Shaheed Ahmed Fathi Kamel_ Almazah_ Heliopolis_ Cairo Governorate_ Egypt
2863265492,31.347941,30.0747379, || سيتى ستار بوابه رقم (4 بجوار العربي سيتى ستار_ Masaken Al Mohandesin_ Nasr City_ Cairo Governorate_ Egypt || Omar Ibn El-Khattab_ Masaken Al Mohandesin_ Nasr City_ Cairo Governorate_ Egypt || 2 Omar Ibn El-Khattab_ Masaken Al Mohandesin_ Nasr City_ Cairo Governorate_ Egypt || Masaken Al Mohandesin_ Nasr City_ Cairo Governorate_ Egypt
6570546168,31.33638,30.0856591, || 46 الثورة_ الماظة_ قسم مصر الجديدة_ محافظة القاهرة‬__ Almazah_ Heliopolis_ Cairo Governorate_ Egypt || 46 El-Thawra St_ Almazah_ Heliopolis_ Cairo Governorate_ Egypt || Abdallah Deraz_ Al Golf_ Nasr City_ Cairo Governorate_ Egypt || 53 El-Thawra St_ Al Golf_ Nasr City_ Cairo Governorate_ Egypt
6579896706,31.3023452,30.087609, || 5 Mansheya El-Bakry_ Heliopolis_ Cairo Governorate_ Egypt || 5 Mansheya El-Bakry_ Heliopolis_ Cairo Governorate_ Egypt || Mansheya El-Bakry_ Heliopolis_ Cairo Governorate_ Egypt || Mansheya El-Bakry_ Heliopolis_ Cairo Governorate_ Egypt
7179508184,31.3104473,30.091462, || Scoial Services School ( Roxy)_ Mansheya El-Bakry_ Heliopolis_ Cairo Governorate_ Egypt || Al Maqrizi_ Mansheya El-Bakry_ Heliopolis_ Cairo Governorate_ Egypt || 8 Al Eshaki_ Mansheya El-Bakry_ Heliopolis_ Cairo Governorate_ Egypt || Mansheya El-Bakry_ Heliopolis_ Cairo Governorate_ Egypt
330690330,31.2963558,30.0861308, || 17 Ismail Bek_ El-Zaytoun Sharkeya_ Zeitoun_ Cairo Governorate_ Egypt || 17 Ismail Bek_ El-Zaytoun Sharkeya_ Zeitoun_ Cairo Governorate_ Egypt || Ismail Bek_ El-Zaytoun Sharkeya_ Zeitoun_ Cairo Governorate_ Egypt || El-Zaytoun Sharkeya_ Zeitoun_ Cairo Governorate_ Egypt
6572762558,31.3453053,30.0750516, || Kelani Mohammed Kelani_ Masaken Al Mohandesin_ Nasr City_ Cairo Governorate_ Egypt || Masaken Al Mohandesin_ Nasr City_ Cairo Governorate_ Egypt || Nasr City_ Cairo Governorate_ Egypt || Cairo Governorate_ Egypt
6074150112,31.3087292,30.0999596, || 23 El-Karim_ El-Zaytoun Sharkeya_ Zeitoun_ Cairo Governorate_ Egypt || 6 Salim Al Awal_ El-Zaytoun Sharkeya_ Zeitoun_ Cairo Governorate_ Egypt || Salim Al Awal_ El-Zaytoun Sharkeya_ Zeitoun_ Cairo Governorate_ Egypt || El-Zaytoun Sharkeya_ Zeitoun_ Cairo Governorate_ Egypt
6600508097,31.3160858,30.1039621, || Passage_ El-Zaytoun Sharkeya_ Zeitoun_ Cairo Governorate_ Egypt || El-Zaytoun Sharkeya_ Zeitoun_ Cairo Governorate_ Egypt || Zeitoun_ Cairo Governorate_ Egypt || Cairo Governorate_ Egypt
6570546153,31.3393398,30.0820352, || 44_ Nabil Al Wakad_ Al Golf_ Nasr City_ Cairo Governorate_ Egypt || 32 El-Nozha_ Al Golf_ Nasr City_ Cairo Governorate_ Egypt || Ahmed El-Rashidy_ Al Golf_ Nasr City_ Cairo Governorate_ Egypt || Al Golf_ Nasr City_ Cairo Governorate_ Egypt
7201338921,31.3271643,30.1010524, || Abou Sombel_ El-Bostan_ Heliopolis_ Cairo Governorate_ Egypt || El-Bostan_ Heliopolis_ Cairo Governorate_ Egypt || Heliopolis_ Cairo Governorate_ Egypt || Cairo Governorate_ Egypt
7871989015,31.3070358,30.0832664, || 6 Ehsan Abd Al Kodoos_ Mansheya El-Bakry_ Heliopolis_ Cairo Governorate_ Egypt || 7 Ehsan Abd Al Kodoos_ Mansheya El-Bakry_ Heliopolis_ Cairo Governorate_ Egypt || Ehsan Abd Al Kodoos_ Mansheya El-Bakry_ Heliopolis_ Cairo Governorate_ Egypt || Mansheya El-Bakry_ Heliopolis_ Cairo Governorate_ Egypt
6570417500,31.3227829,30.0726657, || 115 التوفيق_ El-Tawfik_ Nasr City_ Cairo Governorate_ Egypt || El-Tawfik City_ El-Tawfik_ Nasr City_ Cairo Governorate_ Egypt || El-Tawfik_ Nasr City_ Cairo Governorate_ Egypt || Nasr City_ Cairo Governorate_ Egypt
6317352230,31.3361897,30.0739681, || 58_ 58 Rabaa El Estesmary Buildings_ Al Golf_ Nasr City_ Cairo Governorate_ Egypt || Black hawck_ Al Golf_ Nasr City_ Cairo Governorate_ Egypt || Rabaa Buildings_ Al Golf_ Nasr City_ Cairo Governorate_ Egypt || Al Golf_ Nasr City_ Cairo Governorate_ Egypt
6452150188,31.3489836,30.0770653, || مساكن المهندسين_ مدينة نصر_ القاهره_ Masaken Al Mohandesin_ Nasr City_ Cairo Governorate_ Egypt || Unnamed Road_ Masaken Al Mohandesin_ Nasr City_ Cairo Governorate_ Egypt || Masaken Al Mohandesin_ Nasr City_ Cairo Governorate_ Egypt || Nasr City_ Cairo Governorate_ Egypt
6614575704,31.3048359,30.0956586, || رافت رمضان_ 5 ش بنى عقيل سراى القبه_ 5 Awlad Eid_ El-Zaytoun Sharkeya_ Zeitoun_ Cairo Governorate_ Egypt || 1 Haret Al Gamea_ El-Zaytoun Sharkeya_ Zeitoun_ Cairo Governorate_ Egypt || Bani Okeel_ El-Zaytoun Sharkeya_ Zeitoun_ Cairo Governorate_ Egypt || El-Zaytoun Sharkeya_ Zeitoun_ Cairo Governorate_ Egypt
6574089402,31.3405141,30.075193, || 23 Saudia Complex Buildings_ النزهة_ مساكن المهندسين_ مدينة نصر_ محافظة القاهرة‬_ Egypt || Building 23_ Kelani Mohammed Kelani_ Masaken Al Mohandesin_ Nasr City_ Cairo Governorate_ Egypt || 11 Kelani Mohammed Kelani_ Masaken Al Mohandesin_ Nasr City_ Cairo Governorate_ Egypt || 9 Kelani Mohammed Kelani_ Masaken Al Mohandesin_ Nasr City_ Cairo Governorate_ Egypt
7203491916,31.3238924,30.1044062, || 13 Abd Al Aziz Al Beshri_ El-Bostan_ Heliopolis_ Cairo Governorate_ Egypt || 8 Abaza_ AZ Zaytoun Al Gharbeyah_ Zeitoun_ Cairo Governorate_ Egypt || 15 Abd Al Aziz Al Beshri_ El-Bostan_ Heliopolis_ Cairo Governorate_ Egypt || 18 Abd Al Aziz Al Beshri_ El-Bostan_ Heliopolis_ Cairo Governorate_ Egypt
7203492511,31.3402512,30.0838126, || Al Nozha Street_ Al Golf_ Nasr City_ Cairo Governorate_ Egypt || 50M_ Al Golf_ Nasr City_ Cairo Governorate_ Egypt || 61 El-Thawra St_ Al Golf_ Nasr City_ Cairo Governorate_ Egypt || Al Golf_ Nasr City_ Cairo Governorate_ Egypt
3796945246,31.313796,30.0865754, || 22-20 Manshiet Al Tairan_ Mansheya El-Bakry_ Heliopolis_ Cairo Governorate_ Egypt || 22 Manshiet Al Tairan_ Mansheya El-Bakry_ Heliopolis_ Cairo Governorate_ Egypt || 24 Manshiet Al Tairan_ Mansheya El-Bakry_ Heliopolis_ Cairo Governorate_ Egypt || 22 Manshiet Al Tairan_ Mansheya El-Bakry_ Heliopolis_ Cairo Governorate_ Egypt
7872679938,31.3219183,30.091728, || 12 Al Ahram_ El-Montaza_ Heliopolis_ Cairo Governorate_ Egypt || 17 Al Ahram_ El-Montaza_ Heliopolis_ Cairo Governorate_ Egypt || 10 Al Ahram_ El-Montaza_ Heliopolis_ Cairo Governorate_ Egypt || 11 Al Ahram_ El-Montaza_ Heliopolis_ Cairo Governorate_ Egypt
6080935211,31.3263355,30.0834242, || محمد غنيم_ الجولف_ مدينة نصر__ Al Golf_ Nasr City_ Cairo Governorate_ Egypt || 2 Mohammed Anis_ Al Golf_ Nasr City_ Cairo Governorate_ Egypt || 32 Mahmoud Hasan_ Al Golf_ Nasr City_ Cairo Governorate_ Egypt || 2 Mohammed Anis_ Al Golf_ Nasr City_ Cairo Governorate_ Egypt
6281690193,31.3403056,30.1013634, || 41 Nakhla Al Motieai_ El-Nozha_ El Nozha_ Cairo Governorate_ Egypt || 43 Nakhla Al Motieai_ El-Nozha_ El Nozha_ Cairo Governorate_ Egypt || 41 Nakhla Al Motieai_ El-Nozha_ El Nozha_ Cairo Governorate_ Egypt || El-Nozha_ El Nozha_ Cairo Governorate_ Egypt
7191590166,31.3464786,30.0905852, || 19 Ahmed Al Tablawi_ Almazah_ Heliopolis_ Cairo Governorate_ Egypt || 4 Al Shahid John Alias Gamal Rd_ Almazah_ Heliopolis_ Cairo Governorate_ Egypt || 4 Al Shahid John Alias Gamal Rd_ Almazah_ Heliopolis_ Cairo Governorate_ Egypt || 32 Ahmed Al Tablawi_ Almazah_ Heliopolis_ Cairo Governorate_ Egypt
8234286067,31.3359354,30.0903682, || 24 Farid_ Almazah_ Heliopolis_ Cairo Governorate_ Egypt || 25a Abd El-Salam Farid_ Almazah_ Heliopolis_ Cairo Governorate_ Egypt || 26 Lomomba_ Almazah_ Heliopolis_ Cairo Governorate_ Egypt || 26 Lomomba_ Almazah_ Heliopolis_ Cairo Governorate_ Egypt
7869023533,31.3490459,30.1039311, || 72 عثمان ابن عفان_ المطار_ قسم النزهة_ محافظة القاهرة‬__ Al Matar_ El Nozha_ Cairo Governorate_ Egypt || 127 Othman Ibn Affan_ Al Matar_ El Nozha_ Cairo Governorate_ Egypt || 124 Othman Ibn Affan_ Al Matar_ El Nozha_ Cairo Governorate_ Egypt || 124 Othman Ibn Affan_ Al Matar_ El Nozha_ Cairo Governorate_ Egypt
6586601325,31.3037973,30.079846, || 13 عمارات خلف العبور_ الدور 11___ الشهيد المقدم أحمد زكي_ منشية البكري_ قسم مصر الجديدة_ محافظة القاهرة‬_ Egypt || Al Shahid Al Mokadem Ahmed Zaki_ Mansheya El-Bakry_ Heliopolis_ Cairo Governorate_ Egypt || Mansheya El-Bakry_ Heliopolis_ Cairo Governorate_ Egypt || Heliopolis_ Cairo Governorate_ Egypt
6586138468,31.3149902,30.0807543, || مواقف خلف عمارات العبور__ منشية البكري_ قسم مصر الجديدة_ محافظة القاهرة‬_ Egypt || 3 Passage Inside Militari Area_ Mansheya El-Bakry_ Heliopolis_ Cairo Governorate 11311_ Egypt || Behind El-Obour Parking Road_ Mansheya El-Bakry_ Heliopolis_ Cairo Governorate_ Egypt || Mansheya El-Bakry_ Heliopolis_ Cairo Governorate_ Egypt
8256765958,31.3065033,30.0748663, || Panorama October_ Al Estad_ Qesm Than Madinet Nasr_ Cairo Governorate_ Egypt || 22 Salah Salem St_ Al Estad_ Qesm Than Madinet Nasr_ Cairo Governorate_ Egypt || Salah Salem St_ Al Estad_ Nasr City_ Cairo Governorate_ Egypt || 22 Salah Salem St_ Al Estad_ Qesm Than Madinet Nasr_ Cairo Governorate_ Egypt
6584535206,31.3051551,30.0793949, || أحمد زكي_ منشية البكري_ قسم مصر الجديدة_ محافظة القاهرة‬__ Mansheya El-Bakry_ Heliopolis_ Cairo Governorate_ Egypt || Ahmed Zaki_ Mansheya El-Bakry_ Heliopolis_ Cairo Governorate_ Egypt || Mansheya El-Bakry_ Heliopolis_ Cairo Governorate_ Egypt || Heliopolis_ Cairo Governorate_ Egypt
8255280303,31.3103452,30.0727645, || Ehsan Abd Al Kodoos_ Al Estad_ Nasr City_ Cairo Governorate_ Egypt || Al Estad_ Nasr City_ Cairo Governorate_ Egypt || Qesm Than Madinet Nasr_ Cairo Governorate_ Egypt || Cairo Governorate_ Egypt
8315387956,31.2973288,30.0994642, || 87 Wadi Al Nile_ AZ Zaytoun Al Qebleyah_ Zeitoun_ Cairo Governorate_ Egypt || 86 Wadi Al Nile_ AZ Zaytoun Al Qebleyah_ Zeitoun_ Cairo Governorate_ Egypt || Wadi Al Nile_ AZ Zaytoun Al Qebleyah_ Zeitoun_ Cairo Governorate_ Egypt || AZ Zaytoun Al Qebleyah_ Zeitoun_ Cairo Governorate_ Egypt
7201338948,31.3307032,30.1021028, || 33 Al Nada_ El-Bostan_ Heliopolis_ Cairo Governorate_ Egypt || 35 أبو بكر الصديق_ البستان_ قسم مصر الجديدة__ El-Bostan_ Heliopolis_ Cairo Governorate_ Egypt || 31 Al Nada_ El-Bostan_ Heliopolis_ Cairo Governorate_ Egypt || 31-2 Al Nada_ El-Bostan_ Heliopolis_ Cairo Governorate_ Egypt
8248211976,31.3491268,30.0966281, || Nadi Al Galaa_ Sheraton Al Matar_ El Nozha_ Cairo Governorate_ Egypt || Sheraton Al Matar_ El Nozha_ Cairo Governorate_ Egypt || El Nozha_ Cairo Governorate_ Egypt || Cairo Governorate_ Egypt
6570384053,31.3393674,30.0747405, || 8 El-Nozha_ Al Golf_ Nasr City_ Cairo Governorate_ Egypt || 8 El-Nozha_ Al Golf_ Nasr City_ Cairo Governorate_ Egypt || 8 El-Nozha_ Al Golf_ Nasr City_ Cairo Governorate_ Egypt || 8-5 El-Nozha_ Al Golf_ Nasr City_ Cairo Governorate_ Egypt
6619233240,31.3073727,30.0928296, || 38 Toman Bai_ El-Zaytoun Sharkeya_ Heliopolis_ Cairo Governorate_ Egypt || Gesr Al Suez_ Mansheya El-Bakry_ Heliopolis_ Cairo Governorate_ Egypt || Mansheya El-Bakry_ Heliopolis_ Cairo Governorate_ Egypt || Heliopolis_ Cairo Governorate_ Egypt
6080935210,31.3264929,30.0835131, || محمد غنيم_ الجولف_ مدينة نصر__ Al Golf_ Nasr City_ Cairo Governorate_ Egypt || 2 Mohammed Anis_ Al Golf_ Nasr City_ Cairo Governorate_ Egypt || 32 Mahmoud Hasan_ Al Golf_ Nasr City_ Cairo Governorate_ Egypt || 2 Mohammed Anis_ Al Golf_ Nasr City_ Cairo Governorate_ Egypt
6512572459,31.3286482,30.0791575, || Unnamed Road_ الجولف_ مدينة نصر_ محافظة القاهرة‬__ Al Golf_ Nasr City_ Cairo Governorate_ Egypt || Unnamed Road_ Al Golf_ Nasr City_ Cairo Governorate_ Egypt || Al Golf_ Nasr City_ Cairo Governorate_ Egypt || Nasr City_ Cairo Governorate_ Egypt
8047371673,31.340083,30.0781793, || 5 El-Nozha Bridge_ Al Golf_ Nasr City_ Cairo Governorate_ Egypt || Administrative Control_ Masaken Al Mohandesin_ Nasr City_ Cairo Governorate_ Egypt || 59 Hassan Aflaton_ Nasr City_ Cairo Governorate_ Egypt || El-Nozha_ Al Golf_ Nasr City_ Cairo Governorate_ Egypt
269290154,31.3250397,30.0932026, || 32 Ibrahim Al Lakani_ El-Montaza_ Heliopolis_ Cairo Governorate_ Egypt || 32 Ibrahim Al Lakani_ El-Montaza_ Heliopolis_ Cairo Governorate_ Egypt || Korba District_ Almazah_ Heliopolis_ Cairo Governorate_ Egypt || 33 Al Ahram_ El-Montaza_ Heliopolis_ Cairo Governorate_ Egypt
7881169187,31.3206322,30.087028, || El-Sayed El-Marghany_ Mansheya El-Bakry_ Heliopolis_ Cairo Governorate_ Egypt || Republic Palace_ El-Sayed El-Merghani_ El-Montaza_ Heliopolis_ Cairo Governorate_ Egypt || Mansheya El-Bakry_ Heliopolis_ Cairo Governorate_ Egypt || Heliopolis_ Cairo Governorate_ Egypt
6602409025,31.3124801,30.0928692, || الاشجار_ منشية البكري_ قسم مصر الجديدة__ Mansheya El-Bakry_ Heliopolis_ Cairo Governorate_ Egypt || El-Badry_ Mansheya El-Bakry_ Heliopolis_ Cairo Governorate_ Egypt || Mansheya El-Bakry_ Heliopolis_ Cairo Governorate_ Egypt || Heliopolis_ Cairo Governorate_ Egypt
8081679575,31.3185903,30.0962142, || 6a El Hegaz St_ El-Montaza_ Heliopolis_ Cairo Governorate_ Egypt || 4 Al Maahad Eshtraki_ El-Montaza_ Heliopolis_ Cairo Governorate_ Egypt || El Hegaz St_ El-Montaza_ Heliopolis_ Cairo Governorate_ Egypt || El-Montaza_ Heliopolis_ Cairo Governorate_ Egypt
8234294172,31.3176523,30.0879576, || HSC Club entrance_ منشية البكري_ مصر الجديدة__ Mansheya El-Bakry_ Heliopolis_ Cairo Governorate_ Egypt || Heliopolis Sporting Club_ Mansheya El-Bakry_ Heliopolis_ Cairo Governorate_ Egypt || 17 El-Sayed El-Marghany_ Mansheya El-Bakry_ Heliopolis_ Cairo Governorate_ Egypt || HSC Club Entrance_ Mansheya El-Bakry_ Heliopolis_ Cairo Governorate_ Egypt
7869023490,31.3467269,30.1041564, || 86 Ali Shalaby_ Al Matar_ El Nozha_ Cairo Governorate_ Egypt || 86 Ali Shalaby_ Al Matar_ El Nozha_ Cairo Governorate_ Egypt || 78 Abd El-Aziz Fahmy_ El-Nozha_ El Nozha_ Cairo Governorate_ Egypt || 80-74 Abd El-Aziz Fahmy_ El-Nozha_ El Nozha_ Cairo Governorate_ Egypt
6595929213,31.2966311,30.1028595, || الزيتون القبلية_ الزيتون__ AZ Zaytoun Al Qebleyah_ El Amireya_ Cairo Governorate_ Egypt || 92 Abou Bakr El-Sedeek_ AZ Zaytoun Al Qebleyah_ Zeitoun_ Cairo Governorate_ Egypt || Abou Bakr El-Sedeek_ AZ Zaytoun Al Qebleyah_ Zeitoun_ Cairo Governorate_ Egypt || AZ Zaytoun Al Qebleyah_ Zeitoun_ Cairo Governorate_ Egypt
5441349326,31.3181903,30.0885305, || Heliopolis Sporting Club_ Mansheya El-Bakry_ Heliopolis_ Cairo Governorate_ Egypt || Republic Palace_ El-Sayed El-Merghani_ El-Montaza_ Heliopolis_ Cairo Governorate_ Egypt || El-Sayed El-Marghany_ Mansheya El-Bakry_ Heliopolis_ Cairo Governorate_ Egypt || 1 Shafeek Ghobrial_ El-Montaza_ Heliopolis_ Cairo Governorate_ Egypt
270420389,31.3484731,30.0914813, || Egypt Air Hospital_ Sheraton Al Matar_ El Nozha_ Cairo Governorate_ Egypt || Abou Bakr El-Sedeek_ Sheraton Al Matar_ El Nozha_ Cairo Governorate_ Egypt || Almazah_ Heliopolis_ Cairo Governorate_ Egypt || El Nozha_ Cairo Governorate_ Egypt
7184879768,31.3376476,30.0978994, || 79 Abou Bakr El-Sedeek_ El-Bostan_ Heliopolis_ Cairo Governorate_ Egypt || 60 Abou Bakr El-Sedeek_ Heliopolis_ Cairo Governorate_ Egypt || Abou Bakr El-Sedeek_ Almazah_ Heliopolis_ Cairo Governorate_ Egypt || Almazah_ Heliopolis_ Cairo Governorate_ Egypt
7868802286,31.3025354,30.1027258, || Abd El-Qader El-Kilany_ Zeitoun_ Cairo Governorate_ Egypt || AZ Zaytoun Al Gharbeyah_ Zeitoun_ Cairo Governorate_ Egypt || Zeitoun_ Cairo Governorate_ Egypt || Cairo Governorate_ Egypt
7881389655,31.3099617,30.0883949, || Souq Al Asr ( Khalifa Al Mamoun St. )_ Mansheya El-Bakry_ Heliopolis_ Cairo Governorate_ Egypt || 19 El-Khalifa El-Maamoun_ Mansheya El-Bakry_ Heliopolis_ Cairo Governorate_ Egypt || 56 El-Khalifa El-Maamoun_ Mansheya El-Bakry_ Heliopolis_ Cairo Governorate_ Egypt || 21 El-Khalifa El-Maamoun_ Mansheya El-Bakry_ Heliopolis_ Cairo Governorate_ Egypt
8270300664,31.3363706,30.1036651, || 101 Haroun El-Rashid_ El-Nozha_ El Nozha_ Cairo Governorate_ Egypt || 99 Haroun El-Rashid_ El-Nozha_ El Nozha_ Cairo Governorate_ Egypt || 62 Haroun El-Rashid_ El-Nozha_ El Nozha_ Cairo Governorate_ Egypt || 101 Haroun El-Rashid_ El-Nozha_ El Nozha_ Cairo Governorate_ Egypt
6613078901,31.3062441,30.0934422, || 28 Toman Bai_ El-Zaytoun Sharkeya_ Zeitoun_ Cairo Governorate_ Egypt || 28 Toman Bai_ El-Zaytoun Sharkeya_ Zeitoun_ Cairo Governorate_ Egypt || Toman Bai_ El-Zaytoun Sharkeya_ Zeitoun_ Cairo Governorate_ Egypt || El-Zaytoun Sharkeya_ Zeitoun_ Cairo Governorate_ Egypt
272479138,31.3351922,30.0849945, || Mohye El-Deen Abd El-Zaher_ Al Golf_ Nasr City_ Cairo Governorate_ Egypt || Al Golf_ Nasr City_ Cairo Governorate_ Egypt || Nasr City_ Cairo Governorate_ Egypt || Cairo Governorate_ Egypt
7872494993,31.3193867,30.0964977, || 14 El Hegaz St_ El-Montaza_ Heliopolis_ Cairo Governorate_ Egypt || Alex Bank (Al Hegaz)_ El-Montaza_ Heliopolis_ Cairo Governorate_ Egypt || 5 Al Maahad Eshtraki_ El-Montaza_ Heliopolis_ Cairo Governorate_ Egypt || 17 Al Maahad Eshtraki_ El-Montaza_ Heliopolis_ Cairo Governorate_ Egypt
7872626517,31.3271134,30.1025186, || 63 El Hegaz St_ El-Nozha_ El Nozha_ Cairo Governorate_ Egypt || 65_ Al Wali_ El-Bostan_ Heliopolis_ Cairo Governorate_ Egypt || 12 El Hegaz St_ El-Bostan_ Heliopolis_ Cairo Governorate_ Egypt || 63 El Hegaz St_ El-Bostan_ Heliopolis_ Cairo Governorate_ Egypt
273005740,31.3393273,30.0998378, || 4 Aga_ El-Nozha_ El Nozha_ Cairo Governorate_ Egypt || 7 Dkrns_ El-Nozha_ El Nozha_ Cairo Governorate_ Egypt || 6 Dkrns_ El-Nozha_ El Nozha_ Cairo Governorate_ Egypt || El-Nozha_ El Nozha_ Cairo Governorate_ Egypt
6586308331,31.2990046,30.0862561, || El-Khalifa El-Maamoun_ Mansheya El-Bakry_ Heliopolis_ Cairo Governorate_ Egypt || Mansheya El-Bakry_ Heliopolis_ Cairo Governorate_ Egypt || Heliopolis_ Cairo Governorate_ Egypt || Cairo Governorate_ Egypt
6572779691,31.340752,30.0711749, || Al Emdad & Al Tamween_ Masaken Al Mohandesin_ Nasr City_ Cairo Governorate_ Egypt || Masaken Al Mohandesin_ Nasr City_ Cairo Governorate_ Egypt || Nasr City_ Cairo Governorate_ Egypt || Cairo Governorate_ Egypt
6572779353,31.3464537,30.0774826, || 4 Omarat Milsa_ Masaken Al Mohandesin_ Nasr City_ Cairo Governorate_ Egypt || 4 Omarat Milsa_ Masaken Al Mohandesin_ Nasr City_ Cairo Governorate_ Egypt || 3 Omarat Milsa_ Masaken Al Mohandesin_ Nasr City_ Cairo Governorate_ Egypt || Masaken Al Mohandesin_ Nasr City_ Cairo Governorate_ Egypt
7216087772,31.3307426,30.085885, || 102 El-Sayed El-Merghany_ El-Montaza_ Heliopolis_ Cairo Governorate_ Egypt || hassan sadek_ El-Montaza_ Heliopolis_ Cairo Governorate_ Egypt || 19 hassan sadek_ El-Montaza_ Heliopolis_ Cairo Governorate_ Egypt || El-Montaza_ Heliopolis_ Cairo Governorate_ Egypt
8234876222,31.349809,30.0816958, || 122 El-Thawra St_ Masaken Al Mohandesin_ Nasr City_ Cairo Governorate_ Egypt || El-Lewaa El-Sayed El-Saeed_ Almazah_ Heliopolis_ Cairo Governorate_ Egypt || Almazah_ Heliopolis_ Cairo Governorate_ Egypt || Heliopolis_ Cairo Governorate_ Egypt
6572779342,31.3455934,30.0760737, || 6 عمارات ميلسا امام سيتي استار متفرع من_ حسن افلاطون_ مساكن المهندسين_ مدينة نصر_ محافظة القاهرة‬__ Masaken Al Mohandesin_ Nasr City_ Cairo Governorate_ Egypt || Omarat Milsa_ Masaken Al Mohandesin_ Nasr City_ Cairo Governorate_ Egypt || Masaken Al Mohandesin_ Nasr City_ Cairo Governorate_ Egypt || Nasr City_ Cairo Governorate_ Egypt
6586157296,31.3566422,30.1023761, || 28 Mohamed Said El-Halawany St_ Sheraton Al Matar_ El Nozha_ Cairo Governorate_ Egypt || 28 Mohamed Said El-Halawany St_ Sheraton Al Matar_ El Nozha_ Cairo Governorate_ Egypt || Festina Petroleum Services_ Sheraton Al Matar_ El Nozha_ Cairo Governorate_ Egypt || 27 Mohamed Said El-Halawany St_ Sheraton Al Matar_ El Nozha_ Cairo Governorate_ Egypt
6595929224,31.2983287,30.1010458, || 54مساكن السعودية /قسم__ الزيتون القبلية_ الأميرية_ محافظة القاهرة‬_ Egypt || 50 Souzan Moubarak_ AZ Zaytoun Al Qebleyah_ Zeitoun_ Cairo Governorate_ Egypt || Al Bank Al Ahli_ AZ Zaytoun Al Qebleyah_ Zeitoun_ Cairo Governorate_ Egypt || AZ Zaytoun Al Qebleyah_ Zeitoun_ Cairo Governorate_ Egypt
270744270,31.3268401,30.0801341, || 41 Ahmed Tayseer_ Al Golf_ Nasr City_ Cairo Governorate_ Egypt || Nabil Al Wakkad_ Al Golf_ Nasr City_ Cairo Governorate_ Egypt || 41 Ahmed Tayseer_ Al Golf_ Nasr City_ Cairo Governorate_ Egypt || Ahmed Tayseer_ Al Golf_ Nasr City_ Cairo Governorate_ Egypt
7232904741,31.3336837,30.0720164, || Passage Inside Military Area_ Al Golf_ Nasr City_ Cairo Governorate_ Egypt || مسجد الحق_ Al Golf_ Nasr City_ Cairo Governorate_ Egypt || Al Golf_ Nasr City_ Cairo Governorate_ Egypt || Nasr City_ Cairo Governorate_ Egypt
8422108331,31.2973666,30.1017879, || Unnamed Road_ AZ Zaytoun Al Qebleyah_ Zeitoun_ Cairo Governorate_ Egypt || AZ Zaytoun Al Qebleyah_ Zeitoun_ Cairo Governorate_ Egypt || El Amireya_ Cairo Governorate_ Egypt || Cairo Governorate_ Egypt
3944712337,31.3614851,30.08372, || داخل مطار الماظة_ Sheraton Al Matar_ El Nozha_ Cairo Governorate_ Egypt || Sheraton Al Matar_ El Nozha_ Cairo Governorate_ Egypt || El Nozha_ Cairo Governorate_ Egypt || Cairo Governorate_ Egypt
339842254,31.3011322,30.0999392, || 81 Al Mataria St_ AZ Zaytoun Al Gharbeyah_ Zeitoun_ Cairo Governorate_ Egypt || SAFA TOWER_ Al Mataria_ AZ Zaytoun Al Qebleyah_ Zeitoun_ Cairo Governorate_ Egypt || 81 Al Mataria St_ AZ Zaytoun Al Qebleyah_ Zeitoun_ Cairo Governorate_ Egypt || Al Mataria St_ AZ Zaytoun Al Qebleyah_ Zeitoun_ Cairo Governorate_ Egypt
6086464734,31.3235088,30.0764241, || Khedr Al Touny Exit to Al Tayaran_ Al Golf_ Nasr City_ Cairo Governorate_ Egypt || Khedr El-Touny_ Al Golf_ Nasr City_ Cairo Governorate_ Egypt || Al Golf_ Nasr City_ Cairo Governorate_ Egypt || Nasr City_ Cairo Governorate_ Egypt
7198313405,31.3309382,30.0921365, || 9 Ashmoun_ Almazah_ Heliopolis_ Cairo Governorate_ Egypt || 18 Ashmoun_ Almazah_ Heliopolis_ Cairo Governorate 11341_ Egypt || 9 Ashmoun_ Almazah_ Heliopolis_ Cairo Governorate_ Egypt || 8-20 Ashmoun_ Almazah_ Heliopolis_ Cairo Governorate_ Egypt
7201338976,31.3305413,30.0988699, || 38 Haroun El-Rashid_ El-Bostan_ Heliopolis_ Cairo Governorate_ Egypt || 23 Bahri Al Bostan_ El-Bostan_ Heliopolis_ Cairo Governorate_ Egypt || 36 Haroun El-Rashid_ El-Bostan_ Heliopolis_ Cairo Governorate_ Egypt || 45 Haroun El-Rashid_ El-Bostan_ Heliopolis_ Cairo Governorate_ Egypt
7869023514,31.3497135,30.1016918, || 129 El-Lewaa Abd El-Aziz Ali_ El-Nozha_ El Nozha_ Cairo Governorate_ Egypt || Abd El-Aziz Fahmy_ El-Nozha_ El Nozha_ Cairo Governorate_ Egypt || 3 El-Lewaa Abd El-Aziz Ali_ El-Nozha_ El Nozha_ Cairo Governorate_ Egypt || El-Nozha_ El Nozha_ Cairo Governorate_ Egypt
6569919791,31.3204712,30.0752671, || 51 Khedr El-Touny_ Ash Sharekat_ Nasr City_ Cairo Governorate_ Egypt || 51 Khedr El-Touny_ Nasr City_ Cairo Governorate_ Egypt || Khedr El-Touny_ Ash Sharekat_ Nasr City_ Cairo Governorate_ Egypt || Ash Sharekat_ Nasr City_ Cairo Governorate_ Egypt
7201338920,31.3263335,30.1017047, || 59 El Hegaz St_ El-Bostan_ Heliopolis_ Cairo Governorate_ Egypt || 61 El Hegaz St_ El-Bostan_ Heliopolis_ Cairo Governorate_ Egypt || El-Fateh_ El-Bostan_ Heliopolis_ Cairo Governorate_ Egypt || El-Bostan_ Heliopolis_ Cairo Governorate_ Egypt
6596876404,31.3041438,30.1038539, || 1 Wabour Al Meiah_ AZ Zaytoun Al Gharbeyah_ Zeitoun_ Cairo Governorate_ Egypt || 1 Wabour Al Meiah_ AZ Zaytoun Al Gharbeyah_ Zeitoun_ Cairo Governorate_ Egypt || Ahmed Mousa_ AZ Zaytoun Al Gharbeyah_ Zeitoun_ Cairo Governorate_ Egypt || AZ Zaytoun Al Gharbeyah_ Zeitoun_ Cairo Governorate_ Egypt
7869023485,31.3456517,30.1044123, || 91 Abd El-Aziz Fahmy_ El-Nozha_ El Nozha_ Cairo Governorate_ Egypt || 78 Abd El-Aziz Fahmy_ El-Nozha_ El Nozha_ Cairo Governorate_ Egypt || 47 Abd El-Aziz Fahmy_ El-Nozha_ El Nozha_ Cairo Governorate_ Egypt || Abd El-Aziz Fahmy_ El-Nozha_ El Nozha_ Cairo Governorate_ Egypt
7872679934,31.3222831,30.0919455, || 24 Al Ahram_ El-Montaza_ Heliopolis_ Cairo Governorate_ Egypt || 17 Al Ahram_ El-Montaza_ Heliopolis_ Cairo Governorate_ Egypt || 21 Al Ahram_ El-Montaza_ Heliopolis_ Cairo Governorate_ Egypt || 34-24 Al Ahram_ El-Montaza_ Heliopolis_ Cairo Governorate_ Egypt
6613793934,31.302267,30.0919045, || El-Farik Mahmoud Shokry_ El-Zaytoun Sharkeya_ Zeitoun_ Cairo Governorate_ Egypt || El-Zaytoun Sharkeya_ Zeitoun_ Cairo Governorate_ Egypt || Zeitoun_ Cairo Governorate_ Egypt || Cairo Governorate_ Egypt
8248212019,31.3480399,30.0969261, || Al Galaa Theater Passage_ Sheraton Al Matar_ El Nozha_ Cairo Governorate_ Egypt || Sheraton Al Matar_ El Nozha_ Cairo Governorate_ Egypt || El Nozha_ Cairo Governorate_ Egypt || Cairo Governorate_ Egypt
7203491950,31.3227907,30.1045632, || 144 Gesr Al Suez_ El-Zaytoun Sharkeya_ Heliopolis_ Cairo Governorate_ Egypt || The Commercial & Residental building - B_ 11 Abd Al Aziz Al Beshri_ El-Bostan_ Heliopolis_ Cairo Governorate_ Egypt || Al Cinteral_ El-Bostan_ Heliopolis_ Cairo Governorate_ Egypt || 6 Gesr Al Suez_ El-Bostan_ Heliopolis_ Cairo Governorate_ Egypt
7872687524,31.3181648,30.0890051, || 4 Al Ahram_ El-Montaza_ Heliopolis_ Cairo Governorate_ Egypt || Heliopolis Sporting Club_ Mansheya El-Bakry_ Heliopolis_ Cairo Governorate_ Egypt || 1 Al Ahram_ El-Montaza_ Heliopolis_ Cairo Governorate_ Egypt || Al Ahram_ El-Montaza_ Heliopolis_ Cairo Governorate_ Egypt
6616649871,31.3064884,30.0929158, || 17 Bani Tai_ El-Zaytoun Sharkeya_ Heliopolis_ Cairo Governorate_ Egypt || 33 Bani Tai_ Heliopolis_ Cairo Governorate_ Egypt || Dawoud Fort_ El-Zaytoun Sharkeya_ Zeitoun_ Cairo Governorate_ Egypt || El-Zaytoun Sharkeya_ Zeitoun_ Cairo Governorate_ Egypt
6619233190,31.3075711,30.0935081, || 38 Toman Bai_ El-Zaytoun Sharkeya_ Heliopolis_ Cairo Governorate_ Egypt || 38 Toman Bai_ El-Zaytoun Sharkeya_ Heliopolis_ Cairo Governorate_ Egypt || Ali Ismail_ Heliopolis_ Cairo Governorate_ Egypt || El-Zaytoun Sharkeya_ Zeitoun_ Cairo Governorate_ Egypt
7872972979,31.334568,30.0965375, || Al Ismailiya Square_ Almazah_ Heliopolis_ Cairo Governorate_ Egypt || 39 Othman Ibn Affan_ Almazah_ Heliopolis_ Cairo Governorate_ Egypt || 19 Omar Ibn El-Khattab_ Al Matar_ Heliopolis_ Cairo Governorate_ Egypt || 43 Othman Ibn Affan_ Almazah_ Heliopolis_ Cairo Governorate_ Egypt
7198313567,31.3405321,30.0954349, || 29 Roushdy Basha_ Almazah_ Heliopolis_ Cairo Governorate_ Egypt || 24 Roushdy Basha_ Almazah_ Heliopolis_ Cairo Governorate_ Egypt || 24 Roushdy Basha_ Almazah_ Heliopolis_ Cairo Governorate_ Egypt || 29 Roushdy Basha_ Almazah_ Heliopolis_ Cairo Governorate_ Egypt
7872687529,31.3195708,30.0903288, || Al Itihadeya_ El-Montaza_ Heliopolis_ Cairo Governorate_ Egypt || 17 Ibrahim Al Lakani_ El-Montaza_ Heliopolis_ Cairo Governorate_ Egypt || Republic Palace_ El-Sayed El-Merghani_ El-Montaza_ Heliopolis_ Cairo Governorate_ Egypt || Al Ahram_ El-Montaza_ Heliopolis_ Cairo Governorate_ Egypt
7201339154,31.3286871,30.0946722, || ١٢_ عثمان ابن عفان_ مع طلخا_ مصر الجديدة_ محافظة القاهرة‬__ Almazah_ Heliopolis_ Cairo Governorate_ Egypt || 7 Othman Ibn Affan_ Almazah_ Heliopolis_ Cairo Governorate_ Egypt || 12 Talkha_ El-Bostan_ Heliopolis_ Cairo Governorate_ Egypt || 13 Othman Ibn Affan_ Almazah_ Heliopolis_ Cairo Governorate_ Egypt
7872679917,31.3238238,30.0928643, || 27 Al Ahram_ El-Montaza_ Heliopolis_ Cairo Governorate_ Egypt || 26 Al Ahram_ El-Montaza_ Heliopolis_ Cairo Governorate_ Egypt || 14 Sherif_ El-Montaza_ Heliopolis_ Cairo Governorate_ Egypt || 39 Al Ahram_ El-Montaza_ Heliopolis_ Cairo Governorate_ Egypt
6640824676,31.3188424,30.1037863, || 10 Mohammed Khalaf_ El-Zaytoun El-Bahareya_ Zeitoun_ Cairo Governorate_ Egypt || محمد خلف_ الزيتون البحرية_ الزيتون_ محافظة القاهرة‬__ El-Zaytoun El-Bahareya_ Zeitoun_ Cairo Governorate_ Egypt || 3 Yehia Tawfik_ El-Zaytoun El-Bahareya_ Zeitoun_ Cairo Governorate_ Egypt || 10 Mohammed Khalaf_ El-Zaytoun El-Bahareya_ Zeitoun_ Cairo Governorate_ Egypt
6602836113,31.351667,30.0787761, || El-Shaheed Ibrahim El-Shaikh_ Masaken Al Mohandesin_ Nasr City_ Cairo Governorate_ Egypt || Masaken Al Mohandesin_ Nasr City_ Cairo Governorate_ Egypt || Nasr City_ Cairo Governorate_ Egypt || Cairo Governorate_ Egypt
7651678431,31.3274702,30.0843109, || 69 Al Marghni_ الجولف_ مدينة نصر_ محافظة القاهرة‬__ Al Golf_ Nasr City_ Cairo Governorate_ Egypt || 67 El-Sayed El-Marghany_ Al Golf_ Nasr City_ Cairo Governorate 11757_ Egypt || Al Baraka Bank_ El-Montaza_ Nasr City_ Cairo Governorate_ Egypt || 69 Al Marghni_ Al Golf_ Nasr City_ Cairo Governorate_ Egypt
7868789389,31.3348102,30.086328, || Telecom Egypt Central (Almaza)_ Al Golf_ Heliopolis_ Cairo Governorate_ Egypt || 38 El-Horeya_ Almazah_ Heliopolis_ Cairo Governorate_ Egypt || El-Sayed El-Marghany_ Al Golf_ Nasr City_ Cairo Governorate_ Egypt || 82 50M_ Almazah_ Heliopolis_ Cairo Governorate_ Egypt
6603331345,31.310688,30.0876854, || برج ١٩_ El-Khalifa El-Maamoun_ Mansheya El-Bakry_ Heliopolis_ Cairo Governorate_ Egypt || 3 El-Ansary_ Mansheya El-Bakry_ Heliopolis_ Cairo Governorate_ Egypt || 4 Al Motawag_ Mansheya El-Bakry_ Heliopolis_ Cairo Governorate_ Egypt || 8-3 El-Ansary_ Mansheya El-Bakry_ Heliopolis_ Cairo Governorate_ Egypt
7216087924,31.3219384,30.0915233, || 15 Al Ahram_ Street_ Heliopolis_ Cairo Governorate 11757_ Egypt || 13 Ibrahim Al Lakani_ El-Montaza_ Heliopolis_ Cairo Governorate_ Egypt || 16 Al Ahram_ El-Montaza_ Heliopolis_ Cairo Governorate_ Egypt || 11-17 Al Ahram_ El-Montaza_ Heliopolis_ Cairo Governorate_ Egypt
6613793736,31.3072891,30.0954681, || 2 Saad Soliman Ln_ El-Zaytoun Sharkeya_ Zeitoun_ Cairo Governorate_ Egypt || 8 Hasan Omar Ln_ El-Zaytoun Sharkeya_ Zeitoun_ Cairo Governorate_ Egypt || 5 Hasan Omar Ln_ El-Zaytoun Sharkeya_ Zeitoun_ Cairo Governorate_ Egypt || El-Zaytoun Sharkeya_ Zeitoun_ Cairo Governorate_ Egypt
7871989062,31.3085635,30.0767254, || 16 مواقف عمارات العبور_ Mansheya El-Bakry_ Nasr City_ Cairo Governorate_ Egypt || Ehsan Abd Al Kodoos_ Mansheya El-Bakry_ Heliopolis_ Cairo Governorate_ Egypt || Mansheya El-Bakry_ Heliopolis_ Cairo Governorate_ Egypt || Qesm Than Madinet Nasr_ Cairo Governorate_ Egypt
7188562887,31.3501684,30.0833757, || 34 El-Shaheed Ibrahim El-Shaikh_ Almazah_ Heliopolis_ Cairo Governorate_ Egypt || Al Mofatsheen_ Almazah_ Heliopolis_ Cairo Governorate_ Egypt || 32 El-Shaheed Ibrahim El-Shaikh_ Almazah_ Heliopolis_ Cairo Governorate_ Egypt || Almazah_ Heliopolis_ Cairo Governorate_ Egypt
7191590163,31.3454502,30.0899748, || 9 Galal Al Din Al Deswqi_ Almazah_ Heliopolis_ Cairo Governorate_ Egypt || 17 Galal Al Din Al Desouky_ Almazah_ Heliopolis_ Cairo Governorate 11361_ Egypt || 16 Al Shahid Moustafa Tabalah_ Almazah_ Heliopolis_ Cairo Governorate_ Egypt || Galal Al Din Al Desouky_ Almazah_ Heliopolis_ Cairo Governorate_ Egypt
7232866516,31.334167,30.0784898, || El-Qattan_ Al Golf_ Nasr City_ Cairo Governorate_ Egypt || Al Golf_ Nasr City_ Cairo Governorate_ Egypt || Nasr City_ Cairo Governorate_ Egypt || Cairo Governorate_ Egypt
8170594181,31.3328624,30.0826049, || 22 Shams Al Din Al Zahabi_ Al Golf_ Nasr City_ Cairo Governorate_ Egypt || 22 Shams Al Din Al Zahabi_ Al Golf_ Nasr City_ Cairo Governorate_ Egypt || 22 Shams Al Din Al Zahabi_ Al Golf_ Nasr City_ Cairo Governorate_ Egypt || Al Golf_ Nasr City_ Cairo Governorate_ Egypt
5442459243,31.3284105,30.0890923, || 9 Nazih Khalifa_ El-Bostan_ Heliopolis_ Cairo Governorate_ Egypt || 8 Nazih Khalifa_ El-Montaza_ Heliopolis_ Cairo Governorate_ Egypt || Nazih Khalifa_ El-Montaza_ Heliopolis_ Cairo Governorate_ Egypt || 4 Nazih Khalifa_ El-Montaza_ Heliopolis_ Cairo Governorate_ Egypt
7191590439,31.3514793,30.0871325, || 12 Ibrahim El-Sayed_ Almazah_ Heliopolis_ Cairo Governorate_ Egypt || 12 Ibrahim El-Sayed_ Almazah_ Heliopolis_ Cairo Governorate_ Egypt || 11 Ibrahim El-Sayed_ Almazah_ Heliopolis_ Cairo Governorate_ Egypt || Ibrahim El-Sayed_ Almazah_ Heliopolis_ Cairo Governorate_ Egypt
8251953408,31.3576753,30.0790151, || Passage Inside Armed Forces_ Masaken Al Mohandesin_ Nasr City_ Cairo Governorate_ Egypt || Masaken Al Mohandesin_ Nasr City_ Cairo Governorate_ Egypt || Nasr City_ Cairo Governorate_ Egypt || Cairo Governorate_ Egypt
6569748410,31.3210251,30.075005, || 51 Khedr El-Touny_ Ash Sharekat_ Nasr City_ Cairo Governorate_ Egypt || 51 Khedr El-Touny_ Nasr City_ Cairo Governorate_ Egypt || 51 Khedr El-Touny_ Nasr City_ Cairo Governorate_ Egypt || Ash Sharekat_ Nasr City_ Cairo Governorate_ Egypt
6536245944,31.2977734,30.0755877, || Martial Passage_ El-Qobba Bridge_ Al Waili_ Cairo Governorate_ Egypt || El-Qobba Bridge_ Al Waili_ Cairo Governorate_ Egypt || Al Waili_ Cairo Governorate_ Egypt || Cairo_ Cairo Governorate_ Egypt
6317462121,31.3384839,30.0818988, || 83 Nabil Al Wakad_ Al Golf_ Nasr City_ Cairo Governorate 11611_ Egypt || 5 El-Sheikh Mohammed El-Mahdi_ Al Golf_ Nasr City_ Cairo Governorate_ Egypt || Nabil Al Wakad_ Al Golf_ Nasr City_ Cairo Governorate_ Egypt || Al Golf_ Nasr City_ Cairo Governorate_ Egypt
330790119,31.2987122,30.087299, || حمزة عليش_ الزيتون الشرقية_ الزيتون_ محافظة القاهرة‬__ El-Zaytoun Sharkeya_ Heliopolis_ Cairo Governorate_ Egypt || Hamza Alish_ El-Zaytoun Sharkeya_ Zeitoun_ Cairo Governorate_ Egypt || El-Zaytoun Sharkeya_ Zeitoun_ Cairo Governorate_ Egypt || Heliopolis_ Cairo Governorate_ Egypt
7188562664,31.3558277,30.0834014, || Hussein Kamel_ El Nozha_ Cairo Governorate_ Egypt || Almazah_ Heliopolis_ Cairo Governorate_ Egypt || El Nozha_ Cairo Governorate_ Egypt || Cairo Governorate_ Egypt
7871910411,31.3436976,30.1039298, || Al Hays Pastry (Nozha St.)_ El-Nozha_ El Nozha_ Cairo Governorate_ Egypt || 133 El-Nozha_ El Nozha_ Cairo Governorate_ Egypt || 153 El-Nozha_ El Nozha_ Cairo Governorate_ Egypt || 119-133 El-Nozha_ El Nozha_ Cairo Governorate_ Egypt
6569748955,31.3171732,30.0724609, || 4 Youssef Abbas_ Al Estad_ Nasr City_ Cairo Governorate_ Egypt || Stadium_ El-Tawfik_ Nasr City_ Cairo Governorate_ Egypt || 4 Youssef Abbas_ Al Estad_ Nasr City_ Cairo Governorate_ Egypt || Youssef Abbas_ Al Estad_ Nasr City_ Cairo Governorate_ Egypt
7184389574,31.3488913,30.0988654, || 144 El-Orouba_ El-Nozha_ El Nozha_ Cairo Governorate_ Egypt || 144 El-Orouba_ El-Nozha_ El Nozha_ Cairo Governorate_ Egypt || El-Orouba_ Sheraton Al Matar_ El Nozha_ Cairo Governorate_ Egypt || El-Nozha_ El Nozha_ Cairo Governorate_ Egypt
4146488198,31.3369479,30.0780387, || 8 Al Sherka Al Port Saedeya_ Al Golf_ Nasr City_ Cairo Governorate_ Egypt || 8 Al Sherka Al Port Saedeya_ Al Golf_ Nasr City_ Cairo Governorate_ Egypt || Al Sherka Al Port Saedeya_ Al Golf_ Nasr City_ Cairo Governorate_ Egypt || Al Golf_ Nasr City_ Cairo Governorate_ Egypt
6568245721,31.3150853,30.077146, || الشركات_ مدينة نصر___ الشركات_ مدينة نصر_ محافظة القاهرة‬_ Egypt || 3 Youssef Abbas_ Ash Sharekat_ Nasr City_ Cairo Governorate_ Egypt || Mostafa Abou Zahra_ Ash Sharekat_ Nasr City_ Cairo Governorate_ Egypt || Ash Sharekat_ Nasr City_ Cairo Governorate_ Egypt
7166943626,31.3091391,30.0921858, || 7 Al Nwiri_ Mansheya El-Bakry_ Heliopolis_ Cairo Governorate_ Egypt || 7 Al Nwiri_ Mansheya El-Bakry_ Heliopolis_ Cairo Governorate_ Egypt || Al Nwiri_ Mansheya El-Bakry_ Heliopolis_ Cairo Governorate_ Egypt || Mansheya El-Bakry_ Heliopolis_ Cairo Governorate_ Egypt
7188562487,31.3524153,30.085687, || 7 Ahmed Abd El-Aziz_ Almazah_ Heliopolis_ Cairo Governorate_ Egypt || 7 Hussein Kamel_ Almazah_ Heliopolis_ Cairo Governorate_ Egypt || 7 Ahmed Abd El-Aziz_ Almazah_ Heliopolis_ Cairo Governorate_ Egypt || 7 Ahmed Abd El-Aziz_ Almazah_ Heliopolis_ Cairo Governorate_ Egypt
2475560826,31.3602978,30.0757052, || النادي الأهلي_ مدينة نصر__ An Nadi Al Ahli_ Nasr City_ Cairo Governorate_ Egypt || El-Nasr Rd_ An Nadi Al Ahli_ Nasr City_ Cairo Governorate_ Egypt || An Nadi Al Ahli_ Nasr City_ Cairo Governorate_ Egypt || Nasr City_ Cairo Governorate_ Egypt
7188562485,31.3480242,30.0848052, || 110 Omar Ibn El-Khattab_ Almazah_ Heliopolis_ Cairo Governorate_ Egypt || 110 Omar Ibn El-Khattab_ Almazah_ Heliopolis_ Cairo Governorate_ Egypt || 110 Omar Ibn El-Khattab_ Almazah_ Heliopolis_ Cairo Governorate_ Egypt || 109 Omar Ibn El-Khattab_ Almazah_ Heliopolis_ Cairo Governorate_ Egypt
7188562609,31.352374,30.0827736, || 22 El-Shaheed Ahmed Fathi Kamel_ Almazah_ Heliopolis_ Cairo Governorate_ Egypt || 4 El-Shaheed Ahmed Fathi Kamel_ Almazah_ Heliopolis_ Cairo Governorate_ Egypt || 22 El-Shaheed Ahmed Fathi Kamel_ Almazah_ Heliopolis_ Cairo Governorate_ Egypt || Almazah_ Heliopolis_ Cairo Governorate_ Egypt
7578025865,31.301001,30.0746996, || 34 Khalef Hadaeak Al Obour_ Mansheya El-Bakry_ Heliopolis_ Cairo Governorate_ Egypt || Ismail Al Fangari_ El-Qobba Bridge_ Al Waili_ Cairo Governorate_ Egypt || El-Qobba Bridge_ Al Waili_ Cairo Governorate_ Egypt || Heliopolis_ Cairo Governorate_ Egypt
6594748965,31.3006178,30.1015842, || 4 Taqseem Al Awqaf_ AZ Zaytoun Al Qebleyah_ Zeitoun_ Cairo Governorate_ Egypt || 4 Taqseem Al Awqaf_ AZ Zaytoun Al Qebleyah_ Zeitoun_ Cairo Governorate_ Egypt || Taqseem Al Awqaf_ AZ Zaytoun Al Qebleyah_ Zeitoun_ Cairo Governorate_ Egypt || AZ Zaytoun Al Qebleyah_ Zeitoun_ Cairo Governorate_ Egypt
7881389652,31.3099778,30.0881194, || 19 El-Khalifa El-Maamoun_ Mansheya El-Bakry_ Heliopolis_ Cairo Governorate_ Egypt || 19 El-Khalifa El-Maamoun_ Mansheya El-Bakry_ Heliopolis_ Cairo Governorate_ Egypt || Souq Al Asr ( Khalifa Al Mamoun St. )_ Mansheya El-Bakry_ Heliopolis_ Cairo Governorate_ Egypt || 19 Al Motawag_ Mansheya El-Bakry_ Heliopolis_ Cairo Governorate_ Egypt
8668027000,31.2982141,30.0850279, || Armed Forces Medical Complex (Kobry Al Qobba)_ Mansheya El-Bakry_ Heliopolis_ Cairo Governorate_ Egypt || Passage Inside Kobri Al Koba Hospital_ Mansheya El-Bakry_ Heliopolis_ Cairo Governorate_ Egypt || Mansheya El-Bakry_ Heliopolis_ Cairo Governorate_ Egypt || Heliopolis_ Cairo Governorate_ Egypt
7881169186,31.3205332,30.0870882, || El-Sayed El-Marghany_ Mansheya El-Bakry_ Heliopolis_ Cairo Governorate_ Egypt || Republic Palace_ El-Sayed El-Merghani_ El-Montaza_ Heliopolis_ Cairo Governorate_ Egypt || Mansheya El-Bakry_ Heliopolis_ Cairo Governorate_ Egypt || Heliopolis_ Cairo Governorate_ Egypt
8444320284,31.3334008,30.0920356, || 9 Salah El-Din St._ Almazah_ Heliopolis_ Cairo Governorate_ Egypt || 6 Salah El-Din St._ Almazah_ Heliopolis_ Cairo Governorate_ Egypt || 8-4 Salah El-Din St._ Almazah_ Heliopolis_ Cairo Governorate_ Egypt || Almazah_ Heliopolis_ Cairo Governorate_ Egypt
7872495055,31.3169913,30.0950638, || Roxy_ El-Montaza_ Heliopolis_ Cairo Governorate_ Egypt || 4 Mohammed Nafie_ El-Montaza_ Heliopolis_ Cairo Governorate_ Egypt || El Hegaz St_ El-Montaza_ Heliopolis_ Cairo Governorate_ Egypt || 4 Mohammed Nafie_ El-Montaza_ Heliopolis_ Cairo Governorate_ Egypt
8671165756,31.3042404,30.1040335, || 1 Wabour Al Meiah_ AZ Zaytoun Al Gharbeyah_ Zeitoun_ Cairo Governorate_ Egypt || Ahmed Mousa_ AZ Zaytoun Al Gharbeyah_ Zeitoun_ Cairo Governorate_ Egypt || AZ Zaytoun Al Gharbeyah_ Zeitoun_ Cairo Governorate_ Egypt || Zeitoun_ Cairo Governorate_ Egypt
273013652,31.3445431,30.1025443, || 6 Al Tdheya_ El-Nozha_ El Nozha_ Cairo Governorate_ Egypt || 5 Al Tdheya_ El-Nozha_ El Nozha_ Cairo Governorate_ Egypt || 3 Saed Sadek Al Doweni_ El-Nozha_ El Nozha_ Cairo Governorate_ Egypt || Saed Sadek Al Doweni_ El-Nozha_ El Nozha_ Cairo Governorate_ Egypt
6086670108,31.2938828,30.0859264, || 3 Al Qaaed_ El-Qobba Bridge_ Al Waili_ Cairo Governorate_ Egypt || 4 محطة القبة_ El-Zaytoun Sharkeya_ Zeitoun_ Cairo Governorate_ Egypt || Kobri Sraya Al Koba_ El-Qobba Bridge_ Al Waili_ Cairo Governorate_ Egypt || El-Qobba Bridge_ Al Waili_ Cairo Governorate_ Egypt
6319788982,31.337809,30.0727816, || 43 El-Nozha_ Al Golf_ Nasr City_ Cairo Governorate_ Egypt || 43 El-Nozha_ Al Golf_ Nasr City_ Cairo Governorate_ Egypt || Unnamed Road_ Al Golf_ Nasr City_ Cairo Governorate_ Egypt || Rabaa Buildings_ Al Golf_ Nasr City_ Cairo Governorate_ Egypt
273003791,31.3411121,30.098176, || 14 Al Sheikh Hassouna Al Nawawi_ El-Nozha_ El Nozha_ Cairo Governorate_ Egypt || 11 Al Sheikh Hassouna Al Nawawi_ El-Nozha_ El Nozha_ Cairo Governorate_ Egypt || 14 Al Sheikh Hassouna Al Nawawi_ El-Nozha_ El Nozha_ Cairo Governorate_ Egypt || 14-8 Al Sheikh Hassouna Al Nawawi_ El-Nozha_ El Nozha_ Cairo Governorate_ Egypt
411900325,31.3213495,30.0873758, || Ibrahim Al Lakani_ El-Montaza_ Heliopolis_ Cairo Governorate_ Egypt || El-Montaza_ Heliopolis_ Cairo Governorate_ Egypt || Heliopolis_ Cairo Governorate_ Egypt || Cairo Governorate_ Egypt
415860550,31.3455847,30.0759478, || Omarat Milsa_ Masaken Al Mohandesin_ Nasr City_ Cairo Governorate_ Egypt || Masaken Al Mohandesin_ Nasr City_ Cairo Governorate_ Egypt || Nasr City_ Cairo Governorate_ Egypt || Cairo Governorate_ Egypt
7872488978,31.3182956,30.0959427, || 6a El Hegaz St_ El-Montaza_ Heliopolis_ Cairo Governorate_ Egypt || 3 Al Maahad Eshtraki_ El-Montaza_ Heliopolis_ Cairo Governorate_ Egypt || El Hegaz St_ El-Montaza_ Heliopolis_ Cairo Governorate_ Egypt || El-Montaza_ Heliopolis_ Cairo Governorate_ Egypt
6572762546,31.3444769,30.0756768, || Omarat Milsa_ Masaken Al Mohandesin_ Nasr City_ Cairo Governorate_ Egypt || Masaken Al Mohandesin_ Nasr City_ Cairo Governorate_ Egypt || Nasr City_ Cairo Governorate_ Egypt || Cairo Governorate_ Egypt
6616677013,31.2991881,30.0878923, || العقاد_ الزيتون الشرقية_ الزيتون__ El-Zaytoun Sharkeya_ Zeitoun_ Cairo Governorate_ Egypt || El-Akad_ El-Zaytoun Sharkeya_ Zeitoun_ Cairo Governorate_ Egypt || El-Zaytoun Sharkeya_ Zeitoun_ Cairo Governorate_ Egypt || Zeitoun_ Cairo Governorate_ Egypt
7045333046,31.3019371,30.0805788, || Al Shahid Al Mokadem Ahmed Zaki_ Mansheya El-Bakry_ Heliopolis_ Cairo Governorate_ Egypt || Mansheya El-Bakry_ Heliopolis_ Cairo Governorate_ Egypt || Heliopolis_ Cairo Governorate_ Egypt || Cairo Governorate_ Egypt
7871989017,31.3069891,30.0822498, || Ehsan Abd Al Kodoos_ Mansheya El-Bakry_ Heliopolis_ Cairo Governorate_ Egypt || Mansheya El-Bakry_ Heliopolis_ Cairo Governorate_ Egypt || Heliopolis_ Cairo Governorate_ Egypt || Cairo Governorate_ Egypt
6290459834,31.3402464,30.0827131, || 29 El-Nozha_ Masaken Al Mohandesin_ Nasr City_ Cairo Governorate_ Egypt || El-Nozha_ Al Golf_ Nasr City_ Cairo Governorate_ Egypt || Al Golf_ Nasr City_ Cairo Governorate_ Egypt || Nasr City_ Cairo Governorate_ Egypt
271201592,31.3233203,30.0839007, || 4 No. 5_ Al Golf_ Nasr City_ Cairo Governorate_ Egypt || 7 Abbas Helmy_ Al Golf_ Nasr City_ Cairo Governorate_ Egypt || 3-19 No. 5_ Al Golf_ Nasr City_ Cairo Governorate_ Egypt || Al Golf_ Nasr City_ Cairo Governorate_ Egypt
6572671724,31.3353158,30.0724917, || مسجد الحق_ Al Golf_ Nasr City_ Cairo Governorate_ Egypt || Passage Inside Military Area_ Al Golf_ Nasr City_ Cairo Governorate_ Egypt || Al Golf_ Nasr City_ Cairo Governorate_ Egypt || Nasr City_ Cairo Governorate_ Egypt
7138474769,31.3507265,30.0796574, || ممر داخل دار الاشارة_ مساكن المهندسين_ مدينة نصر__ Masaken Al Mohandesin_ Nasr City_ Cairo Governorate_ Egypt || Passage Inside Puplic of Infantri_ Masaken Al Mohandesin_ Nasr City_ Cairo Governorate_ Egypt || Masaken Al Mohandesin_ Nasr City_ Cairo Governorate_ Egypt || Nasr City_ Cairo Governorate_ Egypt
6570417929,31.3200635,30.0736477, || التوفيق_ مدينة نصر_ محافظة القاهرة‬__ El-Tawfik_ Nasr City_ Cairo Governorate_ Egypt || 49 Al Tawfiq_ El-Tawfik_ Nasr City_ Cairo Governorate_ Egypt || Al Tawfiq_ El-Tawfik_ Nasr City_ Cairo Governorate_ Egypt || El-Tawfik_ Nasr City_ Cairo Governorate_ Egypt
270419764,31.3457509,30.087824, || 96 Omar Ibn El-Khattab_ Almazah_ Heliopolis_ Cairo Governorate_ Egypt || 96 Omar Ibn El-Khattab_ Almazah_ Heliopolis_ Cairo Governorate_ Egypt || 96-94 Omar Ibn El-Khattab_ Almazah_ Heliopolis_ Cairo Governorate_ Egypt || Almazah_ Heliopolis_ Cairo Governorate_ Egypt
6619233249,31.3057193,30.0914433, || 13 Gesr Al Suez_ Mansheya El-Bakry_ Heliopolis_ Cairo Governorate_ Egypt || 13 Gesr Al Suez_ Mansheya El-Bakry_ Heliopolis_ Cairo Governorate_ Egypt || Gesr Al Suez_ Mansheya El-Bakry_ Heliopolis_ Cairo Governorate_ Egypt || Mansheya El-Bakry_ Heliopolis_ Cairo Governorate_ Egypt
272479201,31.33452,30.0839177, || 13 Abdallah Deraz_ Al Golf_ Nasr City_ Cairo Governorate_ Egypt || Abd El-Hakim El-Garhy_ Al Golf_ Nasr City_ Cairo Governorate_ Egypt || 6 Ahmed Al Darderi_ Al Golf_ Nasr City_ Cairo Governorate_ Egypt || Al Golf_ Nasr City_ Cairo Governorate_ Egypt
6619233244,31.3064647,30.0932308, || 28 Toman Bai_ El-Zaytoun Sharkeya_ Zeitoun_ Cairo Governorate_ Egypt || Mousa Ln_ El-Zaytoun Sharkeya_ Zeitoun_ Cairo Governorate_ Egypt || El-Zaytoun Sharkeya_ Zeitoun_ Cairo Governorate_ Egypt || Zeitoun_ Cairo Governorate_ Egypt
7179507903,31.302674,30.0764027, || 30 Khalef Hadaeak Al Obour_ Mansheya El-Bakry_ Heliopolis_ Cairo Governorate_ Egypt || 32 Khalef Hadaeak Al Obour_ Mansheya El-Bakry_ Heliopolis_ Cairo Governorate_ Egypt || 29 Khalef Hadaeak Al Obour_ Mansheya El-Bakry_ Heliopolis_ Cairo Governorate_ Egypt || 32 Khalef Hadaeak Al Obour_ Mansheya El-Bakry_ Heliopolis_ Cairo Governorate_ Egypt
6605746204,31.3068851,30.1024887, || 7 Anis_ AZ Zaytoun Al Gharbeyah_ Zeitoun_ Cairo Governorate_ Egypt || 9 Anis_ AZ Zaytoun Al Gharbeyah_ Zeitoun_ Cairo Governorate_ Egypt || 7 Anis_ AZ Zaytoun Al Gharbeyah_ Zeitoun_ Cairo Governorate_ Egypt || 1-25 Anis_ AZ Zaytoun Al Gharbeyah_ Zeitoun_ Cairo Governorate_ Egypt
6602747367,31.3049529,30.0878313, || شارع لطفى حمامات القبة__ منشية البكري_ قسم مصر الجديدة_ محافظة القاهرة‬_ Egypt || 7 Ewais_ Mansheya El-Bakry_ Heliopolis_ Cairo Governorate_ Egypt || Lotfy_ Mansheya El-Bakry_ Heliopolis_ Cairo Governorate_ Egypt || 19 Lotfy_ Mansheya El-Bakry_ Heliopolis_ Cairo Governorate_ Egypt
670953432,31.3061412,30.091797, || Gesr Al Suez_ Mansheya El-Bakry_ Heliopolis_ Cairo Governorate_ Egypt || Mansheya El-Bakry_ Heliopolis_ Cairo Governorate_ Egypt || Heliopolis_ Cairo Governorate_ Egypt || Cairo Governorate_ Egypt
7872973461,31.3370016,30.0973318, || 54 Othman Ibn Affan_ El-Bostan_ Heliopolis_ Cairo Governorate_ Egypt || 53 Othman Ibn Affan_ Almazah_ Heliopolis_ Cairo Governorate_ Egypt || 54 Canal Al Sweis_ El-Bostan_ Heliopolis_ Cairo Governorate_ Egypt || 54 Othman Ibn Affan_ Almazah_ Heliopolis_ Cairo Governorate_ Egypt
6583668979,31.3349104,30.1040294, || 7 Mahmoud Nashed_ El-Nozha_ El Nozha_ Cairo Governorate_ Egypt || 60 Haroun El-Rashid_ El-Nozha_ El Nozha_ Cairo Governorate_ Egypt || 7 Mahmoud Nashed_ El-Nozha_ El Nozha_ Cairo Governorate_ Egypt || 7-11 Mahmoud Nashed_ El-Nozha_ El Nozha_ Cairo Governorate_ Egypt
7219938560,31.3518128,30.1000464, || داخل مطار الماظة_ Sheraton Al Matar_ El Nozha_ Cairo Governorate_ Egypt || 136 El-Orouba_ Al Matar_ El Nozha_ Cairo Governorate_ Egypt || Sheraton Al Matar_ El Nozha_ Cairo Governorate_ Egypt || El Nozha_ Cairo Governorate_ Egypt
6584310634,31.3067103,30.0824841, || Unnamed Road_ منشية البكري_ مصر الجديدة__ Mansheya El-Bakry_ Heliopolis_ Cairo Governorate_ Egypt || Ehsan Abd Al Kodoos_ Mansheya El-Bakry_ Heliopolis_ Cairo Governorate_ Egypt || Mansheya El-Bakry_ Heliopolis_ Cairo Governorate_ Egypt || Heliopolis_ Cairo Governorate_ Egypt
951326675,31.3351416,30.0813409, || 30 نبيل الوقاد_ Al Golf_ Nasr City_ Cairo Governorate_ Egypt || 40-30 Nabil Al Wakkad_ Al Golf_ Nasr City_ Cairo Governorate_ Egypt || Al Golf_ Nasr City_ Cairo Governorate_ Egypt || Nasr City_ Cairo Governorate_ Egypt
6586976333,31.3630632,30.0809406, || El-Nasr Rd_ Sheraton Al Matar_ El Nozha_ Cairo Governorate_ Egypt || Sheraton Al Matar_ El Nozha_ Cairo Governorate_ Egypt || El Nozha_ Cairo Governorate_ Egypt || Cairo Governorate_ Egypt
7208830850,31.3285637,30.0887702, || 33 El-Orouba_ El-Montaza_ Heliopolis_ Cairo Governorate_ Egypt || 4 Nazih Khalifa_ El-Montaza_ Heliopolis_ Cairo Governorate_ Egypt || 33 El-Orouba_ El-Montaza_ Heliopolis_ Cairo Governorate_ Egypt || 4 Nazih Khalifa_ El-Montaza_ Heliopolis_ Cairo Governorate_ Egypt
7872687525,31.3193493,30.0900002, || Qasr El Etahdia_ El-Montaza_ Heliopolis_ Cairo Governorate_ Egypt || Republic Palace_ El-Sayed El-Merghani_ El-Montaza_ Heliopolis_ Cairo Governorate_ Egypt || 2 Al Ahram_ El-Montaza_ Heliopolis_ Cairo Governorate_ Egypt || Al Ahram_ El-Montaza_ Heliopolis_ Cairo Governorate_ Egypt
6317543385,31.3222675,30.1000656, || شهاب الدين خفاجه_ البستان_ قسم مصر الجديدة_ محافظة القاهرة‬__ El-Bostan_ Heliopolis_ Cairo Governorate_ Egypt || 100 Shehab Al Din Khafaga_ El-Bostan_ Heliopolis_ Cairo Governorate_ Egypt || Shehab Al Din Khafaga_ El-Montaza_ Heliopolis_ Cairo Governorate_ Egypt || 100 Shehab Al Din Khafaga_ El-Bostan_ Heliopolis_ Cairo Governorate_ Egypt
7201338978,31.3291988,30.0996384, || 2 Haret Al Wast_ El-Bostan_ Heliopolis_ Cairo Governorate_ Egypt || 22 El-Reyad_ El-Bostan_ Heliopolis_ Cairo Governorate_ Egypt || 1 Haret Al Wast_ El-Bostan_ Heliopolis_ Cairo Governorate_ Egypt || 8 El-Reyad_ El-Bostan_ Heliopolis_ Cairo Governorate_ Egypt
7868805310,31.3049762,30.0743326, || Salah Salem St_ Al Estad_ Nasr City_ Cairo Governorate_ Egypt || Al Estad_ Nasr City_ Cairo Governorate_ Egypt || Qesm Than Madinet Nasr_ Cairo Governorate_ Egypt || Cairo Governorate_ Egypt
6602409043,31.3127925,30.0923149, || Unnamed Road_ Mansheya El-Bakry_ Heliopolis_ Cairo Governorate_ Egypt || 78 El-Khalifa El-Maamoun_ Mansheya El-Bakry_ Heliopolis_ Cairo Governorate_ Egypt || 79 El-Khalifa El-Maamoun_ Mansheya El-Bakry_ Heliopolis_ Cairo Governorate_ Egypt || Mansheya El-Bakry_ Heliopolis_ Cairo Governorate_ Egypt
6579896728,31.3034713,30.0869137, || 18 El-Khalifa El-Maamoun_ Mansheya El-Bakry_ Heliopolis_ Cairo Governorate_ Egypt || 18 El-Khalifa El-Maamoun_ Mansheya El-Bakry_ Heliopolis_ Cairo Governorate_ Egypt || Armed Forces College Of Medicine_ Mansheya El-Bakry_ Heliopolis_ Cairo Governorate_ Egypt || 18 El-Khalifa El-Maamoun_ Mansheya El-Bakry_ Heliopolis_ Cairo Governorate_ Egypt
6512404999,31.348876,30.0900799, || Masaken Almaza_ Almazah_ El Nozha_ Cairo Governorate_ Egypt || Hussein Kamel_ Almazah_ El Nozha_ Cairo Governorate_ Egypt || Sheraton Al Matar_ El Nozha_ Cairo Governorate_ Egypt || El Nozha_ Cairo Governorate_ Egypt
6570417536,31.3218726,30.0740677, || 51 Khedr El-Touny_ El-Tawfik_ Nasr City_ Cairo Governorate_ Egypt || Unnamed Road_ El-Tawfik_ Nasr City_ Cairo Governorate_ Egypt || El-Tawfik_ Nasr City_ Cairo Governorate_ Egypt || Nasr City_ Cairo Governorate_ Egypt
7203870367,31.3477761,30.0736203, || 2 Omar Ibn El-Khattab_ Masaken Al Mohandesin_ Nasr City_ Cairo Governorate_ Egypt || Omar Ibn El-Khattab_ Masaken Al Mohandesin_ Nasr City_ Cairo Governorate_ Egypt || Masaken Al Mohandesin_ Nasr City_ Cairo Governorate_ Egypt || Nasr City_ Cairo Governorate_ Egypt
6317550594,31.3361519,30.0822324, || 53 Shams Al Din Al Zahabi_ Al Golf_ Nasr City_ Cairo Governorate_ Egypt || 53 Shams Al Din Al Zahabi_ Al Golf_ Nasr City_ Cairo Governorate_ Egypt || Shams Al Din Al Zahabi_ Al Golf_ Nasr City_ Cairo Governorate_ Egypt || 28 Samir Mokhtar_ Al Golf_ Nasr City_ Cairo Governorate_ Egypt
7208807662,31.3160203,30.0930006, || Roxy Square_ El-Montaza_ Heliopolis_ Cairo Governorate_ Egypt || 1 Ibrahim Al Lakani_ El-Montaza_ Heliopolis_ Cairo Governorate_ Egypt || 1 Ibrahim Al Lakani_ El-Montaza_ Heliopolis_ Cairo Governorate_ Egypt || Ibrahim Al Lakani_ El-Montaza_ Heliopolis_ Cairo Governorate_ Egypt
7868789392,31.3349954,30.0867071, || Telecom Egypt Central (Almaza)_ Almazah_ Heliopolis_ Cairo Governorate_ Egypt || 38 El-Horeya_ Almazah_ Heliopolis_ Cairo Governorate_ Egypt || 38 El-Horeya_ Almazah_ Heliopolis_ Cairo Governorate_ Egypt || El-Horeya_ Almazah_ Heliopolis_ Cairo Governorate_ Egypt
3297999062,31.3416245,30.1043761, || 13 Dr Ahmed Amin St_ El-Nozha_ El Nozha_ Cairo Governorate_ Egypt || 13 Karmen_ El-Nozha_ El Nozha_ Cairo Governorate_ Egypt || 3 Dr Ahmed Amin St_ El-Nozha_ El Nozha_ Cairo Governorate_ Egypt || Dr Ahmed Amin St_ El-Nozha_ El Nozha_ Cairo Governorate_ Egypt
6619233131,31.3041425,30.0927956, || El-Farik Mahmoud Shokry_ El-Zaytoun Sharkeya_ Zeitoun_ Cairo Governorate_ Egypt || El-Zaytoun Sharkeya_ Zeitoun_ Cairo Governorate_ Egypt || Zeitoun_ Cairo Governorate_ Egypt || Cairo Governorate_ Egypt
8244627956,31.3143235,30.0782601, || 13 Salah Salem St_ Ash Sharekat_ Nasr City_ Cairo Governorate_ Egypt || Accountability State Auth._ Ash Sharekat_ Nasr City_ Cairo Governorate_ Egypt || 13 Salah Salem St_ Ash Sharekat_ Nasr City_ Cairo Governorate_ Egypt || 13 Salah Salem St_ Ash Sharekat_ Nasr City_ Cairo Governorate_ Egypt
339843086,31.2982397,30.096063, || الزيتون القبلية_ الزيتون__ AZ Zaytoun Al Qebleyah_ Zeitoun_ Cairo Governorate_ Egypt || Al Mataria St_ AZ Zaytoun Al Qebleyah_ Zeitoun_ Cairo Governorate_ Egypt || AZ Zaytoun Al Qebleyah_ Zeitoun_ Cairo Governorate_ Egypt || Zeitoun_ Cairo Governorate_ Egypt
6603153076,31.3075652,30.1038934, || 7 الصوفاني_ الزيتون الغربية_ الزيتون_ محافظة القاهرة‬__ AZ Zaytoun Al Gharbeyah_ Zeitoun_ Cairo Governorate_ Egypt || 7 Al Sofani_ AZ Zaytoun Al Gharbeyah_ Zeitoun_ Cairo Governorate_ Egypt || 8 Al Sofani_ AZ Zaytoun Al Gharbeyah_ Zeitoun_ Cairo Governorate_ Egypt || 5-7 Al Sofani_ AZ Zaytoun Al Gharbeyah_ Zeitoun_ Cairo Governorate_ Egypt
6512572460,31.3279881,30.0791716, || Unnamed Road_ Al Golf_ Nasr City_ Cairo Governorate_ Egypt || Al Golf_ Nasr City_ Cairo Governorate_ Egypt || Nasr City_ Cairo Governorate_ Egypt || Cairo Governorate_ Egypt
6452150191,31.3488678,30.0770793, || مساكن المهندسين_ مدينة نصر_ القاهره_ Masaken Al Mohandesin_ Nasr City_ Cairo Governorate_ Egypt || Unnamed Road_ Masaken Al Mohandesin_ Nasr City_ Cairo Governorate_ Egypt || Masaken Al Mohandesin_ Nasr City_ Cairo Governorate_ Egypt || Nasr City_ Cairo Governorate_ Egypt
317160465,31.3167206,30.1030213, || 26 Nasouh_ El-Zaytoun Sharkeya_ Zeitoun_ Cairo Governorate_ Egypt || 26 Nasouh_ El-Zaytoun Sharkeya_ Zeitoun_ Cairo Governorate_ Egypt || Hendy Ln_ El-Zaytoun Sharkeya_ Zeitoun_ Cairo Governorate_ Egypt || El-Zaytoun Sharkeya_ Zeitoun_ Cairo Governorate_ Egypt
6580046066,31.324711,30.0900452, || 11 Sesostris_ El-Montaza_ Heliopolis_ Cairo Governorate_ Egypt || 3 Abou Al Hol_ El-Montaza_ Heliopolis_ Cairo Governorate_ Egypt || 11 Sesostris_ El-Montaza_ Heliopolis_ Cairo Governorate_ Egypt || El-Montaza_ Heliopolis_ Cairo Governorate_ Egypt
7184879853,31.3580294,30.0813376, || داخل مطار الماظة_ El Nozha_ Cairo Governorate_ Egypt || Almazah_ Heliopolis_ Cairo Governorate_ Egypt || El Nozha_ Cairo Governorate_ Egypt || Cairo Governorate_ Egypt
7872679977,31.3188312,30.089891, || 8 Al Ahram_ El-Montaza_ Heliopolis_ Cairo Governorate_ Egypt || 1 Al Selhdar_ El-Montaza_ Heliopolis_ Cairo Governorate_ Egypt || 2 Al Lokanda_ El-Montaza_ Heliopolis_ Cairo Governorate_ Egypt || 1 Al Selhdar_ El-Montaza_ Heliopolis_ Cairo Governorate_ Egypt
7872495011,31.3203543,30.0971423, || 19 El Hegaz St_ El-Montaza_ El Nozha_ Cairo Governorate_ Egypt || 23 El-Higaz_ El-Montaza_ Heliopolis_ Cairo Governorate_ Egypt || 21-19 Al Maahad Eshtraki_ El-Montaza_ Heliopolis_ Cairo Governorate_ Egypt || 19 Al Maahad Al Eshtraki_ El-Montaza_ Heliopolis_ Cairo Governorate_ Egypt
7872972977,31.3344789,30.0965706, || 39 Othman Ibn Affan_ Almazah_ Heliopolis_ Cairo Governorate_ Egypt || Al Ismailiya Square_ Almazah_ Heliopolis_ Cairo Governorate_ Egypt || 19 Omar Ibn El-Khattab_ Al Matar_ Heliopolis_ Cairo Governorate_ Egypt || 24 Omar Ibn El-Khattab_ Heliopolis_ Cairo Governorate_ Egypt
8230247899,31.3309514,30.0750381, || Sour Dar Al Defaa Al Gawy_ Al Golf_ Nasr City_ Cairo Governorate_ Egypt || Al Golf_ Nasr City_ Cairo Governorate_ Egypt || Nasr City_ Cairo Governorate_ Egypt || Cairo Governorate_ Egypt
8255280505,31.3134861,30.0740859, || Passage Inside Stadium_ Al Estad_ Nasr City_ Cairo Governorate_ Egypt || Al Estad_ Nasr City_ Cairo Governorate_ Egypt || Qesm Than Madinet Nasr_ Cairo Governorate_ Egypt || Cairo Governorate_ Egypt
8256738307,31.3070594,30.0736143, || Passage Inside Stadium_ Al Estad_ Nasr City_ Cairo Governorate_ Egypt || Al Estad_ Nasr City_ Cairo Governorate_ Egypt || Qesm Than Madinet Nasr_ Cairo Governorate_ Egypt || Cairo Governorate_ Egypt
6094005327,31.2980181,30.0931431, || Hammamat El Kobba_ AZ Zaytoun Al Qebleyah_ Zeitoun_ Cairo Governorate_ Egypt || الزيتون القبلية_ الزيتون_ محافظة القاهرة‬__ AZ Zaytoun Al Qebleyah_ Zeitoun_ Cairo Governorate_ Egypt || Teraat Al Gabal_ AZ Zaytoun Al Qebleyah_ Zeitoun_ Cairo Governorate_ Egypt || AZ Zaytoun Al Qebleyah_ Zeitoun_ Cairo Governorate_ Egypt
6619233227,31.3069522,30.0928885, || شارع - قسم الزيتون - حي_ Saraya Al Koba_ El-Zaytoun Sharkeya_ Heliopolis_ Cairo Governorate_ Egypt || Manshiyat Al Bakry General Hospital_ Mansheya El-Bakry_ Heliopolis_ Cairo Governorate_ Egypt || 17 Bani Tai_ El-Zaytoun Sharkeya_ Heliopolis_ Cairo Governorate_ Egypt || Dawoud Fort_ Heliopolis_ Cairo Governorate_ Egypt
6507570963,31.359099,30.0773961, || Passage Inside Armed Forces_ Masaken Al Mohandesin_ Nasr City_ Cairo Governorate_ Egypt || Masaken Al Mohandesin_ Nasr City_ Cairo Governorate_ Egypt || Nasr City_ Cairo Governorate_ Egypt || Cairo Governorate_ Egypt
7201338969,31.3301945,30.1006272, || أبو بكر الصديق_ مصر الجديدة _قسم مصر الجديده_ El-Bostan_ Heliopolis_ Cairo Governorate_ Egypt || 1 Al Ezbah_ El-Bostan_ Heliopolis_ Cairo Governorate_ Egypt || 9 El-Reyad_ El-Bostan_ Heliopolis_ Cairo Governorate_ Egypt || 28 El-Reyad_ El-Bostan_ Heliopolis_ Cairo Governorate_ Egypt
7191590106,31.3469224,30.0840402, || 29 Ahmed Wasfi_ Almazah_ Heliopolis_ Cairo Governorate 11775_ Egypt || 23 Ahmed Wasfi_ Almazah_ Heliopolis_ Cairo Governorate_ Egypt || Mahmoud Fouad_ Almazah_ Heliopolis_ Cairo Governorate_ Egypt || 29 Ahmed Wasfi_ Almazah_ Heliopolis_ Cairo Governorate_ Egypt
7201338914,31.3247257,30.1005771, || Al Tawheed Wal Nour (Al Merryland)_ El-Bostan_ Heliopolis_ Cairo Governorate_ Egypt || 41 El Hegaz St_ El-Bostan_ Heliopolis_ Cairo Governorate_ Egypt || El Hegaz St_ El-Bostan_ Heliopolis_ Cairo Governorate_ Egypt || 49 El Hegaz St_ El-Bostan_ Heliopolis_ Cairo Governorate_ Egypt
7206789635,31.3322304,30.0851206, || المرغني_ ١٣ عمارات المروه كليه البنات_ الجولف_ مدينة نصر_ محافظة القاهرة‬_ Egypt || 83 Al Merghani_ Al Golf_ Nasr City_ Cairo Governorate_ Egypt || Al Merghani Bridge_ Al Golf_ Nasr City_ Cairo Governorate_ Egypt || El-Sayed El-Merghany_ Al Golf_ Nasr City_ Cairo Governorate_ Egypt
8315387962,31.2961239,30.099767, || 82 Wadi Al Nile_ AZ Zaytoun Al Qebleyah_ Zeitoun_ Cairo Governorate_ Egypt || 82 Wadi Al Nile_ AZ Zaytoun Al Qebleyah_ Zeitoun_ Cairo Governorate_ Egypt || 18 Wadi Al Nile_ AZ Zaytoun Al Qebleyah_ Zeitoun_ Cairo Governorate_ Egypt || Wadi Al Nile_ AZ Zaytoun Al Qebleyah_ Zeitoun_ Cairo Governorate_ Egypt
8315388018,31.2965876,30.0987227, || Martial Passage_ AZ Zaytoun Al Qebleyah_ Zeitoun_ Cairo Governorate_ Egypt || AZ Zaytoun Al Qebleyah_ Zeitoun_ Cairo Governorate_ Egypt || El Amireya_ Cairo Governorate_ Egypt || Cairo Governorate_ Egypt
6452150194,31.3487565,30.0774124, || مساكن المهندسين_ مدينة نصر__ Masaken Al Mohandesin_ Nasr City_ Cairo Governorate_ Egypt || Unnamed Road_ Masaken Al Mohandesin_ Nasr City_ Cairo Governorate_ Egypt || Masaken Al Mohandesin_ Nasr City_ Cairo Governorate_ Egypt || Nasr City_ Cairo Governorate_ Egypt
8255280461,31.3100944,30.0750344, || Audi Bank ( Salah Salem St. )_ Al Estad_ Qesm Than Madinet Nasr_ Cairo Governorate_ Egypt || Ehsan Abd Al Kodoos_ Al Estad_ Nasr City_ Cairo Governorate_ Egypt || Al Estad_ Nasr City_ Cairo Governorate_ Egypt || Qesm Than Madinet Nasr_ Cairo Governorate_ Egypt
7216087782,31.3311343,30.0849579, || 102 Al Merghani_ Al Golf_ Nasr City_ Cairo Governorate_ Egypt || 102 الميرغني_ الجولف_ مدينة نصر__ El-Montaza_ Nasr City_ Cairo Governorate_ Egypt || 100 El-Sayed El-Merghany_ Al Golf_ Nasr City_ Cairo Governorate_ Egypt || 100-84 El-Sayed El-Merghany_ Al Golf_ Nasr City_ Cairo Governorate_ Egypt
6569919732,31.3204873,30.0770102, || El Tayaran St_ Ash Sharekat_ Nasr City_ Cairo Governorate_ Egypt || Ash Sharekat_ Nasr City_ Cairo Governorate_ Egypt || Nasr City_ Cairo Governorate_ Egypt || Cairo Governorate_ Egypt
7868996463,31.3393405,30.0981307, || 69 Othman Ibn Affan_ El-Nozha_ El Nozha_ Cairo Governorate_ Egypt || 69 Othman Ibn Affan_ El-Nozha_ El Nozha_ Cairo Governorate_ Egypt || 69 Ismail Rafat_ El-Nozha_ El Nozha_ Cairo Governorate_ Egypt || 69 Othman Ibn Affan_ El-Nozha_ El Nozha_ Cairo Governorate_ Egypt
8010972159,31.3029953,30.0888992, || 17 المقريزي_ Mansheya El-Bakry_ Heliopolis_ Cairo Governorate_ Egypt || Al Sayed Al Maqreezi_ Mansheya El-Bakry_ Heliopolis_ Cairo Governorate_ Egypt || El-Zaytoun Sharkeya_ Zeitoun_ Cairo Governorate_ Egypt || Heliopolis_ Cairo Governorate_ Egypt
8248212127,31.3503233,30.0996704, || Almaza Airbase_ Sheraton Al Matar_ El Nozha_ Cairo Governorate_ Egypt || 156 El-Orouba_ El-Nozha_ El Nozha_ Cairo Governorate_ Egypt || 156 El-Orouba_ El-Nozha_ El Nozha_ Cairo Governorate_ Egypt || El-Orouba_ El Nozha_ Cairo Governorate_ Egypt
6071627002,31.3532585,30.077469, || Passage Inside Armed Forces_ Masaken Al Mohandesin_ Nasr City_ Cairo Governorate_ Egypt || Masaken Al Mohandesin_ Nasr City_ Cairo Governorate_ Egypt || Nasr City_ Cairo Governorate_ Egypt || Cairo Governorate_ Egypt
6640824659,31.3191586,30.1031141, || 26 Moustafa Turki_ El-Zaytoun El-Bahareya_ Zeitoun_ Cairo Governorate_ Egypt || 134 Gesr Al Suez_ El-Zaytoun El-Bahareya_ Zeitoun_ Cairo Governorate_ Egypt || 24 Moustafa Turki_ Cairo Governorate_ Egypt || 134-22 Moustafa Turki_ Cairo Governorate_ Egypt
8248211966,31.3487769,30.0968783, || Nadi Al Galaa_ Sheraton Al Matar_ El Nozha_ Cairo Governorate_ Egypt || Sheraton Al Matar_ El Nozha_ Cairo Governorate_ Egypt || El Nozha_ Cairo Governorate_ Egypt || Cairo Governorate_ Egypt
6646761611,31.3220681,30.1081056, || 57 Ibn Al Hakam_ El-Zaytoun El-Bahareya_ Ein Shams_ Cairo Governorate_ Egypt || 57 Ibn Al Hakam_ El-Zaytoun El-Bahareya_ Zeitoun_ Cairo Governorate_ Egypt || Al Aspahk_ El-Zaytoun El-Bahareya_ Zeitoun_ Cairo Governorate_ Egypt || El-Zaytoun El-Bahareya_ Zeitoun_ Cairo Governorate_ Egypt
7191590167,31.3445738,30.0905055, || 12 El-Shaheed Ismail Fahmy_ Almazah_ Heliopolis_ Cairo Governorate_ Egypt || 2 El-Shaheed Ismail Fahmy_ Almazah_ Heliopolis_ Cairo Governorate_ Egypt || 3 El-Shaheed Ismail Fahmy_ Almazah_ Heliopolis_ Cairo Governorate_ Egypt || Galal Al Din Al Desouky_ Almazah_ Heliopolis_ Cairo Governorate_ Egypt
8258024434,31.3395399,30.0778389, || Administrative Control Authority ( Nozha)_ Al Golf_ Nasr City_ Cairo Governorate_ Egypt || 7 Omar Shaaban St_ Al Golf_ Nasr City_ Cairo Governorate_ Egypt || El-Nozha_ Al Golf_ Nasr City_ Cairo Governorate_ Egypt || Al Golf_ Nasr City_ Cairo Governorate_ Egypt
7191590207,31.347549,30.09203, || 13 Al Shahid Kamal Al Fasakhani_ Almazah_ Heliopolis_ Cairo Governorate_ Egypt || Egypt Air Hospital_ Almazah_ El Nozha_ Cairo Governorate_ Egypt || Abou Bakr El-Sedeek_ Almazah_ Heliopolis_ Cairo Governorate_ Egypt || 13 Al Shahid Kamal Al Fasakhani_ Almazah_ Heliopolis_ Cairo Governorate_ Egypt
7198308849,31.3303282,30.0897684, || 36 Al Dliverand_ Almazah_ Heliopolis_ Cairo Governorate_ Egypt || 36 Al Dliverand_ Almazah_ Heliopolis_ Cairo Governorate_ Egypt || Al Orouba Rd ( Al Thawra St.)_ Almazah_ Heliopolis_ Cairo Governorate_ Egypt || 36 Al Dliverand_ Almazah_ Heliopolis_ Cairo Governorate_ Egypt
6594769685,31.2998833,30.1008376, || 1 Sayam_ AZ Zaytoun Al Qebleyah_ Zeitoun_ Cairo Governorate_ Egypt || 28 Taqseem Al Awqaf_ AZ Zaytoun Al Qebleyah_ Zeitoun_ Cairo Governorate_ Egypt || 81 Al Mataria St_ AZ Zaytoun Al Qebleyah_ Zeitoun_ Cairo Governorate_ Egypt || 1 Sayam_ AZ Zaytoun Al Qebleyah_ Zeitoun_ Cairo Governorate_ Egypt
6595929230,31.2991942,30.1012731, || 355 Teraat Al Gabal_ AZ Zaytoun Al Qebleyah_ El Amireya_ Cairo Governorate_ Egypt || Al Bank Al Ahli_ AZ Zaytoun Al Qebleyah_ Zeitoun_ Cairo Governorate_ Egypt || 1 Sayam_ AZ Zaytoun Al Qebleyah_ Zeitoun_ Cairo Governorate_ Egypt || AZ Zaytoun Al Qebleyah_ Zeitoun_ Cairo Governorate_ Egypt
427582866,31.3024108,30.0976028, || 203 Teraat Al Gabal_ AZ Zaytoun Al Qebleyah_ Hada'iq El Qobbah_ Cairo Governorate_ Egypt || Teraat Al Gabal_ AZ Zaytoun Al Qebleyah_ Zeitoun_ Cairo Governorate_ Egypt || AZ Zaytoun Al Qebleyah_ Zeitoun_ Cairo Governorate_ Egypt || Zeitoun_ Cairo Governorate_ Egypt
6510225654,31.310367,30.1055799, || 26 Al Bostah_ El-Zaytoun Sharkeya_ Zeitoun_ Cairo Governorate_ Egypt || Hadayeq El Zeitoun_ El-Zaytoun Sharkeya_ Zeitoun_ Cairo Governorate_ Egypt || 47 Al Bostah_ El-Zaytoun Sharkeya_ Zeitoun_ Cairo Governorate_ Egypt || El-Zaytoun Station_ El-Zaytoun Sharkeya_ Zeitoun_ Cairo Governorate_ Egypt
6570417389,31.3203529,30.0740993, || 52 Al Tawfiq_ El-Tawfik_ Nasr City_ Cairo Governorate_ Egypt || 51 Al Tawfiq_ El-Tawfik_ Nasr City_ Cairo Governorate_ Egypt || Al Tawfiq_ El-Tawfik_ Nasr City_ Cairo Governorate_ Egypt || El-Tawfik_ Nasr City_ Cairo Governorate_ Egypt
7872679951,31.3211455,30.091267, || 11 الاهرام_ المنتزه_ قسم مصر الجديدة_ محافظة القاهرة‬__ Egypt || 11 Al Ahram_ El-Montaza_ Heliopolis_ Cairo Governorate_ Egypt || 18 Al Ahram_ El-Montaza_ Heliopolis_ Cairo Governorate_ Egypt || 18 Al Ahram_ El-Montaza_ Heliopolis_ Cairo Governorate_ Egypt
8244647893,31.3493369,30.0803472, || Passage Inside Puplic of Infantri_ Masaken Al Mohandesin_ Nasr City_ Cairo Governorate_ Egypt || Masaken Al Mohandesin_ Nasr City_ Cairo Governorate_ Egypt || Nasr City_ Cairo Governorate_ Egypt || Cairo Governorate_ Egypt
8412126901,31.3287127,30.0845986, || 90 El-Sayed El-Merghany_ Al Golf_ Nasr City_ Cairo Governorate_ Egypt || 90 Passage Inside Militari Area_ El-Montaza_ Heliopolis_ Cairo Governorate_ Egypt || 88 El-Sayed El-Merghany_ Al Golf_ Nasr City_ Cairo Governorate_ Egypt || 100-84 El-Sayed El-Merghany_ Al Golf_ Nasr City_ Cairo Governorate_ Egypt
6463510811,31.3335923,30.0790541, || El-Qattan_ Al Golf_ Nasr City_ Cairo Governorate_ Egypt || Al Golf_ Nasr City_ Cairo Governorate_ Egypt || Nasr City_ Cairo Governorate_ Egypt || Cairo Governorate_ Egypt
6460878925,31.3505669,30.0825098, || 35 الشهيد إبراهيم الشيخ_ الماظة_ قسم مصر الجديدة_ محافظة القاهرة‬__ Almazah_ Heliopolis_ Cairo Governorate_ Egypt || 35 El-Shaheed Ibrahim El-Shaikh_ Almazah_ Heliopolis_ Cairo Governorate_ Egypt || Moustafa Sayed Al Maghrabi_ Almazah_ Heliopolis_ Cairo Governorate_ Egypt || 36 El-Shaheed Ibrahim El-Shaikh_ Almazah_ Heliopolis_ Cairo Governorate_ Egypt
7232866584,31.3315232,30.0762397, || Unnamed Road_ Al Golf_ Nasr City_ Cairo Governorate_ Egypt || Al Golf_ Nasr City_ Cairo Governorate_ Egypt || Nasr City_ Cairo Governorate_ Egypt || Cairo Governorate_ Egypt
7868665506,31.3065649,30.0750774, || Panorama October_ Al Estad_ Qesm Than Madinet Nasr_ Cairo Governorate_ Egypt || 19b Salah Salem St_ Mansheya El-Bakry_ Heliopolis_ Cairo Governorate_ Egypt || Salah Salem St_ Al Estad_ Nasr City_ Cairo Governorate_ Egypt || 22 Salah Salem St_ Al Estad_ Qesm Than Madinet Nasr_ Cairo Governorate_ Egypt
6505188372,31.3230873,30.0989999, || 29 شارع الحجاز امام حديقه الميرلاند بجوار فرحات_ البستان_ قسم مصر الجديدة_ محافظة القاهرة‬_ Egypt || 27a El Hegaz St_ El-Bostan_ Heliopolis_ Cairo Governorate_ Egypt || 31 El-Higaz_ El-Bostan_ Heliopolis_ Cairo Governorate_ Egypt || 33 El Hegaz St_ El-Bostan_ Heliopolis_ Cairo Governorate_ Egypt
7154099373,31.311738,30.077078, || Salah Salem St_ Al Estad_ Nasr City_ Cairo Governorate_ Egypt || 6 El-Obour Parking Road_ Mansheya El-Bakry_ Heliopolis_ Cairo Governorate_ Egypt || Al Estad_ Nasr City_ Cairo Governorate_ Egypt || Qesm Than Madinet Nasr_ Cairo Governorate_ Egypt
7872972966,31.3346721,30.0958995, || 35 Mohammed Sabri Ali_ Almazah_ Heliopolis_ Cairo Governorate_ Egypt || 39 Othman Ibn Affan_ Almazah_ Heliopolis_ Cairo Governorate_ Egypt || 25-35 Mohammed Sabri Ali_ Almazah_ Heliopolis_ Cairo Governorate_ Egypt || 34 Mohammed Sabri Ali_ Almazah_ Heliopolis_ Cairo Governorate_ Egypt
330791096,31.3083356,30.0958804, || 56 Toman Bai_ El-Zaytoun Sharkeya_ Zeitoun_ Cairo Governorate_ Egypt || 56 Toman Bai_ El-Zaytoun Sharkeya_ Zeitoun_ Cairo Governorate_ Egypt || 8-4 Al Lewaa Hosni Refqi_ Cairo Governorate_ Egypt || El-Zaytoun Sharkeya_ Zeitoun_ Cairo Governorate_ Egypt
7872973472,31.3363897,30.0971446, || 52 Othman Ibn Affan_ Almazah_ Heliopolis_ Cairo Governorate_ Egypt || 1 Fawzi Al Motaee Basa_ Almazah_ Heliopolis_ Cairo Governorate_ Egypt || 1 Fawzi Al Motaee Basa_ Almazah_ Heliopolis_ Cairo Governorate_ Egypt || 50 Othman Ibn Affan_ Almazah_ Heliopolis_ Cairo Governorate_ Egypt
7868302538,31.3167007,30.0809351, || 1 Salah Salem St_ Nasr City_ Cairo Governorate_ Egypt || Salah Salem St_ Nasr City_ Cairo Governorate_ Egypt || Mansheya El-Bakry_ Heliopolis_ Cairo Governorate_ Egypt || Nasr City_ Cairo Governorate_ Egypt
6094005329,31.3000851,30.09672, || المطرية_ الزيتون القبلية__ AZ Zaytoun Al Qebleyah_ Zeitoun_ Cairo Governorate_ Egypt || Al Mataria St_ AZ Zaytoun Al Qebleyah_ Zeitoun_ Cairo Governorate_ Egypt || AZ Zaytoun Al Qebleyah_ Zeitoun_ Cairo Governorate_ Egypt || Zeitoun_ Cairo Governorate_ Egypt
