[{"name": "Ittihadia Palace", "formatted_address": "Al Nadi، El-Montaza, Heliopolis, Cairo Governorate, Egypt", "lat": 31.3193929, "types": ["tourist_attraction", "premise", "point_of_interest", "establishment"], "place_id": "ChIJuftqUS8-WBQRtM7fDk0QcPk"}, {"name": "Baron Empain Palace", "formatted_address": "El-Orouba, El-Montaza, Heliopolis, Cairo Governorate 11757, Egypt", "lat": 31.3303332, "types": ["point_of_interest", "establishment"], "place_id": "ChIJ1_GM8iE-WBQRLNVi-RT7vDA"}, {"name": "Our Lady of Heliopolis Co-Cathedral", "formatted_address": "Nazih Khalifa crossroad، Al Ahram, Heliopolis, Cairo Governorate, Egypt", "lat": 31.3251828, "types": ["church", "place_of_worship", "point_of_interest", "establishment"], "place_id": "ChIJJdgh-okVWBQR5TqTmKuQ0IM"}, {"name": "Lont Group", "formatted_address": "4A Kamal EL Shafie، Ismailia Square، Heliopolis, Cairo Governorate, Egypt", "lat": 31.3438507, "types": ["travel_agency", "point_of_interest", "establishment"], "place_id": "ChIJ2_pLw4Q_WBQR5wCWEEgCfSw"}, {"name": "Lagoon International", "formatted_address": "125 El Hegaz St, El-Nozha, El Nozha, Cairo Governorate, Egypt", "lat": 31.3361265, "types": ["point_of_interest", "establishment"], "place_id": "ChIJh4zg6OsVWBQRjQiyfNgBFAA"}, {"name": "The Egyptian Museum", "formatted_address": "شارع ماريت باشا، ميدان التحرير، Egypt", "lat": 31.23361389999999, "types": ["museum", "tourist_attraction", "point_of_interest", "establishment"], "place_id": "ChIJw741VYhBWBQRD2Z6OiulDVI"}, {"name": "مريم عتمان", "formatted_address": "مصر الجديدة، المطار، قسم النزهة،، Cairo Governorate, Egypt", "lat": 31.3438507, "types": ["point_of_interest", "establishment"], "place_id": "ChIJgxrFUogVWBQRS1UPh4qIBp0"}, {"name": "Abdeen Palace Museum", "formatted_address": "شارع جمعه عابدين،، El-Gomhoreya Square, Rahbet Abdin, Abdeen, Cairo Governorate, Egypt", "lat": 31.248544, "types": ["tourist_attraction", "museum", "point_of_interest", "establishment"], "place_id": "ChIJF_ZR9bpAWBQR_WeDJloU-7o"}, {"name": "El Dawleya Cars", "formatted_address": "61 Farid Semeika St.، Al Matar, Heliopolis, Cairo Governorate, Egypt", "lat": 31.344487, "types": ["point_of_interest", "establishment"], "place_id": "ChIJAeBmGKEVWBQRQZIutCFDKuU"}, {"name": "Giza Necropolis", "formatted_address": "Al Haram, Giza Governorate, Egypt", "lat": 31.1324955, "types": ["tourist_attraction", "premise", "museum", "point_of_interest", "establishment"], "place_id": "ChIJzbs54n1PWBQRizZuWjV0dMo"}, {"name": "Media Rack", "formatted_address": "15 Abdel Azim Awadallah St.، Al Matar, Heliopolis, Cairo Governorate, Egypt", "lat": 31.342883, "types": ["point_of_interest", "establishment"], "place_id": "ChIJFbMI09wVWBQRc68dm8ldfsc"}, {"name": "Disruptive Management Solutions - DMS", "formatted_address": "Military College, 03 General Abdulaziz Ali St, Al Matar, El Nozha, Cairo Governorate, Egypt", "lat": 31.3438507, "types": ["point_of_interest", "establishment"], "place_id": "ChIJxbKCrkoVWBQRRg1tITQb_BQ"}, {"name": "Bromo Motors", "formatted_address": "160 ميدان الحجاز، Al Matar, El Nozha, Cairo Governorate, Egypt", "lat": 31.34491539999999, "types": ["point_of_interest", "establishment"], "place_id": "ChIJQSuK8dwVWBQRTcpR4vGXlyw"}, {"name": "حجز فنادق مصر الجديدة", "formatted_address": "مصر الجديدة، Cairo Governorate, Egypt", "lat": 31.3438507, "types": ["travel_agency", "point_of_interest", "establishment"], "place_id": "ChIJI1h83OMVWBQRtdlkKJjuHuw"}, {"name": "Golden Park Hotel", "formatted_address": "شارع الحجاز ، مصر الجديده، 221 شارع الحجاز ، هيليوبوليس ،، El Nozha, Cairo Governorate, Egypt", "lat": 31.3525102, "types": ["lodging", "point_of_interest", "establishment"], "place_id": "ChIJsQQdRNgVWBQRss6fVxNFk_8"}, {"name": "كيميت توريدات معدات مطارات ومقاولات", "formatted_address": "16 محمد غنيم، Al Matar, El Nozha, Cairo Governorate, Egypt", "lat": 31.342972, "types": ["point_of_interest", "establishment"], "place_id": "ChIJVVXlqyQ-WBQRnCPy1bxzWSs"}, {"name": "Egipto Tour", "formatted_address": "Triumph square, 9 Mostafa Sadek El Rafae Street, Al Matar, El Nozha, Cairo Governorate 11361, Egypt", "lat": 31.3438507, "types": ["travel_agency", "point_of_interest", "establishment"], "place_id": "ChIJz1YOGw4VWBQR2H8smMZ423g"}, {"name": "Mar Guirguis church", "formatted_address": "Al Matar, El Nozha, Cairo Governorate, Egypt", "lat": 31.3438507, "types": ["church", "place_of_worship", "point_of_interest", "establishment"], "place_id": "ChIJo7ZMU40VWBQRyM0cS-gcbeM"}, {"name": "Maadi Island", "formatted_address": "Dar Al Salam, Giza Governorate, Egypt", "lat": 31.239237, "types": ["restaurant", "tourist_attraction", "park", "food", "point_of_interest", "establishment"], "place_id": "ChIJwY7d5MFHWBQRl1nMXlW_tUY"}, {"name": "الندى للسياحة", "formatted_address": "95 Mohammed Farid, Al Matar, El Nozha, Cairo Governorate, Egypt", "lat": 31.3429199, "types": ["travel_agency", "point_of_interest", "establishment"], "place_id": "ChIJ87OaqtwVWBQRi2RVO1IZb0w"}, {"name": "New Flower Carnival Market", "formatted_address": "131 abdel hamid badawy st.، Al Matar, HELIOPOLIS، Cairo Governorate, Egypt", "lat": 31.354376, "types": ["point_of_interest", "establishment"], "place_id": "ChIJ8xiZrXsWWBQR04PqULyiUdo"}, {"name": "Farah", "formatted_address": "131 ش Gesr Al Suez, Al Matar, El Nozha, Cairo Governorate, Egypt", "lat": 31.35095699999999, "types": ["point_of_interest", "establishment"], "place_id": "ChIJm8t_dNcVWBQRwqY72L4QpQk"}, {"name": "Cottonil Vega", "formatted_address": "131 el nozha st.، El-Nozha, Heliopolis, Cairo Governorate, Egypt", "lat": 31.3438208, "types": ["point_of_interest", "clothing_store", "store", "establishment"], "place_id": "ChIJ5-_5DBs-WBQR7P-IdZkhxqU"}, {"name": "Chance Store", "formatted_address": "131 Abd El-Hameed Badawi, Al Matar, El Nozha, Cairo Governorate, Egypt", "lat": 31.3544239, "types": ["home_goods_store", "point_of_interest", "store", "establishment"], "place_id": "ChIJbREoS8UXWBQRcNTbK54GgyE"}, {"name": "Magic", "formatted_address": "131 El-Nozha, El Nozha, Cairo Governorate, Egypt", "lat": 31.3431028, "types": ["point_of_interest", "establishment"], "place_id": "ChIJ5-_5DBs-WBQR2lxtwkj3bz0"}, {"name": "لوبرجين", "formatted_address": "131 Omar Ibn El-Khattab, Almazah, Heliopolis, Cairo Governorate, Egypt", "lat": 31.3473345, "types": ["point_of_interest", "establishment"], "place_id": "ChIJoTkNxgM-WBQRyKTcA9XkfoM"}, {"name": "Video Crepe", "formatted_address": "شارع 131 من شارع العشرين، خلف حديقة بدر، Egypt", "lat": 31.3657699, "types": ["restaurant", "food", "point_of_interest", "establishment"], "place_id": "ChIJPXYQIv8XWBQRoasmPXJQAkA"}, {"name": "Ahmed Seif", "formatted_address": "131 شارع السودان، Mit Akaba, Dokki, Giza Governorate, Egypt", "lat": 31.1939979, "types": ["point_of_interest", "establishment"], "place_id": "ChIJkRd3XzVBWBQRIXXIQaYEz8A"}, {"name": "Coca Cola", "formatted_address": "131 Mohammed Farid, As Sahah, Abdeen, Cairo Governorate, Egypt", "lat": 31.2438917, "types": ["grocery_or_supermarket", "food", "point_of_interest", "store", "establishment"], "place_id": "ChIJV-VRP7lAWBQRTGlqDNCDO8o"}, {"name": "Silhouette", "formatted_address": "131 Mohammed Farid, As Sahah, Abdeen, Cairo Governorate, Egypt", "lat": 31.2427414, "types": ["health", "point_of_interest", "store", "establishment"], "place_id": "ChIJTaGnHblAWBQRK3UOwKnyYgc"}, {"name": "CMB", "formatted_address": "11 Syria, Gazirat Mit Oqbah, Agouza, Giza Governorate, Egypt", "lat": 31.1992682, "types": ["point_of_interest", "establishment"], "place_id": "ChIJJ7nNUTdBWBQRW-jCxd5AhCQ"}, {"name": "El Rahmany", "formatted_address": "131 Mohammed Farid, As Sahah, Abdeen, Cairo Governorate, Egypt", "lat": 31.2441611, "types": ["pharmacy", "health", "point_of_interest", "store", "establishment"], "place_id": "ChIJMeikOLlAWBQR7yAiIJra7J0"}, {"name": "فتحى الحصرى لجميع قطع غيار السيارات الكورى", "formatted_address": "امام الوحده الصحيه 131 شارع الملكه طلبيه، شارع الملك فيصل، Egypt", "lat": 31.1758779, "types": ["car_repair", "point_of_interest", "store", "establishment"], "place_id": "ChIJ0413Q4NGWBQRlsLYBEHys9U"}, {"name": "Nile Garden Hotel", "formatted_address": "131 Al Manial, Al Manyal Al Gharbi, Old Cairo, Cairo Governorate, Egypt", "lat": 31.2238883, "types": ["lodging", "point_of_interest", "establishment"], "place_id": "ChIJCdUhXS9HWBQRPg2ixzvSssg"}, {"name": "L'Aubergine Heliopolis", "formatted_address": "131 Omar Ibn El-Khattab, Almazah, Heliopolis, Cairo Governorate, Egypt", "lat": 31.3473345, "types": ["restaurant", "bar", "food", "point_of_interest", "establishment"], "place_id": "ChIJR62NwwM-WBQRMMpF1W6DaSM"}]