[{"name": "Ittihadia Palace", "formatted_address": "Al Nadi، El-Montaza, Heliopolis, Cairo Governorate, Egypt", "lat": 31.3193929, "types": ["tourist_attraction", "premise", "point_of_interest", "establishment"], "place_id": "ChIJuftqUS8-WBQRtM7fDk0QcPk"}, {"name": "Baron Empain Palace", "formatted_address": "El-Orouba, El-Montaza, Heliopolis, Cairo Governorate 11757, Egypt", "lat": 31.3303332, "types": ["point_of_interest", "establishment"], "place_id": "ChIJ1_GM8iE-WBQRLNVi-RT7vDA"}, {"name": "Our Lady of Heliopolis Co-Cathedral", "formatted_address": "Nazih Khalifa crossroad، Al Ahram, Heliopolis, Cairo Governorate, Egypt", "lat": 31.3251828, "types": ["church", "place_of_worship", "point_of_interest", "establishment"], "place_id": "ChIJJdgh-okVWBQR5TqTmKuQ0IM"}, {"name": "Lont Group", "formatted_address": "4A Kamal EL Shafie، Ismailia Square، Heliopolis, Cairo Governorate, Egypt", "lat": 31.3438507, "types": ["travel_agency", "point_of_interest", "establishment"], "place_id": "ChIJ2_pLw4Q_WBQR5wCWEEgCfSw"}, {"name": "El Dawleya Cars", "formatted_address": "61 Farid Semeika St.، Al Matar, Heliopolis, Cairo Governorate, Egypt", "lat": 31.344487, "types": ["point_of_interest", "establishment"], "place_id": "ChIJAeBmGKEVWBQRQZIutCFDKuU"}, {"name": "Golden Park Hotel", "formatted_address": "شارع الحجاز ، مصر الجديده، 221 شارع الحجاز ، هيليوبوليس ،، El Nozha, Cairo Governorate, Egypt", "lat": 31.3525102, "types": ["lodging", "point_of_interest", "establishment"], "place_id": "ChIJsQQdRNgVWBQRss6fVxNFk_8"}, {"name": "Abdeen Palace Museum", "formatted_address": "شارع جمعه عابدين،، El-Gomhoreya Square, Rahbet Abdin, Abdeen, Cairo Governorate, Egypt", "lat": 31.248544, "types": ["tourist_attraction", "museum", "point_of_interest", "establishment"], "place_id": "ChIJF_ZR9bpAWBQR_WeDJloU-7o"}, {"name": "مريم عتمان", "formatted_address": "مصر الجديدة، المطار، قسم النزهة،، Cairo Governorate, Egypt", "lat": 31.3438507, "types": ["point_of_interest", "establishment"], "place_id": "ChIJgxrFUogVWBQRS1UPh4qIBp0"}, {"name": "Heliopolis Towers Hotel", "formatted_address": "El Shaheed Sayed Zakaria, Sheraton Al Matar, El Nozha, Cairo Governorate 11736, Egypt", "lat": 31.3661798, "types": ["lodging", "point_of_interest", "establishment"], "place_id": "ChIJZ9p3820WWBQRmZh2M_MSzOQ"}, {"name": "حجز فنادق مصر الجديدة", "formatted_address": "مصر الجديدة، Cairo Governorate, Egypt", "lat": 31.3438507, "types": ["travel_agency", "point_of_interest", "establishment"], "place_id": "ChIJI1h83OMVWBQRtdlkKJjuHuw"}, {"name": "Disruptive Management Solutions - DMS", "formatted_address": "Military College, 03 General Abdulaziz Ali St, Al Matar, El Nozha, Cairo Governorate, Egypt", "lat": 31.3438507, "types": ["point_of_interest", "establishment"], "place_id": "ChIJxbKCrkoVWBQRRg1tITQb_BQ"}, {"name": "كيميت توريدات معدات مطارات ومقاولات", "formatted_address": "16 محمد غنيم، Al Matar, El Nozha, Cairo Governorate, Egypt", "lat": 31.342972, "types": ["point_of_interest", "establishment"], "place_id": "ChIJVVXlqyQ-WBQRnCPy1bxzWSs"}, {"name": "Porto Heliopolis", "formatted_address": "Almazah, Heliopolis, Cairo Governorate, Egypt", "lat": 31.348709, "types": ["lodging", "point_of_interest", "establishment"], "place_id": "ChIJR5FCXgE-WBQR471eyuZuvGw"}, {"name": "Media Rack", "formatted_address": "15 Abdel Azim Awadallah St.، Al Matar, Heliopolis, Cairo Governorate, Egypt", "lat": 31.342883, "types": ["point_of_interest", "establishment"], "place_id": "ChIJFbMI09wVWBQRc68dm8ldfsc"}, {"name": "هيلتون هيليوبلس", "formatted_address": "Al Matar, El Nozha, Cairo Governorate, Egypt", "lat": 31.3438507, "types": ["lodging", "point_of_interest", "establishment"], "place_id": "ChIJocT4HcUVWBQRgIk90yuylWM"}, {"name": "Family Park", "formatted_address": "مدخل الرحاب 2 ) الكيلو 26،، Suez Rd, Egypt", "lat": 31.5013244, "types": ["park", "tourist_attraction", "point_of_interest", "establishment"], "place_id": "ChIJ97tx7voYWBQR-q4kFfGwYYo"}, {"name": "Bromo Motors", "formatted_address": "160 ميدان الحجاز، Al Matar, El Nozha, Cairo Governorate, Egypt", "lat": 31.34491539999999, "types": ["point_of_interest", "establishment"], "place_id": "ChIJQSuK8dwVWBQRTcpR4vGXlyw"}, {"name": "Egipto Tour", "formatted_address": "Triumph square, 9 Mostafa Sadek El Rafae Street, Al Matar, El Nozha, Cairo Governorate 11361, Egypt", "lat": 31.3438507, "types": ["travel_agency", "point_of_interest", "establishment"], "place_id": "ChIJz1YOGw4VWBQR2H8smMZ423g"}, {"name": "Mar Guirguis church", "formatted_address": "Al Matar, El Nozha, Cairo Governorate, Egypt", "lat": 31.3438507, "types": ["church", "place_of_worship", "point_of_interest", "establishment"], "place_id": "ChIJo7ZMU40VWBQRyM0cS-gcbeM"}, {"name": "Radisson Blu Hotel, Cairo Heliopolis", "formatted_address": "Abdel Hamid Badawi St Heliopolis, Cairo Governorate 11787, Egypt", "lat": 31.3753121, "types": ["lodging", "point_of_interest", "establishment"], "place_id": "ChIJQZJ8fWUWWBQRAUPO9I6SxPg"}, {"name": "A|X Heliopolis City Stars Mall", "formatted_address": "City Stars Mall Heliopolis, Il Cairo, 11757, Egypt", "lat": 31.34367929999999, "types": ["point_of_interest", "clothing_store", "store", "establishment"], "place_id": "ChIJi1N7kww_WBQR2_0TRndb_UU"}, {"name": "Arab film school", "formatted_address": "15-Al-Ahram Street, Heliopolis, Cairo Governorate 11757, Egypt", "lat": 31.3438507, "types": ["point_of_interest", "establishment"], "place_id": "ChIJcYZ1plEVWBQRfQ17CkMcvAQ"}, {"name": "OKKA Coffee Machine", "formatted_address": "5 ش ابن سينا - ميدان سفير Heliopolis القاهرة، 11757, Egypt", "lat": 31.3438507, "types": ["home_goods_store", "point_of_interest", "store", "establishment"], "place_id": "ChIJ30hiuoUVWBQRhk5mzfGj5Yc"}, {"name": "English Home Club", "formatted_address": "60 St. Haroun, Heliopolis, Cairo Governorate 11545, Egypt", "lat": 31.3438507, "types": ["point_of_interest", "establishment"], "place_id": "ChIJK1ZIUY4VWBQRcigafOCQujE"}, {"name": "Dr. Mina magdi dental clinic", "formatted_address": "60 Heliopolis st. El ibrahemya 2ndfloor, Egypt", "lat": 31.3438507, "types": ["dentist", "health", "point_of_interest", "establishment"], "place_id": "ChIJyVgcg9oVWBQRsq6fyvZ8Vu0"}, {"name": "Food Value", "formatted_address": "Heliopolis, Cairo Governorate, Egypt", "lat": 31.3438507, "types": ["food", "point_of_interest", "establishment"], "place_id": "ChIJ-7sagk4VWBQRbYGg-BOxCAk"}, {"name": "novartis", "formatted_address": "7 El-Khalily St., Hesny building - Area 1147 Heliopolis Sheraton، Egypt", "lat": 31.3438507, "types": ["point_of_interest", "establishment"], "place_id": "ChIJmeXkw9wVWBQRPh1MOJ0nxOg"}, {"name": "art planet 369", "formatted_address": "Al Matar, El Nozha, Cairo Governorate, Egypt", "lat": 31.3438507, "types": ["point_of_interest", "establishment"], "place_id": "ChIJgW-2iYQVWBQRAcyJwo7q004"}, {"name": "Grand Logistics Services", "formatted_address": "5 El-sayed Zakareya St., Block No. 1216, 3rd Flr, Apt 302, Heliopolis Buldgs، Egypt", "lat": 31.3438507, "types": ["point_of_interest", "establishment"], "place_id": "ChIJmeXkw9wVWBQRToTfNys9o9w"}, {"name": "مستشفى الحرية التخصصى", "formatted_address": "11 Latif Mansour St، Almazah, El Nozha, Cairo Governorate, Egypt", "lat": 31.3438507, "types": ["hospital", "health", "point_of_interest", "establishment"], "place_id": "ChIJq7jFPhw-WBQRx7wGgL_7bO8"}, {"name": "Go Heliopolis - Khozam The First Compound In Heliopolis", "formatted_address": "شارع النزهة، مصر الجديدة،، Egypt", "lat": 31.3397646, "types": ["lodging", "point_of_interest", "establishment"], "place_id": "ChIJZ7ZHBKs_WBQRJD3Ntp2Q_ww"}, {"name": "EGENT Center (Heliopolis Branch)", "formatted_address": "24 el Ahram street, Al Matar, El Nozha, Cairo Governorate, Egypt", "lat": 31.3438507, "types": ["health", "point_of_interest", "establishment"], "place_id": "ChIJA9dUAxwVWBQRn6gBuXiy7yA"}, {"name": "سيتى كريب", "formatted_address": "علي،قسم النزهه ، أحمد محمود، Egypt", "lat": 31.3438507, "types": ["restaurant", "food", "point_of_interest", "store", "establishment"], "place_id": "ChIJFw-y-tkVWBQRDGCNSqSvMdo"}, {"name": "La Vie Gym", "formatted_address": "٤حسن منصور _خلف نادي النصر _ميدان المحكمة _مصر، الحديدة، المطار، قسم النزهة، محافظة القاهرة‬،، Egypt", "lat": 31.3438507, "types": ["gym", "health", "point_of_interest", "establishment"], "place_id": "ChIJfe8BkEkVWBQRKi2MKUETkMw"}, {"name": "Queens Hospital _ Cleopatra Hospitals Group", "formatted_address": "4 Sheikh Nour Eldin, off Thawra St., Heliopolis, 11345, Egypt", "lat": 31.3318691, "types": ["hospital", "doctor", "health", "point_of_interest", "establishment"], "place_id": "ChIJ65q6gh8-WBQRb6VXdsqqg4w"}, {"name": "مداك لانظمه الالومنيوم Madac for Aluminum Systems & U-PVC", "formatted_address": "53 شارع احمد زكى النزهه الجديده امام فلوبتير بالاس، مصر الجديده، القاهرة 11843، مصر Masr Elgdeda، Egypt", "lat": 31.3438507, "types": ["general_contractor", "point_of_interest", "establishment"], "place_id": "ChIJX5vK7EAVWBQRgVSZ83YGpW4"}, {"name": "Heliopolis Hospital", "formatted_address": "ميدان هليوبوليس، El-Nozha, El Nozha, Cairo Governorate, Egypt", "lat": 31.337074, "types": ["hospital", "health", "point_of_interest", "establishment"], "place_id": "ChIJR8gu2esVWBQREEO6QdYQy80"}, {"name": "USA BRANDS", "formatted_address": "5 Abdul Hay St., Hegaz Square, Heliopolis, New Nozha, Cairo, Cairo Governorate 11757, Egypt", "lat": 31.3442931, "types": ["clothing_store", "point_of_interest", "store", "establishment"], "place_id": "ChIJVcC559wVWBQRg_y8ZYmGb-M"}, {"name": "Citystars Heliopolis", "formatted_address": "Citystars, Cairo Governorate 11771, Egypt", "lat": 31.3458082, "types": ["shopping_mall", "point_of_interest", "establishment"], "place_id": "ChIJo0ecE_gVWBQRGGrouhZFdME"}, {"name": "go fianance", "formatted_address": "Al Matar, El Nozha, Cairo Governorate, Egypt", "lat": 31.3438507, "types": ["point_of_interest", "establishment"], "place_id": "ChIJp4eMKKYVWBQRkImXhuDazGc"}, {"name": "Le Voile Scarf Shops", "formatted_address": "7 El sheikh Ali Abd El Razeq,off, Ammar Ibn Yasser, Al Matar, HELIOPOLIS،, Cairo Governorate, Egypt", "lat": 31.3504424, "types": ["point_of_interest", "store", "establishment"], "place_id": "ChIJT6T-xN4VWBQR29fS1kwaj3w"}, {"name": "egypt trade", "formatted_address": "Al Matar, El Nozha, Cairo Governorate, Egypt", "lat": 31.3438507, "types": ["point_of_interest", "establishment"], "place_id": "ChIJ3Q0z96wVWBQRy5ya7vDjai4"}, {"name": "Spectra Restaurant", "formatted_address": "city stars, Al Matar, El Nozha, Cairo Governorate, Egypt", "lat": 31.3438507, "types": ["restaurant", "food", "point_of_interest", "establishment"], "place_id": "ChIJO5X6FZoVWBQRuJSlbjeUxnA"}, {"name": "Holiday Inn Cairo - Citystars", "formatted_address": "Ali Rashed Street Heliopolis, Cairo Governorate 11757, Egypt", "lat": 31.3438399, "types": ["lodging", "point_of_interest", "establishment"], "place_id": "ChIJw0Sx6OxAWBQRac0KOAYXiEo"}, {"name": "Alfa Lab Egypt", "formatted_address": "81 Intersection Of Ain Shams St.، Ain Shams Sharkeya, HELIOPOLIS، Cairo Governorate, Egypt", "lat": 31.3293445, "types": ["health", "point_of_interest", "establishment"], "place_id": "ChIJhcfzRLYVWBQRG__EbZmECa0"}, {"name": "Hilton Cairo Heliopolis", "formatted_address": "El-Orouba, Sheraton Al Matar, El Nozha, Cairo Governorate, Egypt", "lat": 31.3646213, "types": ["lodging", "point_of_interest", "establishment"], "place_id": "ChIJUYFpLCELRRQRzCxbUHFt6Vs"}, {"name": "L G", "formatted_address": "132 El Hegaz St, Al Matar, El Nozha, Cairo Governorate, Egypt", "lat": 31.3442229, "types": ["home_goods_store", "point_of_interest", "store", "establishment"], "place_id": "ChIJ-zwKH90VWBQRjpv5JESNwgI"}, {"name": "علاج طبيعي بالمنزل", "formatted_address": "مصر الجديدة، المطار، قسم النزهة،، Cairo Governorate, Egypt", "lat": 31.3438507, "types": ["gym", "health", "point_of_interest", "establishment"], "place_id": "ChIJD8OAwS8VWBQRB5lwjHZNazg"}, {"name": "Heliopolis Developers Group", "formatted_address": "شارع Makram Ebeid, Al Manteqah as Sadesah, Nasr City, Cairo Governorate 11762, Egypt", "lat": 31.3446167, "types": ["general_contractor", "point_of_interest", "establishment"], "place_id": "ChIJY-NFOnI-WBQRv7lSZBvESCY"}, {"name": "ماستر كلين", "formatted_address": "11ش الاندلس خلف ميرلاند روكسى مصر الجديده، 11341, Egypt", "lat": 31.3438507, "types": ["laundry", "point_of_interest", "establishment"], "place_id": "ChIJNTYlSL0VWBQRHyde7leAM7I"}, {"name": "Jumia VDO Station", "formatted_address": "8 Abdel Ghaffar Selim Street next to Heliopolis metro station - Hijaz Square ٨ شارع عبدالغفار سليم بجوار محطه مترو هليوبلس, El Hegaz St, Cairo Governorate, Egypt", "lat": 31.3401796, "types": ["point_of_interest", "establishment"], "place_id": "ChIJCXAHTRkVWBQRHnIoUAbx6P0"}, {"name": "TOLIP El Galaa - Heliopolis", "formatted_address": "El Orouba St, Sheraton Al Matar, El Nozha, Cairo Governorate, Egypt", "lat": 31.3490226, "types": ["lodging", "point_of_interest", "establishment"], "place_id": "ChIJvyeGu-QVWBQRkPqc2rg6IsE"}, {"name": "Move Your Asana", "formatted_address": "Al Matar, El Nozha, Cairo Governorate, Egypt", "lat": 31.3438507, "types": ["gym", "health", "point_of_interest", "establishment"], "place_id": "ChIJyy1ze9IVWBQR6EITHhHFbTU"}, {"name": "ورثة احمد حافظ", "formatted_address": "شارع, Cairo Governorate, Egypt", "lat": 31.3438507, "types": ["point_of_interest", "establishment"], "place_id": "ChIJZ5YXq9wVWBQR8n_hUliQaSQ"}, {"name": "مركز الدكتور امجد الحداد حساسية ومناعه 12ش بطرس غالى روكسي مصر الجديده", "formatted_address": "12 شارع بطرس غالى روكسى، روكسي، مصر الجديده، Cairo Governorate, Egypt", "lat": 31.343851, "types": ["doctor", "health", "point_of_interest", "establishment"], "place_id": "ChIJf2fnvc4VWBQRy8CF-La2d4c"}, {"name": "Gad", "formatted_address": "63 ش Fareed Semeika, Al Matar, القاهرة‬، Cairo Governorate, Egypt", "lat": 31.3446338, "types": ["restaurant", "food", "point_of_interest", "establishment"], "place_id": "ChIJAeBmGKEVWBQREvaHRA4NJB8"}, {"name": "IDP Education & IELTS Testing - Cairo", "formatted_address": "31 Omar Bekir St off Othman Ibn Afan St, Othman Ibn Affan, Nozha, Cairo Governorate 11361, Egypt", "lat": 31.348553, "types": ["point_of_interest", "establishment"], "place_id": "ChIJYWJmM-EVWBQRsRn2yOGljFo"}, {"name": "Heart attack", "formatted_address": "Fairmont Heliopolis, 42, محافظة القاهرة‬، 43شارع البحر مساكن شيراتون بجوار حمادة, Egypt", "lat": 31.3755643, "types": ["restaurant", "food", "point_of_interest", "establishment"], "place_id": "ChIJV5GOlRYXWBQRlOH1jNvls5A"}, {"name": "Egyptair", "formatted_address": "Al Matar, El Nozha, Cairo Governorate, Egypt", "lat": 31.3438507, "types": ["travel_agency", "point_of_interest", "establishment"], "place_id": "ChIJmeXkw9wVWBQRhp0z_uttSsk"}, {"name": "Zone 100", "formatted_address": "100 El Hegaz St, El-Nozha, El Nozha, Cairo Governorate, Egypt", "lat": 31.3410528, "types": ["night_club", "bar", "point_of_interest", "establishment"], "place_id": "ChIJcxKvSt0VWBQR32cIdoq894k"}]