[{"name": "المركز المصرى للعلاج الطبيعى", "formatted_address": "137 Al - Matarawy St, Helmeyat AZ Zaytoun, Ein Shams, Cairo Governorate, Egypt", "lat": 31.307184, "types": ["point_of_interest", "establishment"], "place_id": "ChIJ9TkkuQoVWBQREHqbTI3uvGY"}, {"name": "كلاكيت klaket", "formatted_address": "137 شارع محمد فريد , بجوار محطة مترو محمد نجيب، وسط البلد، Cairo Governorate 11518, Egypt", "lat": 31.2438749, "types": ["store", "point_of_interest", "establishment"], "place_id": "ChIJ60DsWb5BWBQRbW5NBwtyKr4"}, {"name": "Abou Taher", "formatted_address": "137 El-Gaish, Ash Shamkeri, Bab El Sharia, Cairo Governorate, Egypt", "lat": 31.2596635, "types": ["restaurant", "food", "point_of_interest", "establishment"], "place_id": "ChIJRSBK4pxAWBQRUKSSr2c3KC4"}, {"name": "الشركة الايطالية", "formatted_address": "26 Warshet Al Kotn, El-Adaweya, Bulaq, Cairo Governorate, Egypt", "lat": 31.2296904, "types": ["point_of_interest", "establishment"], "place_id": "ChIJGZokFvBAWBQRn0yiNsbo-zA"}, {"name": "Eat & Barrel", "formatted_address": "Nile Street، 137 شارع النيل،، Giza Governorate, Egypt", "lat": 31.2181597, "types": ["restaurant", "food", "point_of_interest", "establishment"], "place_id": "ChIJmR22TidHWBQRGDxFXLmjZqs"}, {"name": "Dahabia", "formatted_address": "137 Nile St, Ad Doqi A, قسم العمرانية، Giza Governorate, Egypt", "lat": 31.2181327, "types": ["point_of_interest", "establishment"], "place_id": "ChIJnY0dbSdHWBQRLFXuQdGHeVA"}, {"name": "Post Office - Road El Farag", "formatted_address": "137 Ebeid, As Sahel, Elsahel, Cairo Governorate, Egypt", "lat": 31.2341618, "types": ["post_office", "finance", "point_of_interest", "establishment"], "place_id": "ChIJmVGPgFxAWBQRuFVYx23cpSU"}, {"name": "د.جريش زجاج سيارات", "formatted_address": "137 متفرع من، El-Orouba, El-Basatin Sharkeya, El Basatin, Cairo Governorate, Egypt", "lat": 31.2791138, "types": ["car_repair", "point_of_interest", "establishment"], "place_id": "ChIJZ26KZYk4WBQRcdhvXUmzQco"}, {"name": "Nile View", "formatted_address": "137 Al Nile, Oula, Giza District, Giza Governorate, Egypt", "lat": 31.2180919, "types": ["point_of_interest", "establishment"], "place_id": "ChIJ7_s9dSdHWBQRsTgnC7YEWdc"}, {"name": "برايت إير للتكييف", "formatted_address": "بجوار البن البرازيلي، 137 شارع الملك فيصل محطة، Al Kom Al Akhdar, Al Haram, Giza Governorate, Egypt", "lat": 31.1535907, "types": ["point_of_interest", "store", "establishment"], "place_id": "ChIJO-PoMdpFWBQRwOCwNsANAhI"}, {"name": "فندق نايل سكاى", "formatted_address": "شارع Abdulaziz Al Saud, Al Manyal Al Gharbi, Old Cairo, Cairo Governorate 11555, Egypt", "lat": 31.2237272, "types": ["lodging", "point_of_interest", "establishment"], "place_id": "ChIJFbsen61HWBQRajczZvC4ZE4"}]