[{"name": "Ittihadia Palace", "formatted_address": "Al Nadi، El-Montaza, Heliopolis, Cairo Governorate, Egypt", "lat": 31.3193929, "types": ["tourist_attraction", "premise", "point_of_interest", "establishment"], "place_id": "ChIJuftqUS8-WBQRtM7fDk0QcPk"}, {"name": "The Egyptian Museum", "formatted_address": "شارع ماريت باشا، ميدان التحرير، Egypt", "lat": 31.23361389999999, "types": ["museum", "tourist_attraction", "point_of_interest", "establishment"], "place_id": "ChIJw741VYhBWBQRD2Z6OiulDVI"}, {"name": "Bon Voyage", "formatted_address": "16 Adly, Al Fawalah, Abdeen, Cairo Governorate, Egypt", "lat": 31.244439, "types": ["tourist_attraction", "point_of_interest", "establishment"], "place_id": "ChIJJZ3TEL5AWBQRc-PhG_sO-S0"}, {"name": "The Child Museum", "formatted_address": "34 Abou Bakr El-Sedeek, El-Bostan, Heliopolis, Cairo Governorate, Egypt", "lat": 31.33694599999999, "types": ["tourist_attraction", "museum", "point_of_interest", "establishment"], "place_id": "ChIJz-2ngvIVWBQR0usMZT-HkR8"}, {"name": "Our Lady of Heliopolis Co-Cathedral", "formatted_address": "Nazih Khalifa crossroad، Al Ahram, Heliopolis, Cairo Governorate, Egypt", "lat": 31.3251828, "types": ["church", "place_of_worship", "point_of_interest", "establishment"], "place_id": "ChIJJdgh-okVWBQR5TqTmKuQ0IM"}, {"name": "Baron Empain Palace", "formatted_address": "El-Orouba, El-Montaza, Heliopolis, Cairo Governorate 11757, Egypt", "lat": 31.3303332, "types": ["point_of_interest", "establishment"], "place_id": "ChIJ1_GM8iE-WBQRLNVi-RT7vDA"}, {"name": "Abdeen Palace Museum", "formatted_address": "شارع جمعه عابدين،، El-Gomhoreya Square, Rahbet Abdin, Abdeen, Cairo Governorate, Egypt", "lat": 31.248544, "types": ["tourist_attraction", "museum", "point_of_interest", "establishment"], "place_id": "ChIJF_ZR9bpAWBQR_WeDJloU-7o"}, {"name": "Maadi Island", "formatted_address": "Dar Al Salam, Giza Governorate, Egypt", "lat": 31.239237, "types": ["restaurant", "tourist_attraction", "park", "food", "point_of_interest", "establishment"], "place_id": "ChIJwY7d5MFHWBQRl1nMXlW_tUY"}, {"name": "للصناعات CLADEX", "formatted_address": "شارع ١٥١، Al Obour, Al Qalyubia Governorate, Egypt", "lat": 31.446342, "types": ["point_of_interest", "establishment"], "place_id": "ChIJL84W6IEaWBQRX6RWbWf9g6s"}, {"name": "مصنع واقي قماش", "formatted_address": "Street 151, Al Obour, Cairo Governorate, Egypt", "lat": 31.4463971, "types": ["shopping_mall", "point_of_interest", "establishment"], "place_id": "ChIJPyT4fL8bWBQRo0K8S52-LFI"}, {"name": "Cladex Industries Factory", "formatted_address": "151 Street 1, Al Obour, Al Qalyubia Governorate, Egypt", "lat": 31.4463406, "types": ["point_of_interest", "establishment"], "place_id": "ChIJ3zg_YyUbWBQRNpZ6mz9mTXQ"}, {"name": "Arc Wood Factory", "formatted_address": "Street 151, Al Obour, Al Qalyubia Governorate 15100, Egypt", "lat": 31.446759, "types": ["point_of_interest", "establishment"], "place_id": "ChIJ24r5aOQbWBQR3JMCkM0mgxg"}, {"name": "البيري تكس", "formatted_address": "شارع ١٥١، محافظة القاهرة‬،، Egypt", "lat": 31.4462728, "types": ["clothing_store", "point_of_interest", "store", "establishment"], "place_id": "ChIJQQObPHsbWBQR91Me94adcQw"}, {"name": "Skyline 3E Factory", "formatted_address": "Al Salam First, Cairo Governorate, Egypt", "lat": 31.4468096, "types": ["point_of_interest", "establishment"], "place_id": "ChIJFTdM6oEaWBQRKwnVcRuEpPw"}, {"name": "Heliopolis Towers Hotel", "formatted_address": "El Shaheed Sayed Zakaria, Sheraton Al Matar, El Nozha, Cairo Governorate 11736, Egypt", "lat": 31.3661798, "types": ["lodging", "point_of_interest", "establishment"], "place_id": "ChIJZ9p3820WWBQRmZh2M_MSzOQ"}, {"name": "Tuliptex", "formatted_address": "151، indusrtial city, Cairo Governorate 11828, Egypt", "lat": 31.4464718, "types": ["point_of_interest", "establishment"], "place_id": "ChIJKV88e1YbWBQRgCIAppCZumY"}, {"name": "Sofatech", "formatted_address": "Al Salam First, Cairo Governorate, Egypt", "lat": 31.4465387, "types": ["point_of_interest", "establishment"], "place_id": "ChIJfXGIEF8bWBQRj5NnOsD5zUA"}, {"name": "Vivany Jeans", "formatted_address": "Al Salam First, Cairo Governorate, Egypt", "lat": 31.4466815, "types": ["point_of_interest", "establishment"], "place_id": "ChIJNar3NAYbWBQRAvL_S_qQTHA"}, {"name": "Pink Group", "formatted_address": "Al Salam First, Cairo Governorate, Egypt", "lat": 31.4459194, "types": ["point_of_interest", "establishment"], "place_id": "ChIJTR1N44EaWBQR8s_8XrppgH4"}, {"name": "Radisson Blu Hotel, Cairo Heliopolis", "formatted_address": "Abdel Hamid Badawi St Heliopolis, Cairo Governorate 11787, Egypt", "lat": 31.3753121, "types": ["lodging", "point_of_interest", "establishment"], "place_id": "ChIJQZJ8fWUWWBQRAUPO9I6SxPg"}, {"name": "The Great Pyramid of Giza", "formatted_address": "Al Haram, Nazlet El-Semman, Al Giza Desert, Giza Governorate, Egypt", "lat": 31.1342019, "types": ["tourist_attraction", "premise", "point_of_interest", "establishment"], "place_id": "ChIJGymPrIdFWBQRJCSloj8vDIE"}, {"name": "اكتوجون للصناعات النسيجيه (ش.م.م) مصنع ١", "formatted_address": "شارع 900 قطع 2،1 بلوك 20009 مدينة العبور، Egypt", "lat": 31.4473003, "types": ["point_of_interest", "store", "establishment"], "place_id": "ChIJo_a1IC8bWBQRGGo98lkYyYc"}, {"name": "Porto Heliopolis", "formatted_address": "Almazah, Heliopolis, Cairo Governorate, Egypt", "lat": 31.348709, "types": ["lodging", "point_of_interest", "establishment"], "place_id": "ChIJR5FCXgE-WBQR471eyuZuvGw"}, {"name": "Heliopolis University for Sustainable Development جامعة هليوبوليس للتنمية المستدامة |", "formatted_address": "3 طريق القاهرة - بلبيس الصحراوى El Salam City, Cairo Governorate 11785, Egypt", "lat": 31.4291798, "types": ["university", "point_of_interest", "establishment"], "place_id": "ChIJgausf7EQWBQRbvp3qRHTJvE"}, {"name": "Sekem Development Foundation", "formatted_address": "3 Cairo - Belbeis Desert Rd, El-Nahda, Second Al Salam, Cairo Governorate, Egypt", "lat": 31.4281068, "types": ["point_of_interest", "establishment"], "place_id": "ChIJG68ifyoUWBQRnwMo7oRnkkQ"}, {"name": "Go Heliopolis - Khozam The First Compound In Heliopolis", "formatted_address": "شارع النزهة، مصر الجديدة،، Egypt", "lat": 31.3397646, "types": ["lodging", "point_of_interest", "establishment"], "place_id": "ChIJZ7ZHBKs_WBQRJD3Ntp2Q_ww"}, {"name": "arac factory", "formatted_address": "152، Al Obour, Al Qalyubia Governorate, Egypt", "lat": 31.4455404, "types": ["lodging", "point_of_interest", "store", "establishment"], "place_id": "ChIJbROGdJ4RWBQRkQsc1HVt6Iw"}, {"name": "Heliopolis Hills Compound", "formatted_address": "Al Obour, Al Qalyubia Governorate, Egypt", "lat": 31.4629066, "types": ["point_of_interest", "establishment"], "place_id": "ChIJ0c3-M7MaWBQRP80S8IBs5us"}, {"name": "Golden Park Hotel", "formatted_address": "شارع الحجاز ، مصر الجديده، 221 شارع الحجاز ، هيليوبوليس ،، El Nozha, Cairo Governorate, Egypt", "lat": 31.3525102, "types": ["lodging", "point_of_interest", "establishment"], "place_id": "ChIJsQQdRNgVWBQRss6fVxNFk_8"}, {"name": "JW Marriott Hotel Cairo", "formatted_address": "Mirage City, Ring Rd, Second New Cairo, Cairo Governorate 11757, Egypt", "lat": 31.434406, "types": ["lodging", "point_of_interest", "establishment"], "place_id": "ChIJ7x-mqic-WBQRN-Ml0uWwRcI"}, {"name": "صوت الفن", "formatted_address": "16 Adly, Bab Al Louq, Abdeen, Cairo Governorate, Egypt", "lat": 31.244439, "types": ["point_of_interest", "establishment"], "place_id": "ChIJ__8vEb5AWBQRqaCYbvGsNWU"}, {"name": "Silver", "formatted_address": "30 Talaat Harb, Al Fawalah, Abdeen, Cairo Governorate, Egypt", "lat": 31.2454058, "types": ["point_of_interest", "establishment"], "place_id": "ChIJz2rp_5VAWBQRL-wtzb28N4s"}, {"name": "Le Passage Cairo Hotel & Casino", "formatted_address": "Sheraton Al Matar, El Nozha, Cairo Governorate 11861, Egypt", "lat": 31.4005995, "types": ["lodging", "point_of_interest", "establishment"], "place_id": "ChIJ756gegIXWBQRvIob1vsKaiU"}, {"name": "Hilton Cairo Heliopolis", "formatted_address": "El-Orouba, Sheraton Al Matar, El Nozha, Cairo Governorate, Egypt", "lat": 31.3646213, "types": ["lodging", "point_of_interest", "establishment"], "place_id": "ChIJUYFpLCELRRQRzCxbUHFt6Vs"}, {"name": "Misr El Dawleya", "formatted_address": "96 ش محمد فريد، وسط البلد، Abdeen, Cairo Governorate, Egypt", "lat": 31.2442814, "types": ["point_of_interest", "establishment"], "place_id": "ChIJYaZ29JVAWBQRfDHDvqzkKAg"}, {"name": "Citystars Heliopolis", "formatted_address": "Citystars, Cairo Governorate 11771, Egypt", "lat": 31.3458082, "types": ["shopping_mall", "point_of_interest", "establishment"], "place_id": "ChIJo0ecE_gVWBQRGGrouhZFdME"}, {"name": "Hotel Concorde El Salam Cairo By Royal Tulip", "formatted_address": "69 Abd El-Hameed Badawi, St، El Nozha, Cairo Governorate, Egypt", "lat": 31.3480627, "types": ["lodging", "point_of_interest", "establishment"], "place_id": "ChIJ3b5I-fUVWBQRVG_oX-wQmZE"}, {"name": "Renaissance Cairo Mirage City Hotel", "formatted_address": "Mirage City, Ring Rd, Second New Cairo, Cairo Governorate 11757, Egypt", "lat": 31.4395183, "types": ["lodging", "point_of_interest", "establishment"], "place_id": "ChIJ907IPMZAWBQRFcPpkzr_VuI"}, {"name": "Ain Shams University", "formatted_address": "El-Khalyfa El-Mamoun Street، Egypt", "lat": 31.4475185, "types": ["university", "point_of_interest", "establishment"], "place_id": "ChIJFa9vR6AaWBQRGjJUE6LloWE"}, {"name": "Cairo International Airport", "formatted_address": "Oruba، Road، El Nozha, Cairo Governorate, Egypt", "lat": 31.3997904, "types": ["airport", "point_of_interest", "establishment"], "place_id": "ChIJQU-oLggXWBQRhhPiUSGvZeA"}, {"name": "City Centre Almaza", "formatted_address": "Passage Inside Almaza Airport, Sheraton Al Matar, El Nozha, Cairo Governorate, Egypt", "lat": 31.3651812, "types": ["shopping_mall", "point_of_interest", "establishment"], "place_id": "ChIJae0gF_g9WBQRz6pWyx0wl7U"}, {"name": "Gold Watch", "formatted_address": "23 Adly St.، DOWNTOWN، Abdeen, Cairo Governorate, Egypt", "lat": 31.2438927, "types": ["point_of_interest", "establishment"], "place_id": "ChIJ410GPb5AWBQRbuArHVt4z0s"}, {"name": "Baron Hotel Heliopolis", "formatted_address": "14 Al Baroon, El-Montaza, Heliopolis, Cairo Governorate, Egypt", "lat": 31.3314609, "types": ["lodging", "point_of_interest", "establishment"], "place_id": "ChIJUbVOACI-WBQRWsi5B7gYfxs"}, {"name": "IDP Education & IELTS Testing - Cairo", "formatted_address": "31 Omar Bekir St off Othman Ibn Afan St, Othman Ibn Affan, Nozha, Cairo Governorate 11361, Egypt", "lat": 31.348553, "types": ["point_of_interest", "establishment"], "place_id": "ChIJYWJmM-EVWBQRsRn2yOGljFo"}, {"name": "مطعم كاليمار - جولف سيتي مول - مدخل العبور - كارفور العبور", "formatted_address": "مدخل العبور - جولف سيتي مول، Cairo Governorate, Egypt", "lat": 31.476668, "types": ["meal_takeaway", "restaurant", "food", "point_of_interest", "establishment"], "place_id": "ChIJr5DIrY4bWBQRg2sKW9HmX1Y"}, {"name": "Lemon Spaces sheraton Heliopolis", "formatted_address": "Building # 19، El-Safa, Sheraton Al Matar, El Nozha, Cairo Governorate, Egypt", "lat": 31.3667492, "types": ["lodging", "point_of_interest", "establishment"], "place_id": "ChIJ0dUH_3oXWBQRT1ZYgsJShvE"}, {"name": "Enviro Egypt", "formatted_address": "34 ش عدلى، وسط البلد، Abdeen, Cairo Governorate, Egypt", "lat": 31.2438927, "types": ["point_of_interest", "establishment"], "place_id": "ChIJtZcaApZAWBQR8B1wlb7EUNU"}, {"name": "Charlie's Restaurant", "formatted_address": "13 El-Thawra St, El-Montaza, Heliopolis, Cairo Governorate, Egypt", "lat": 31.3546341, "types": ["point_of_interest", "establishment"], "place_id": "ChIJpfMJG_49WBQRX8g6h1NgzmA"}, {"name": "InterContinental Citystars Cairo, an IHG Hotel", "formatted_address": "Omar Ibn El Khattab، Street، Cairo Governorate 11737, Egypt", "lat": 31.3478955, "types": ["lodging", "point_of_interest", "establishment"], "place_id": "ChIJJYCniw4-WBQRDaNySSZ_iuI"}, {"name": "St. Mark Coptic Orthodox Church Cleopatra", "formatted_address": "35 كيلوباترا، الماظة، قسم مصر الجديدة،، Cairo Governorate, Egypt", "lat": 31.3296246, "types": ["church", "place_of_worship", "point_of_interest", "establishment"], "place_id": "ChIJH3kNmooVWBQRfL4z5mf-KXU"}, {"name": "New Society Service Association", "formatted_address": "18 Adly St.، DOWNTOWN، Abdeen, Cairo Governorate, Egypt", "lat": 31.2438927, "types": ["point_of_interest", "establishment"], "place_id": "ChIJtZcaApZAWBQRXp74iGF8f3E"}, {"name": "Computer & Communication Concept - C & CC", "formatted_address": "6 Aflaton St.، Masaken Al Mohandesin, Heliopolis, Cairo Governorate, Egypt", "lat": 31.344988, "types": ["point_of_interest", "establishment"], "place_id": "ChIJVznwLfEVWBQR_2KCGtndzME"}, {"name": "Misr International University (MIU)", "formatted_address": "Gamaiet Ahmed Orabi, Al Obour, Cairo Governorate, Egypt", "lat": 31.4918564, "types": ["university", "point_of_interest", "establishment"], "place_id": "ChIJHSnzMKsbWBQR277Y4u-KExs"}, {"name": "TOLIP El Galaa - Heliopolis", "formatted_address": "El Orouba St, Sheraton Al Matar, El Nozha, Cairo Governorate, Egypt", "lat": 31.3490226, "types": ["lodging", "point_of_interest", "establishment"], "place_id": "ChIJvyeGu-QVWBQRkPqc2rg6IsE"}, {"name": "Heliopolis Sporting Club (HSC)", "formatted_address": "17 El-Sayed El-Marghany, Mansheya El-Bakry, Heliopolis, Cairo Governorate, Egypt", "lat": 31.3164398, "types": ["point_of_interest", "establishment"], "place_id": "ChIJB9zy8B4-WBQRz_zRpJte8sA"}, {"name": "Aswaf New Look", "formatted_address": "1 Adly St.، DOWNTOWN، Abdeen, Cairo Governorate, Egypt", "lat": 31.2438927, "types": ["point_of_interest", "establishment"], "place_id": "ChIJ410GPb5AWBQRCycdTIOC3Do"}, {"name": "Post Office - El Horreya Heliopolis", "formatted_address": "Intersection Of Salah Salem rd، El-Nozha, Heliopolis, Cairo Governorate 11736, Egypt", "lat": 31.3428047, "types": ["post_office", "finance", "point_of_interest", "establishment"], "place_id": "ChIJbYuIf_AVWBQRLjDEKpIcTg0"}, {"name": "Post Office - West Heliopolis", "formatted_address": "El-Nozha, El Nozha, Cairo Governorate, Egypt", "lat": 31.33018539999999, "types": ["post_office", "finance", "point_of_interest", "establishment"], "place_id": "ChIJ-1tRxpIVWBQR8pyCMmqAgXM"}, {"name": "Obour Market", "formatted_address": "KALIOBEYA، Egypt", "lat": 31.4798948, "types": ["shopping_mall", "point_of_interest", "establishment"], "place_id": "ChIJCaZsdmoaWBQR4yBoXiJfLcQ"}, {"name": "St Michael's Church الكنيسة الأسقفية بالكوربة", "formatted_address": "Baghdad St, El-Montaza, Heliopolis, Cairo Governorate, Egypt", "lat": 31.3229984, "types": ["church", "place_of_worship", "point_of_interest", "establishment"], "place_id": "ChIJfaLreiY-WBQRlouIfsEe-o8"}]