[{"name": "Ittihadia Palace", "formatted_address": "Al Nadi، El-Montaza, Heliopolis, Cairo Governorate, Egypt", "lat": 31.3193929, "types": ["tourist_attraction", "premise", "point_of_interest", "establishment"], "place_id": "ChIJuftqUS8-WBQRtM7fDk0QcPk"}, {"name": "Bon Voyage", "formatted_address": "16 Adly, Al Fawalah, Abdeen, Cairo Governorate, Egypt", "lat": 31.244439, "types": ["tourist_attraction", "point_of_interest", "establishment"], "place_id": "ChIJJZ3TEL5AWBQRc-PhG_sO-S0"}, {"name": "Our Lady of Heliopolis Co-Cathedral", "formatted_address": "Nazih Khalifa crossroad، Al Ahram, Heliopolis, Cairo Governorate, Egypt", "lat": 31.3251828, "types": ["church", "place_of_worship", "point_of_interest", "establishment"], "place_id": "ChIJJdgh-okVWBQR5TqTmKuQ0IM"}, {"name": "Baron Empain Palace", "formatted_address": "El-Orouba, El-Montaza, Heliopolis, Cairo Governorate 11757, Egypt", "lat": 31.3303332, "types": ["point_of_interest", "establishment"], "place_id": "ChIJ1_GM8iE-WBQRLNVi-RT7vDA"}, {"name": "Family Park", "formatted_address": "مدخل الرحاب 2 ) الكيلو 26،، Suez Rd, Egypt", "lat": 31.5013244, "types": ["park", "tourist_attraction", "point_of_interest", "establishment"], "place_id": "ChIJ97tx7voYWBQR-q4kFfGwYYo"}, {"name": "Abdeen Palace Museum", "formatted_address": "شارع جمعه عابدين،، El-Gomhoreya Square, Rahbet Abdin, Abdeen, Cairo Governorate, Egypt", "lat": 31.248544, "types": ["tourist_attraction", "museum", "point_of_interest", "establishment"], "place_id": "ChIJF_ZR9bpAWBQR_WeDJloU-7o"}, {"name": "MIND(شركة صناعات ميكوم)", "formatted_address": "Street 156, Al Obour, Cairo Governorate, Egypt", "lat": 31.443838, "types": ["point_of_interest", "establishment"], "place_id": "ChIJ4RFzdmcRWBQR7lZSm2CTvw0"}, {"name": "Maadi Island", "formatted_address": "Dar Al Salam, Giza Governorate, Egypt", "lat": 31.239237, "types": ["restaurant", "tourist_attraction", "park", "food", "point_of_interest", "establishment"], "place_id": "ChIJwY7d5MFHWBQRl1nMXlW_tUY"}, {"name": "Radisson Blu Hotel, Cairo Heliopolis", "formatted_address": "Abdel Hamid Badawi St Heliopolis, Cairo Governorate 11787, Egypt", "lat": 31.3753121, "types": ["lodging", "point_of_interest", "establishment"], "place_id": "ChIJQZJ8fWUWWBQRAUPO9I6SxPg"}, {"name": "مصنع GH للملابس الجاهزه", "formatted_address": "شارع ١٥٦، العبور، محافظة القاهرة‬،، Egypt", "lat": 31.4441407, "types": ["point_of_interest", "establishment"], "place_id": "ChIJ7fz5Z9QRWBQRuhwyYcHgwE0"}, {"name": "Go Heliopolis - Khozam The First Compound In Heliopolis", "formatted_address": "شارع النزهة، مصر الجديدة،، Egypt", "lat": 31.3397646, "types": ["lodging", "point_of_interest", "establishment"], "place_id": "ChIJZ7ZHBKs_WBQRJD3Ntp2Q_ww"}, {"name": "Heliopolis Towers Hotel", "formatted_address": "El Shaheed Sayed Zakaria, Sheraton Al Matar, El Nozha, Cairo Governorate 11736, Egypt", "lat": 31.3661798, "types": ["lodging", "point_of_interest", "establishment"], "place_id": "ChIJZ9p3820WWBQRmZh2M_MSzOQ"}, {"name": "Heliopolis Hills Compound", "formatted_address": "Al Obour, Al Qalyubia Governorate, Egypt", "lat": 31.4629066, "types": ["point_of_interest", "establishment"], "place_id": "ChIJ0c3-M7MaWBQRP80S8IBs5us"}, {"name": "Golden Park Hotel", "formatted_address": "شارع الحجاز ، مصر الجديده، 221 شارع الحجاز ، هيليوبوليس ،، El Nozha, Cairo Governorate, Egypt", "lat": 31.3525102, "types": ["lodging", "point_of_interest", "establishment"], "place_id": "ChIJsQQdRNgVWBQRss6fVxNFk_8"}, {"name": "Porto Heliopolis", "formatted_address": "Almazah, Heliopolis, Cairo Governorate, Egypt", "lat": 31.348709, "types": ["lodging", "point_of_interest", "establishment"], "place_id": "ChIJR5FCXgE-WBQR471eyuZuvGw"}, {"name": "Heliopolis University for Sustainable Development جامعة هليوبوليس للتنمية المستدامة |", "formatted_address": "3 طريق القاهرة - بلبيس الصحراوى El Salam City, Cairo Governorate 11785, Egypt", "lat": 31.4291798, "types": ["university", "point_of_interest", "establishment"], "place_id": "ChIJgausf7EQWBQRbvp3qRHTJvE"}, {"name": "El Hoda", "formatted_address": "24 Kasr Al Nile, Al Fawalah, Abdeen, Cairo Governorate, Egypt", "lat": 31.2452942, "types": ["point_of_interest", "establishment"], "place_id": "ChIJFZPhA5ZAWBQRP4koznlYeUU"}, {"name": "Sekem Development Foundation", "formatted_address": "3 Cairo - Belbeis Desert Rd, El-Nahda, Second Al Salam, Cairo Governorate, Egypt", "lat": 31.4281068, "types": ["point_of_interest", "establishment"], "place_id": "ChIJG68ifyoUWBQRnwMo7oRnkkQ"}, {"name": "Joyce Cosmetics", "formatted_address": "القطعة 2 - بلوك 20006, Al Qalyubia Governorate, Egypt", "lat": 31.4432451, "types": ["point_of_interest", "establishment"], "place_id": "ChIJGxoJoRARWBQR-L4MGDKtH5I"}, {"name": "Cairo International Airport", "formatted_address": "Oruba، Road، El Nozha, Cairo Governorate, Egypt", "lat": 31.3997904, "types": ["airport", "point_of_interest", "establishment"], "place_id": "ChIJQU-oLggXWBQRhhPiUSGvZeA"}, {"name": "Le Passage Cairo Hotel & Casino", "formatted_address": "Sheraton Al Matar, El Nozha, Cairo Governorate 11861, Egypt", "lat": 31.4005995, "types": ["lodging", "point_of_interest", "establishment"], "place_id": "ChIJ756gegIXWBQRvIob1vsKaiU"}, {"name": "JW Marriott Hotel Cairo", "formatted_address": "Mirage City, Ring Rd, Second New Cairo, Cairo Governorate 11757, Egypt", "lat": 31.434406, "types": ["lodging", "point_of_interest", "establishment"], "place_id": "ChIJ7x-mqic-WBQRN-Ml0uWwRcI"}, {"name": "Hilton Cairo Heliopolis", "formatted_address": "El-Orouba, Sheraton Al Matar, El Nozha, Cairo Governorate, Egypt", "lat": 31.3646213, "types": ["lodging", "point_of_interest", "establishment"], "place_id": "ChIJUYFpLCELRRQRzCxbUHFt6Vs"}, {"name": "صوت الفن", "formatted_address": "16 Adly, Bab Al Louq, Abdeen, Cairo Governorate, Egypt", "lat": 31.244439, "types": ["point_of_interest", "establishment"], "place_id": "ChIJ__8vEb5AWBQRqaCYbvGsNWU"}, {"name": "Marcyrl Pharmaceutical Industeries", "formatted_address": "The West Extension, Block 20005، Cairo Governorate, Egypt", "lat": 31.442163, "types": ["health", "point_of_interest", "establishment"], "place_id": "ChIJvyMn0n4QWBQRViSUAJx4yu8"}, {"name": "TOLIP El Galaa - Heliopolis", "formatted_address": "El Orouba St, Sheraton Al Matar, El Nozha, Cairo Governorate, Egypt", "lat": 31.3490226, "types": ["lodging", "point_of_interest", "establishment"], "place_id": "ChIJvyeGu-QVWBQRkPqc2rg6IsE"}, {"name": "Renaissance Cairo Mirage City Hotel", "formatted_address": "Mirage City, Ring Rd, Second New Cairo, Cairo Governorate 11757, Egypt", "lat": 31.4395183, "types": ["lodging", "point_of_interest", "establishment"], "place_id": "ChIJ907IPMZAWBQRFcPpkzr_VuI"}, {"name": "New Society Service Association", "formatted_address": "18 Adly St.، DOWNTOWN، Abdeen, Cairo Governorate, Egypt", "lat": 31.2438927, "types": ["point_of_interest", "establishment"], "place_id": "ChIJtZcaApZAWBQRXp74iGF8f3E"}, {"name": "Ain Shams University", "formatted_address": "El-Khalyfa El-Mamoun Street، Egypt", "lat": 31.4475185, "types": ["university", "point_of_interest", "establishment"], "place_id": "ChIJFa9vR6AaWBQRGjJUE6LloWE"}, {"name": "اكاديمية هليوبوليس Heliopolis Academy", "formatted_address": "15 Ahmed Mahmoud, ST. Safeer Sq, Cairo Governorate, Egypt", "lat": 31.33828829999999, "types": ["point_of_interest", "establishment"], "place_id": "ChIJp-UjK0cVWBQRWPpcbqz39dg"}, {"name": "Lemon Spaces sheraton Heliopolis", "formatted_address": "Building # 19، El-Safa, Sheraton Al Matar, El Nozha, Cairo Governorate, Egypt", "lat": 31.3667492, "types": ["lodging", "point_of_interest", "establishment"], "place_id": "ChIJ0dUH_3oXWBQRT1ZYgsJShvE"}, {"name": "Misr El Dawleya", "formatted_address": "96 ش محمد فريد، وسط البلد، Abdeen, Cairo Governorate, Egypt", "lat": 31.2442814, "types": ["point_of_interest", "establishment"], "place_id": "ChIJYaZ29JVAWBQRfDHDvqzkKAg"}, {"name": "Computer & Communication Concept - C & CC", "formatted_address": "6 Aflaton St.، Masaken Al Mohandesin, Heliopolis, Cairo Governorate, Egypt", "lat": 31.344988, "types": ["point_of_interest", "establishment"], "place_id": "ChIJVznwLfEVWBQR_2KCGtndzME"}, {"name": "V9", "formatted_address": "V85 , Golf Villas Group 9،, Second New Cairo, Cairo Governorate 19511, Egypt", "lat": 31.6311558, "types": ["park", "point_of_interest", "establishment"], "place_id": "ChIJEcjfhn73VxQRYWtWdDsjy2w"}, {"name": "Baron Hotel Heliopolis", "formatted_address": "14 Al Baroon, El-Montaza, Heliopolis, Cairo Governorate, Egypt", "lat": 31.3314609, "types": ["lodging", "point_of_interest", "establishment"], "place_id": "ChIJUbVOACI-WBQRWsi5B7gYfxs"}, {"name": "Heliopolis Developers Group", "formatted_address": "شارع Makram Ebeid, Al Manteqah as Sadesah, Nasr City, Cairo Governorate 11762, Egypt", "lat": 31.3446167, "types": ["general_contractor", "point_of_interest", "establishment"], "place_id": "ChIJY-NFOnI-WBQRv7lSZBvESCY"}, {"name": "Sha'ar Hashamayim Synagogue", "formatted_address": "18 شارع عدلي، الفوالة، عابدين، محافظة القاهرة‬،، Egypt", "lat": 31.2436791, "types": ["synagogue", "place_of_worship", "point_of_interest", "establishment"], "place_id": "ChIJDVLmR6hBWBQR6vKEPq4Bl6M"}, {"name": "InterContinental Citystars Cairo, an IHG Hotel", "formatted_address": "Omar Ibn El Khattab، Street، Cairo Governorate 11737, Egypt", "lat": 31.3478955, "types": ["lodging", "point_of_interest", "establishment"], "place_id": "ChIJJYCniw4-WBQRDaNySSZ_iuI"}, {"name": "Enviro Egypt", "formatted_address": "34 ش عدلى، وسط البلد، Abdeen, Cairo Governorate, Egypt", "lat": 31.2438927, "types": ["point_of_interest", "establishment"], "place_id": "ChIJtZcaApZAWBQR8B1wlb7EUNU"}, {"name": "Citystars Heliopolis", "formatted_address": "Citystars, Cairo Governorate 11771, Egypt", "lat": 31.3458082, "types": ["shopping_mall", "point_of_interest", "establishment"], "place_id": "ChIJo0ecE_gVWBQRGGrouhZFdME"}, {"name": "Heliopolis Sporting Club (HSC)", "formatted_address": "17 El-Sayed El-Marghany, Mansheya El-Bakry, Heliopolis, Cairo Governorate, Egypt", "lat": 31.3164398, "types": ["point_of_interest", "establishment"], "place_id": "ChIJB9zy8B4-WBQRz_zRpJte8sA"}, {"name": "IDP Education & IELTS Testing - Cairo", "formatted_address": "31 Omar Bekir St off Othman Ibn Afan St, Othman Ibn Affan, Nozha, Cairo Governorate 11361, Egypt", "lat": 31.348553, "types": ["point_of_interest", "establishment"], "place_id": "ChIJYWJmM-EVWBQRsRn2yOGljFo"}, {"name": "Gold Watch", "formatted_address": "23 Adly St.، DOWNTOWN، Abdeen, Cairo Governorate, Egypt", "lat": 31.2438927, "types": ["point_of_interest", "establishment"], "place_id": "ChIJ410GPb5AWBQRbuArHVt4z0s"}, {"name": "Charlie's Restaurant", "formatted_address": "13 El-Thawra St, El-Montaza, Heliopolis, Cairo Governorate, Egypt", "lat": 31.3546341, "types": ["point_of_interest", "establishment"], "place_id": "ChIJpfMJG_49WBQRX8g6h1NgzmA"}, {"name": "Tourist Information", "formatted_address": "Al Fawalah, Abdeen, Cairo Governorate, Egypt", "lat": 31.2450233, "types": ["travel_agency", "point_of_interest", "establishment"], "place_id": "ChIJ410GPb5AWBQRe549_LKuZ9Y"}, {"name": "Holiday Inn Cairo - Citystars", "formatted_address": "Ali Rashed Street Heliopolis, Cairo Governorate 11757, Egypt", "lat": 31.3438399, "types": ["lodging", "point_of_interest", "establishment"], "place_id": "ChIJw0Sx6OxAWBQRac0KOAYXiEo"}, {"name": "(Heliopolis Public library)", "formatted_address": "Beirut, Almazah, Heliopolis, Cairo Governorate, Egypt", "lat": 31.3328428, "types": ["library", "point_of_interest", "establishment"], "place_id": "ChIJd3h9YvUVWBQR2Oi9DLQTI8E"}, {"name": "Church of the Great Martyr Saint George and Anba Ebram - كنيسة الشهيد العظيم مارجرجس و الأنبا ابرآم", "formatted_address": "54 Abd El-Aziz Fahmy, Al Matar, El Nozha, Cairo Governorate, Egypt", "lat": 31.3392792, "types": ["church", "place_of_worship", "point_of_interest", "establishment"], "place_id": "ChIJvzrXsekVWBQRye4OpOsJnNM"}, {"name": "Wadi Degla Sheraton Al Matar", "formatted_address": "Cairo Int'l Airport Rd, Sheraton Al Matar, El Nozha, Cairo Governorate, Egypt", "lat": 31.3841686, "types": ["point_of_interest", "establishment"], "place_id": "ChIJp_JoW2EXWBQRC5XrCpDjCRs"}, {"name": "Perfect Gym", "formatted_address": "11846, Al Qalyubia Governorate 11846, Egypt", "lat": 31.4615456, "types": ["gym", "health", "point_of_interest", "establishment"], "place_id": "ChIJYTnltG4FWBQRy3Hdbgy9LHg"}, {"name": "Bozo", "formatted_address": "3 26 يوليو، المهندسين، Giza District, Cairo Governorate, Egypt", "lat": 31.2451698, "types": ["point_of_interest", "establishment"], "place_id": "ChIJS0-a45VAWBQRHKWunDn7Wnk"}, {"name": "Sonesta Hotel Tower & Casino Cairo", "formatted_address": "3 El Tayaran St, Ash Sharekat, Nasr City, Cairo Governorate, Egypt", "lat": 31.3175599, "types": ["casino", "lodging", "point_of_interest", "establishment"], "place_id": "ChIJKYApCUc-WBQROTn4JL8ozhI"}, {"name": "Aswaf New Look", "formatted_address": "1 Adly St.، DOWNTOWN، Abdeen, Cairo Governorate, Egypt", "lat": 31.2438927, "types": ["point_of_interest", "establishment"], "place_id": "ChIJ410GPb5AWBQRCycdTIOC3Do"}, {"name": "Misr International University (MIU)", "formatted_address": "Gamaiet Ahmed Orabi, Al Obour, Cairo Governorate, Egypt", "lat": 31.4918564, "types": ["university", "point_of_interest", "establishment"], "place_id": "ChIJHSnzMKsbWBQR277Y4u-KExs"}, {"name": "City Centre Almaza", "formatted_address": "Passage Inside Almaza Airport, Sheraton Al Matar, El Nozha, Cairo Governorate, Egypt", "lat": 31.3651812, "types": ["shopping_mall", "point_of_interest", "establishment"], "place_id": "ChIJae0gF_g9WBQRz6pWyx0wl7U"}, {"name": "St Michael's Church الكنيسة الأسقفية بالكوربة", "formatted_address": "Baghdad St, El-Montaza, Heliopolis, Cairo Governorate, Egypt", "lat": 31.3229984, "types": ["church", "place_of_worship", "point_of_interest", "establishment"], "place_id": "ChIJfaLreiY-WBQRlouIfsEe-o8"}, {"name": "Golden Carven Hotel", "formatted_address": "11 Mohammed Ebeid, Almazah, Heliopolis, Cairo Governorate, Egypt", "lat": 31.3390012, "types": ["lodging", "point_of_interest", "establishment"], "place_id": "ChIJR7L38R0-WBQRDEHe3x6nb1A"}, {"name": "Post Office - El Horreya Heliopolis", "formatted_address": "Intersection Of Salah Salem rd، El-Nozha, Heliopolis, Cairo Governorate 11736, Egypt", "lat": 31.3428047, "types": ["post_office", "finance", "point_of_interest", "establishment"], "place_id": "ChIJbYuIf_AVWBQRLjDEKpIcTg0"}, {"name": "Post Office - West Heliopolis", "formatted_address": "El-Nozha, El Nozha, Cairo Governorate, Egypt", "lat": 31.33018539999999, "types": ["post_office", "finance", "point_of_interest", "establishment"], "place_id": "ChIJ-1tRxpIVWBQR8pyCMmqAgXM"}, {"name": "Greek Cultural Center", "formatted_address": "1 ميدان صلاح الدين، El-Bostan, Heliopolis, Cairo Governorate, Egypt", "lat": 31.3316764, "types": ["point_of_interest", "establishment"], "place_id": "ChIJqUvOiKtAWBQRTyx5-5Qk4_4"}]