[{"name": "Amir Eldomiaty Heliopolis Branch - أمير الدمياطي - فرع مصر الجديدة", "formatted_address": "163 El Hegaz St, Al Matar, El Nozha, Cairo Governorate, Egypt", "lat": 31.3438907, "types": ["bakery", "food", "point_of_interest", "store", "establishment"], "place_id": "ChIJHz-6A3gVWBQRz05MbsZPYkQ"}, {"name": "Sheikh Jaber Al-Ahmad Cultural Centre", "formatted_address": "Arabian Gulf St, Kuwait City, Kuwait", "lat": 47.95603000000001, "types": ["tourist_attraction", "point_of_interest", "establishment"], "place_id": "ChIJy1-e1COFzz8RBuI__QoL-64"}, {"name": "Sadu House بيت السدو", "formatted_address": "Next to the National Museum of Kuwait، Arabian Gulf St, Kuwait City, Kuwait", "lat": 47.9672524, "types": ["museum", "point_of_interest", "establishment"], "place_id": "ChIJWQODmuSEzz8RUVPqd9g9AzE"}, {"name": "Total Egypt", "formatted_address": "Total Building, Street 254, Maadi as Sarayat Al Gharbeyah, Maadi, Cairo Governorate 11742, Egypt", "lat": 31.2758248, "types": ["point_of_interest", "establishment"], "place_id": "ChIJR8HrPW04WBQRxQ9uTrM00g4"}, {"name": "KOC Fountain", "formatted_address": "Ahmadi, Kuwait", "lat": 48.0570652, "types": ["park", "point_of_interest", "establishment"], "place_id": "ChIJlcQH9Nynzz8RQwZGLkOwk1M"}, {"name": "Sipes - Universal For Building Materials & Chemicals", "formatted_address": "104 El-Thawra St, Almazah, Heliopolis, Cairo Governorate, Egypt", "lat": 31.344901, "types": ["home_goods_store", "point_of_interest", "store", "establishment"], "place_id": "ChIJ_we0WBs-WBQRtlVbPSP3jkQ"}, {"name": "Lifeline", "formatted_address": "Salhiya St, Kuwait City, Kuwait", "lat": 47.9720244, "types": ["point_of_interest", "establishment"], "place_id": "ChIJV5RpUt2Ezz8RawApHWYbDuw"}, {"name": "Amir Eldomiaty - Dokki Branch امير الدمياطي - فرع الدقي", "formatted_address": "40 Kambez St، Ad Doqi, Dokki, Giza Governorate, Egypt", "lat": 31.2035986, "types": ["food", "point_of_interest", "store", "establishment"], "place_id": "ChIJe7cdwjJBWBQR95Q47GZVaqE"}, {"name": "AOU", "formatted_address": "No . 20 Al Hay Al 2, Al Shorouk, Cairo Governorate, Egypt", "lat": 31.6128923, "types": ["university", "point_of_interest", "establishment"], "place_id": "ChIJw8q26m4dWBQRQOggpDB0qS8"}, {"name": "And", "formatted_address": "54 St, Farwaniya near Imam Nabavi Masjid, الفروانية،, Kuwait", "lat": 47.9585805, "types": ["campground", "lodging", "park", "point_of_interest", "establishment"], "place_id": "ChIJAQ_2nGCbzz8RA2pgx3yYooQ"}, {"name": "al-khaleej Travels & Tourism. سفريات الخليج للسياحةوالسفر", "formatted_address": "Mohamad Bin Al Qasim St, Kuwait", "lat": 47.92337209999999, "types": ["travel_agency", "point_of_interest", "establishment"], "place_id": "ChIJUdtNTt2bzz8R_Suu3n1_b04"}, {"name": "Mosque KOC Utility Area", "formatted_address": "2nd Ave, Ahmadi, Kuwait", "lat": 48.0602111, "types": ["mosque", "place_of_worship", "point_of_interest", "establishment"], "place_id": "ChIJv_3Ixe2nzz8Rd5AD4sCtCbI"}, {"name": "Grand Masjid - Jeleeb Al-Shuyoukh", "formatted_address": "Kuwait", "lat": 47.9190484, "types": ["mosque", "place_of_worship", "point_of_interest", "establishment"], "place_id": "ChIJt6t5BqmQzz8RGhOav27cXs8"}, {"name": "The Avenues", "formatted_address": "Ghazali St, Al-Rai, Kuwait", "lat": 47.93607189999999, "types": ["shopping_mall", "point_of_interest", "establishment"], "place_id": "ChIJZakhM4mazz8Rf6ooVYyvuE0"}, {"name": "Hilton Garden Inn Kuwait", "formatted_address": "Mutlaq Abbas Munawir St, Kuwait City, Kuwait", "lat": 47.9413539, "types": ["lodging", "point_of_interest", "establishment"], "place_id": "ChIJfdoqhbybzz8R7pqF5yuEC2U"}, {"name": "Boodai Aviation Group", "formatted_address": "Ali Al-Salem St, Kuwait City, Kuwait", "lat": 47.9710713, "types": ["travel_agency", "point_of_interest", "establishment"], "place_id": "ChIJR1rILd2Ezz8RuF7ePYXItac"}, {"name": "city travels & tourism", "formatted_address": "137 St, 85600, Kuwait", "lat": 47.9259984, "types": ["travel_agency", "point_of_interest", "establishment"], "place_id": "ChIJpUGTy_Cbzz8RZJqXIRabV-o"}, {"name": "Kerala Store", "formatted_address": "شارع 163، Kuwait", "lat": 47.9245466, "types": ["grocery_or_supermarket", "food", "point_of_interest", "store", "establishment"], "place_id": "ChIJa6TuMwaazz8RqKFLp-LUrD0"}, {"name": "Ministry of Higher Education", "formatted_address": "برج السنابل ، شارع جابر المبارك،، Kuwait City, Kuwait", "lat": 47.9870045, "types": ["point_of_interest", "establishment"], "place_id": "ChIJaRHl_5KEzz8RAyGCnKs1WCg"}, {"name": "Holiday Inn Kuwait - Downtown", "formatted_address": "Abdulla Al Ahmad St, Kuwait City, Kuwait", "lat": 47.990733, "types": ["lodging", "point_of_interest", "establishment"], "place_id": "ChIJncQO-o-Ezz8REZHuXMNA9jg"}, {"name": "Ittihadia Palace", "formatted_address": "Al Nadi، El-Montaza, Heliopolis, Cairo Governorate, Egypt", "lat": 31.3193929, "types": ["tourist_attraction", "premise", "point_of_interest", "establishment"], "place_id": "ChIJuftqUS8-WBQRtM7fDk0QcPk"}, {"name": "Baron Empain Palace", "formatted_address": "El-Orouba, El-Montaza, Heliopolis, Cairo Governorate 11757, Egypt", "lat": 31.3303332, "types": ["point_of_interest", "establishment"], "place_id": "ChIJ1_GM8iE-WBQRLNVi-RT7vDA"}, {"name": "Our Lady of Heliopolis Co-Cathedral", "formatted_address": "Nazih Khalifa crossroad، Al Ahram, Heliopolis, Cairo Governorate, Egypt", "lat": 31.3251828, "types": ["church", "place_of_worship", "point_of_interest", "establishment"], "place_id": "ChIJJdgh-okVWBQR5TqTmKuQ0IM"}, {"name": "The Egyptian Museum", "formatted_address": "شارع ماريت باشا، ميدان التحرير، Egypt", "lat": 31.23361389999999, "types": ["museum", "tourist_attraction", "point_of_interest", "establishment"], "place_id": "ChIJw741VYhBWBQRD2Z6OiulDVI"}, {"name": "Youssef El Sahaby Masjed", "formatted_address": "El-Higaz، HELIOPOLIS، El Nozha, Cairo Governorate, Egypt", "lat": 31.3471512, "types": ["mosque", "place_of_worship", "point_of_interest", "establishment"], "place_id": "ChIJs7u2UdwVWBQRBOoah_XC0qM"}, {"name": "Abdeen Palace Museum", "formatted_address": "شارع جمعه عابدين،، El-Gomhoreya Square, Rahbet Abdin, Abdeen, Cairo Governorate, Egypt", "lat": 31.248544, "types": ["tourist_attraction", "museum", "point_of_interest", "establishment"], "place_id": "ChIJF_ZR9bpAWBQR_WeDJloU-7o"}, {"name": "Lont Group", "formatted_address": "4A Kamal EL Shafie، Ismailia Square، Heliopolis, Cairo Governorate, Egypt", "lat": 31.3438507, "types": ["travel_agency", "point_of_interest", "establishment"], "place_id": "ChIJ2_pLw4Q_WBQR5wCWEEgCfSw"}, {"name": "مريم عتمان", "formatted_address": "مصر الجديدة، المطار، قسم النزهة،، Cairo Governorate, Egypt", "lat": 31.3438507, "types": ["point_of_interest", "establishment"], "place_id": "ChIJgxrFUogVWBQRS1UPh4qIBp0"}, {"name": "Disruptive Management Solutions - DMS", "formatted_address": "Military College, 03 General Abdulaziz Ali St, Al Matar, El Nozha, Cairo Governorate, Egypt", "lat": 31.3438507, "types": ["point_of_interest", "establishment"], "place_id": "ChIJxbKCrkoVWBQRRg1tITQb_BQ"}, {"name": "Mar Guirguis church", "formatted_address": "Al Matar, El Nozha, Cairo Governorate, Egypt", "lat": 31.3438507, "types": ["church", "place_of_worship", "point_of_interest", "establishment"], "place_id": "ChIJo7ZMU40VWBQRyM0cS-gcbeM"}, {"name": "حجز فنادق مصر الجديدة", "formatted_address": "مصر الجديدة، Cairo Governorate, Egypt", "lat": 31.3438507, "types": ["travel_agency", "point_of_interest", "establishment"], "place_id": "ChIJI1h83OMVWBQRtdlkKJjuHuw"}, {"name": "Golden Park Hotel", "formatted_address": "شارع الحجاز ، مصر الجديده، 221 شارع الحجاز ، هيليوبوليس ،، El Nozha, Cairo Governorate, Egypt", "lat": 31.3525102, "types": ["lodging", "point_of_interest", "establishment"], "place_id": "ChIJsQQdRNgVWBQRss6fVxNFk_8"}, {"name": "Egipto Tour", "formatted_address": "Triumph square, 9 Mostafa Sadek El Rafae Street, Al Matar, El Nozha, Cairo Governorate 11361, Egypt", "lat": 31.3438507, "types": ["travel_agency", "point_of_interest", "establishment"], "place_id": "ChIJz1YOGw4VWBQR2H8smMZ423g"}, {"name": "Family Park", "formatted_address": "مدخل الرحاب 2 ) الكيلو 26،، Suez Rd, Egypt", "lat": 31.5013244, "types": ["park", "tourist_attraction", "point_of_interest", "establishment"], "place_id": "ChIJ97tx7voYWBQR-q4kFfGwYYo"}, {"name": "Heliopolis Towers Hotel", "formatted_address": "El Shaheed Sayed Zakaria, Sheraton Al Matar, El Nozha, Cairo Governorate 11736, Egypt", "lat": 31.3661798, "types": ["lodging", "point_of_interest", "establishment"], "place_id": "ChIJZ9p3820WWBQRmZh2M_MSzOQ"}, {"name": "Radisson Blu Hotel, Cairo Heliopolis", "formatted_address": "Abdel Hamid Badawi St Heliopolis, Cairo Governorate 11787, Egypt", "lat": 31.3753121, "types": ["lodging", "point_of_interest", "establishment"], "place_id": "ChIJQZJ8fWUWWBQRAUPO9I6SxPg"}, {"name": "Egyptair", "formatted_address": "Al Matar, El Nozha, Cairo Governorate, Egypt", "lat": 31.3438507, "types": ["travel_agency", "point_of_interest", "establishment"], "place_id": "ChIJmeXkw9wVWBQRhp0z_uttSsk"}, {"name": "Porto Heliopolis", "formatted_address": "Almazah, Heliopolis, Cairo Governorate, Egypt", "lat": 31.348709, "types": ["lodging", "point_of_interest", "establishment"], "place_id": "ChIJR5FCXgE-WBQR471eyuZuvGw"}, {"name": "مستشفى الحرية التخصصى", "formatted_address": "11 Latif Mansour St، Almazah, El Nozha, Cairo Governorate, Egypt", "lat": 31.3438507, "types": ["hospital", "health", "point_of_interest", "establishment"], "place_id": "ChIJq7jFPhw-WBQRx7wGgL_7bO8"}, {"name": "هيلتون هيليوبلس", "formatted_address": "Al Matar, El Nozha, Cairo Governorate, Egypt", "lat": 31.3438507, "types": ["lodging", "point_of_interest", "establishment"], "place_id": "ChIJocT4HcUVWBQRgIk90yuylWM"}, {"name": "Kazaz Restaurant", "formatted_address": "163 El Hegaz St, Al Matar, El Nozha, Cairo Governorate, Egypt", "lat": 31.3438907, "types": ["restaurant", "food", "point_of_interest", "establishment"], "place_id": "ChIJ9VVEkTEVWBQRMF1MpdqvKr4"}, {"name": "Go Heliopolis - Khozam The First Compound In Heliopolis", "formatted_address": "شارع النزهة، مصر الجديدة،، Egypt", "lat": 31.3397646, "types": ["lodging", "point_of_interest", "establishment"], "place_id": "ChIJZ7ZHBKs_WBQRJD3Ntp2Q_ww"}, {"name": "art planet 369", "formatted_address": "Al Matar, El Nozha, Cairo Governorate, Egypt", "lat": 31.3438507, "types": ["point_of_interest", "establishment"], "place_id": "ChIJgW-2iYQVWBQRAcyJwo7q004"}, {"name": "فندق كنكورد السلام", "formatted_address": "المطار، قسم النزهة، محافظة القاهرة‬،، Egypt", "lat": 31.3438507, "types": ["lodging", "point_of_interest", "establishment"], "place_id": "ChIJZYOYs08VWBQRBPgJTZvjWGo"}, {"name": "Maadi Island", "formatted_address": "Dar Al Salam, Giza Governorate, Egypt", "lat": 31.239237, "types": ["restaurant", "tourist_attraction", "park", "food", "point_of_interest", "establishment"], "place_id": "ChIJwY7d5MFHWBQRl1nMXlW_tUY"}, {"name": "Heliopark Hotel", "formatted_address": "102 El Hegaz St, Al Matar, El Nozha, Cairo Governorate, Egypt", "lat": 31.3411589, "types": ["lodging", "point_of_interest", "establishment"], "place_id": "ChIJ06TYwusVWBQRLwyHc9i84cY"}, {"name": "اوتوشوب فرع جسر السويس", "formatted_address": "شنودة، 6 عمارات الشرطة - ناصية عزبة، Cairo Governorate, Egypt", "lat": 31.3438507, "types": ["car_repair", "point_of_interest", "store", "establishment"], "place_id": "ChIJSfibmtoVWBQRKQFQedKNvE0"}, {"name": "كمبوند سكاي كابيتال", "formatted_address": "محافظة القاهرة‬،4 ش صلاح الدين من العروبه - مصر الجديده، Cairo Governorate 11736, Egypt", "lat": 31.3438507, "types": ["real_estate_agency", "lodging", "point_of_interest", "establishment"], "place_id": "ChIJxeUN-f6NVxQR4gOpLWmma2E"}, {"name": "الهندسيه للستائر الرأسيه", "formatted_address": "مصر الجديده، القاهره، مصر فارغ، Egypt", "lat": 31.3438507, "types": ["home_goods_store", "point_of_interest", "store", "establishment"], "place_id": "ChIJT2uD_nYVWBQRmvvE3fIiJnw"}, {"name": "Vestia", "formatted_address": "11 Ramsis, El-Montaza, Heliopolis, Cairo Governorate, Egypt", "lat": 31.322709, "types": ["point_of_interest", "establishment"], "place_id": "ChIJ_____yY-WBQR6HZ1UvpAayI"}, {"name": "Church of the Great Martyr Saint George and Anba Ebram - كنيسة الشهيد العظيم مارجرجس و الأنبا ابرآم", "formatted_address": "54 Abd El-Aziz Fahmy, Al Matar, El Nozha, Cairo Governorate, Egypt", "lat": 31.3392792, "types": ["church", "place_of_worship", "point_of_interest", "establishment"], "place_id": "ChIJvzrXsekVWBQRye4OpOsJnNM"}, {"name": "EGENT Center (Heliopolis Branch)", "formatted_address": "24 el Ahram street, Al Matar, El Nozha, Cairo Governorate, Egypt", "lat": 31.3438507, "types": ["health", "point_of_interest", "establishment"], "place_id": "ChIJA9dUAxwVWBQRn6gBuXiy7yA"}, {"name": "Arab film school", "formatted_address": "15-Al-Ahram Street, Heliopolis, Cairo Governorate 11757, Egypt", "lat": 31.3438507, "types": ["point_of_interest", "establishment"], "place_id": "ChIJcYZ1plEVWBQRfQ17CkMcvAQ"}, {"name": "A|X Heliopolis City Stars Mall", "formatted_address": "City Stars Mall Heliopolis, Il Cairo, 11757, Egypt", "lat": 31.34367929999999, "types": ["point_of_interest", "clothing_store", "store", "establishment"], "place_id": "ChIJi1N7kww_WBQR2_0TRndb_UU"}, {"name": "Hilton Cairo Heliopolis", "formatted_address": "El-Orouba, Sheraton Al Matar, El Nozha, Cairo Governorate, Egypt", "lat": 31.3646213, "types": ["lodging", "point_of_interest", "establishment"], "place_id": "ChIJUYFpLCELRRQRzCxbUHFt6Vs"}, {"name": "IDP Education & IELTS Testing - Cairo", "formatted_address": "31 Omar Bekir St off Othman Ibn Afan St, Othman Ibn Affan, Nozha, Cairo Governorate 11361, Egypt", "lat": 31.348553, "types": ["point_of_interest", "establishment"], "place_id": "ChIJYWJmM-EVWBQRsRn2yOGljFo"}, {"name": "Eduk Educational Consultant", "formatted_address": "10 Qaitbay St, Ismailia Square, Cairo Governorate, Egypt", "lat": 31.3438507, "types": ["point_of_interest", "establishment"], "place_id": "ChIJlZaYZbsVWBQRtvBn7GNVW1Y"}, {"name": "OKKA Coffee Machine", "formatted_address": "5 ش ابن سينا - ميدان سفير Heliopolis القاهرة، 11757, Egypt", "lat": 31.3438507, "types": ["home_goods_store", "point_of_interest", "store", "establishment"], "place_id": "ChIJ30hiuoUVWBQRhk5mzfGj5Yc"}, {"name": "go fianance", "formatted_address": "Al Matar, El Nozha, Cairo Governorate, Egypt", "lat": 31.3438507, "types": ["point_of_interest", "establishment"], "place_id": "ChIJp4eMKKYVWBQRkImXhuDazGc"}, {"name": "مداك لانظمه الالومنيوم Madac for Aluminum Systems & U-PVC", "formatted_address": "53 شارع احمد زكى النزهه الجديده امام فلوبتير بالاس، مصر الجديده، القاهرة 11843، مصر Masr Elgdeda، Egypt", "lat": 31.3438507, "types": ["general_contractor", "point_of_interest", "establishment"], "place_id": "ChIJX5vK7EAVWBQRgVSZ83YGpW4"}]