[{"name": "Khan el-Khalili", "formatted_address": "El-Gamaleya, El Gamaliya, Cairo Governorate, Egypt", "lat": 30.0477386, "lng": 31.2622538, "types": ["tourist_attraction", "point_of_interest", "establishment"], "place_id": "ChIJD1gOLOtAWBQREX0CYeTgYRc"}, {"name": "The Egyptian Museum", "formatted_address": "شارع ماريت باشا، ميدان التحرير، Egypt", "lat": 30.0475781, "lng": 31.23361389999999, "types": ["museum", "tourist_attraction", "point_of_interest", "establishment"], "place_id": "ChIJw741VYhBWBQRD2Z6OiulDVI"}, {"name": "Salah Al-Din Al-Ayoubi Castle, Salah Salem Street, Cairo", "formatted_address": "Salah Salem St, Al Abageyah, El-Khalifa, Cairo Governorate, Egypt", "lat": 30.0290436, "lng": 31.2594688, "types": ["point_of_interest", "establishment"], "place_id": "ChIJY-3CkKxAWBQRby736eSW2y8"}, {"name": "Sorriso", "formatted_address": "173 El Hegaz St, El-Nozha, El Nozha, Cairo Governorate 11351, Egypt", "lat": 30.1122178, "lng": 31.3479125, "types": ["cafe", "restaurant", "food", "point_of_interest", "establishment"], "place_id": "ChIJ3-kpG9wVWBQRReOPEESSeHQ"}, {"name": "Costa Coffee", "formatted_address": "Mahkama - Heliopolis - Cairo - Egypt، 44 El Hegaz St, An Nuzhah, Qesm an Nuzhah, Cairo Governorate 11351, Egypt", "lat": 30.1061612, "lng": 31.3331637, "types": ["cafe", "food", "point_of_interest", "store", "establishment"], "place_id": "ChIJr24F0dYVWBQRLOL0nTKA3cc"}, {"name": "Dr. Ehab Nabil Iskandar", "formatted_address": "173 El Hegaz St, El-Nozha, El Nozha, Cairo Governorate, Egypt", "lat": 30.10703359999999, "lng": 31.3361689, "types": ["doctor", "health", "point_of_interest", "establishment"], "place_id": "ChIJ06TYwusVWBQRRqY4K4H80IY"}, {"name": "The Grand Egyptian Museum", "formatted_address": "Cairo - Alexandria Desert Rd, Kafr Nassar, Al Haram, Giza Governorate, Egypt", "lat": 29.9942315, "lng": 31.1187471, "types": ["tourist_attraction", "museum", "point_of_interest", "establishment"], "place_id": "ChIJLQTb2XBFWBQRiILY1EZ_7IU"}, {"name": "Le Méridien Cairo Airport", "formatted_address": "Cairo International Airport, To Terminal 3, Sheraton Al Matar, El Nozha, Cairo Governorate, Egypt", "lat": 30.1136885, "lng": 31.3958383, "types": ["lodging", "point_of_interest", "establishment"], "place_id": "ChIJk_r-wlUWWBQRUaLZUEzSVQg"}, {"name": "Synagogue Ben Ezra", "formatted_address": "Kom Ghorab, Old Cairo, Cairo Governorate, Egypt", "lat": 30.0057322, "lng": 31.2310336, "types": ["synagogue", "tourist_attraction", "place_of_worship", "point_of_interest", "establishment"], "place_id": "ChIJd37-VBBHWBQRXjbwRwh6nHE"}, {"name": "Hilton Cairo Heliopolis", "formatted_address": "El-Orouba, Sheraton Al Matar, El Nozha, Cairo Governorate, Egypt", "lat": 30.1067298, "lng": 31.3646213, "types": ["lodging", "point_of_interest", "establishment"], "place_id": "ChIJUYFpLCELRRQRzCxbUHFt6Vs"}, {"name": "Kasr El Zahraa", "formatted_address": "436 King Faisal St, Abu Qatadah, Bolak Al Dakrour, Giza Governorate, Egypt", "lat": 30.013721, "lng": 31.1967557, "types": ["point_of_interest", "establishment"], "place_id": "ChIJd5y8Cu1GWBQR6_hWMBNNeG8"}, {"name": "Giga Systems", "formatted_address": "10 El-Sherif Bldgs، Aswan, Cairo Governorate, Egypt", "lat": 30.0984144, "lng": 31.325861, "types": ["point_of_interest", "store", "establishment"], "place_id": "ChIJZftsrY0VWBQRI7yTRB6yz1o"}, {"name": "Sonesta Hotel Tower & Casino Cairo", "formatted_address": "3 El Tayaran St, Ash Sharekat, Nasr City, Cairo Governorate, Egypt", "lat": 30.0789591, "lng": 31.3175599, "types": ["casino", "lodging", "point_of_interest", "establishment"], "place_id": "ChIJKYApCUc-WBQROTn4JL8ozhI"}, {"name": "Triumph Plaza Hotel", "formatted_address": "Intersection Of Ihsan Abdel Kodous St. with, El-Khalifa El-Maamoun, st, Cairo Governorate 11757, Egypt", "lat": 30.0864639, "lng": 31.3060439, "types": ["lodging", "point_of_interest", "establishment"], "place_id": "ChIJdQaFc80_WBQRaTzpSBv1-BQ"}, {"name": "CIB", "formatted_address": "شارع عبدالحميد بدوي،مصر، Al Matar, الجديدة،قسم النزهة، Cairo Governorate, Egypt", "lat": 30.1158649, "lng": 31.3444796, "types": ["atm", "finance", "point_of_interest", "establishment"], "place_id": "ChIJF56PGdsVWBQRpeRMnXlReXE"}, {"name": "Dr. Mona Gobran", "formatted_address": "173 Al - Matarawy St, Shagret Mariem, El Matareya, Cairo Governorate, Egypt", "lat": 30.1236221, "lng": 31.3082971, "types": ["doctor", "health", "point_of_interest", "establishment"], "place_id": "ChIJB6FupwkVWBQRorPCeS0ROKU"}, {"name": "The Art Workshop", "formatted_address": "شارع عبدالله بن الطاهر, مكرم عبيد، المنطقة السادسة، مدينة نصر،, Nasr City, Cairo Governorate, Egypt", "lat": 30.0590566, "lng": 31.3482208, "types": ["art_gallery", "point_of_interest", "establishment"], "place_id": "ChIJDSGb1BY_WBQRzq_lwLU6-xs"}, {"name": "معرض فينيسيا للديكور", "formatted_address": "173 شارع السودان، Al Agouzah, Agouza, Giza Governorate, Egypt", "lat": 30.0446383, "lng": 31.1939822, "types": ["point_of_interest", "establishment"], "place_id": "ChIJIY7_VTVBWBQR5n7BTO2fyFc"}, {"name": "Ashraf Abdel Ghani Accountants & Tax Consultants - ATC", "formatted_address": "20 ش رشدى، مصر الجديدة، القاهرة، Cairo Governorate, Egypt", "lat": 30.0958, "lng": 31.3403, "types": ["accounting", "finance", "point_of_interest", "establishment"], "place_id": "ChIJEw4X5PAVWBQRi247bu-cbFQ"}, {"name": "CIB - Commercial International Bank - ATM", "formatted_address": "102 ش عثمان بن عفان، El-Nozha, El Nozha, Cairo Governorate, Egypt", "lat": 30.1017472, "lng": 31.3448839, "types": ["atm", "finance", "point_of_interest", "establishment"], "place_id": "ChIJzUuMOu4VWBQRmA8JQ2IrtXk"}, {"name": "أولاد سعد", "formatted_address": "شارع محمد حسن سنوسى المرج، El Marg, Cairo Governorate, Egypt", "lat": 30.1461133, "lng": 31.3467673, "types": ["restaurant", "food", "point_of_interest", "establishment"], "place_id": "ChIJs88DuSMUWBQRDIj_teN-GU0"}, {"name": "ذا سيتي العاصمة الإدارية - The City new capital", "formatted_address": "شارع Mostafa El-Nahaas, Al Manteqah as Sadesah, Nasr City, Cairo Governorate 11762, Egypt", "lat": 30.0549537, "lng": 31.3483, "types": ["real_estate_agency", "point_of_interest", "establishment"], "place_id": "ChIJbZSsxvw_WBQRfIbSG3Sxl1o"}, {"name": "بنك مصر", "formatted_address": "شارع طه حسين ،النزهة ،قسم النزهة، Cairo Governorate, Egypt", "lat": 30.1246309, "lng": 31.3645562, "types": ["atm", "finance", "point_of_interest", "establishment"], "place_id": "ChIJ-emM8YcWWBQR9Z5BxFhrmr0"}, {"name": "Diesel Travel", "formatted_address": "St. Teresa's Catholic Church, 173 ش شبرا بجوار محطة مترو, Shobra, Cairo Governorate, Egypt", "lat": 30.0861031, "lng": 31.2455574, "types": ["travel_agency", "point_of_interest", "establishment"], "place_id": "ChIJo32LLxBAWBQRrlodcMlbMcE"}, {"name": "نور الإسلام 2", "formatted_address": "48 شارع يوسف عطية من شارع امام، El-Gendy Canal, Hadaeq Al Qubbah, وفرن الدهبى قسم، Cairo Governorate, Egypt", "lat": 30.0949909, "lng": 31.284446, "types": ["restaurant", "food", "point_of_interest", "establishment"], "place_id": "ChIJ55jKluc_WBQRiOXmxU38QrQ"}, {"name": "BoGGY", "formatted_address": "173 شارع المطراوي، شجرة مريم، المطرية، محافظة القاهرة‬،، Egypt", "lat": 30.1236125, "lng": 31.30813179999999, "types": ["clothing_store", "point_of_interest", "store", "establishment"], "place_id": "ChIJRzXl7ngVWBQR_-SyIP4iFx0"}, {"name": "Cairo University", "formatted_address": "1 شارع الجامعة الجيزة، 12613, Egypt", "lat": 30.0271716, "lng": 31.2086854, "types": ["university", "point_of_interest", "establishment"], "place_id": "ChIJUQhSAdtGWBQRXVwRQL-Bl70"}, {"name": "مكرونة طواجن الباشا", "formatted_address": "شارع السوق الاميريه الشماليه الزيتون، قسم، Cairo Governorate, Egypt", "lat": 30.1106099, "lng": 31.2909564, "types": ["restaurant", "food", "point_of_interest", "establishment"], "place_id": "ChIJz1_DdmYVWBQRm87Pa55htcs"}, {"name": "Egypt Notary Public ترجمة معتمدة و توثيق نوتاري", "formatted_address": "7 Al Ashraf Shaaban, Al Manteqah Al Oula, Nasr City, Cairo Governorate, Egypt", "lat": 30.0672038, "lng": 31.3333451, "types": ["finance", "point_of_interest", "establishment"], "place_id": "ChIJXWonOGo-WBQRgTc9tuWbVTs"}, {"name": "Mirage City Golf Club", "formatted_address": "Second New Cairo, Cairo Governorate, Egypt", "lat": 30.0701516, "lng": 31.4344228, "types": ["point_of_interest", "establishment"], "place_id": "ChIJmYvuTvsXWBQRdkobRUbF0ak"}, {"name": "Experts Eye Center", "formatted_address": "173 El Soudan St. Mohandseen,, Giza Governorate, Egypt", "lat": 30.0527376, "lng": 31.1917753, "types": ["hospital", "health", "point_of_interest", "establishment"], "place_id": "ChIJAQCkUkhBWBQRM7qzebgtum4"}, {"name": "Baron City Mosque", "formatted_address": "Baron City, Al Abageyah, قسم الخليفة، Cairo Governorate, Egypt", "lat": 29.9858053, "lng": 31.34023899999999, "types": ["mosque", "place_of_worship", "point_of_interest", "establishment"], "place_id": "ChIJHZEtj0I5WBQRswHp2x3nqMo"}, {"name": "بنك مصر", "formatted_address": "شارع عين شمس عين شمس، Ein Shams, Cairo Governorate, Egypt", "lat": 30.1279492, "lng": 31.3212275, "types": ["atm", "finance", "point_of_interest", "establishment"], "place_id": "ChIJL0luyrEVWBQRSvOTQ8-2O78"}, {"name": "بنك مصر", "formatted_address": "٥ شارع خالد ابن الوليد مصر الجديدة قسم النزاهة شارع مصطفي رفعت، أمام مسجد الصديق،، Egypt", "lat": 30.1005639, "lng": 31.3756916, "types": ["atm", "finance", "point_of_interest", "establishment"], "place_id": "ChIJf4yWtWoWWBQRK7M0-EEnanI"}, {"name": "ELBATOUL", "formatted_address": "شارع Al Sayed Al Maqreezi, Mansheya El-Bakry, Heliopolis, Cairo Governorate, Egypt", "lat": 30.0913246, "lng": 31.3083837, "types": ["point_of_interest", "establishment"], "place_id": "ChIJrYLRTNM_WBQR0PgS7_C38EA"}, {"name": "Asmak Al-Qersh", "formatted_address": "٥ شارع عمر بن الخطاب- تقسيم، Omar Ibn El-Khattab, Egypt", "lat": 30.1446563, "lng": 31.39601729999999, "types": ["food", "point_of_interest", "store", "establishment"], "place_id": "ChIJJ89DAOoXWBQRYyFeFRjvZ5U"}, {"name": "Egyptian Night Hotel", "formatted_address": "Wasat Al Balad, AZ Zaytoun Al Qebleyah, Hada'iq El Qobbah, Cairo Governorate, Egypt", "lat": 30.0887737, "lng": 31.2897963, "types": ["lodging", "point_of_interest", "establishment"], "place_id": "ChIJjTeBosM_WBQRTibawncQmDA"}, {"name": "Fine Arts Gallery", "formatted_address": "173 26th Of July St.، Mohammed Mazhar, Zamalek, Cairo Governorate, Egypt", "lat": 30.0601093, "lng": 31.2229941, "types": ["art_gallery", "point_of_interest", "establishment"], "place_id": "ChIJo5Qz_eBAWBQRqH7d-nqGSoY"}, {"name": "ديزل للسياحة", "formatted_address": "شارع شبرا شبرا قسم، Elsahel, Cairo Governorate, Egypt", "lat": 30.0859525, "lng": 31.2459184, "types": ["travel_agency", "point_of_interest", "establishment"], "place_id": "ChIJS-I9zm5AWBQRnbrbvct6Zmk"}, {"name": "فينيسيا ديكور", "formatted_address": "173 شارع السودان، المهندسين، Agouza, Giza Governorate, Egypt", "lat": 30.0527014, "lng": 31.1917742, "types": ["general_contractor", "point_of_interest", "establishment"], "place_id": "ChIJRzaXUkhBWBQRcXsUXREMDCE"}, {"name": "El Wakil For Mobile", "formatted_address": "7 شارع النصر، Al Basatin Al Gharbeyah, Maadi, Cairo Governorate, Egypt", "lat": 29.9729928, "lng": 31.27260799999999, "types": ["point_of_interest", "establishment"], "place_id": "ChIJJ7ak6no4WBQRAKitGMxkYD4"}, {"name": "البنك الاهلى المصري فرع منشية الحرية - NBE Manshiya Al Hurriya Branch", "formatted_address": "173 Al Seka Al Hadid, Bahtim, Shubra El Kheima 2, Al Qalyubia Governorate, Egypt", "lat": 30.1342477, "lng": 31.2747775, "types": ["bank", "finance", "point_of_interest", "establishment"], "place_id": "ChIJb_Cj9RUVWBQRyCGOTDQsokk"}, {"name": "الاستاذ محمد على", "formatted_address": "شارع الامراء، العباسية، قسم، Al Waili, Cairo Governorate, Egypt", "lat": 30.0685539, "lng": 31.2823844, "types": ["lawyer", "point_of_interest", "establishment"], "place_id": "ChIJx4AWJpk_WBQRnf7GQzyZcJw"}, {"name": "CIB", "formatted_address": "شارع الخليفة المأمون مصر الجديدة قسم مصر الجديدة ا القاهرة، Egypt", "lat": 30.0872574, "lng": 31.3076445, "types": ["atm", "finance", "point_of_interest", "establishment"], "place_id": "ChIJF9_Cp9I_WBQR95LzHxAJGMk"}, {"name": "Kempinski Nile Hotel Garden City Cairo", "formatted_address": "12 Ahmed Ragheb, Qasr El Nil, Cairo Governorate 11519, Egypt", "lat": 30.0386546, "lng": 31.2304663, "types": ["lodging", "point_of_interest", "establishment"], "place_id": "ChIJy0H0uM1AWBQReIn-TM-Wz1k"}, {"name": "Cleopatra Hotel", "formatted_address": "2 Al Bustan St, Downtown، Qasr El Nil, Cairo Governorate 11512, Egypt", "lat": 30.046266, "lng": 31.2354017, "types": ["lodging", "point_of_interest", "establishment"], "place_id": "ChIJAQDQQ8dAWBQRfuOB10sPkoE"}, {"name": "Helnan Landmark Hotel", "formatted_address": "87 South 90 st New Cairo، Cairo، Egypt", "lat": 30.0167819, "lng": 31.4312153, "types": ["lodging", "point_of_interest", "establishment"], "place_id": "ChIJ907IPMZAWBQRrQ--CMcNmnI"}, {"name": "جروب كول للتكييف والتبريد M شركة", "formatted_address": "شارع الفرن، المرج الجديدة، Cairo Governorate, Egypt", "lat": 30.1635224, "lng": 31.3519819, "types": ["point_of_interest", "store", "establishment"], "place_id": "ChIJ5a6VKAIUWBQR7So6jHm2HXU"}, {"name": "محل رقم 3بالدور الثاني", "formatted_address": "مسجد النور، شارع المزرعة حاليا شارع 17سابقا اسبيكوا فوق مطعم الشاذلي بجوار، Egypt", "lat": 30.185305, "lng": 31.4060569, "types": ["point_of_interest", "establishment"], "place_id": "ChIJ85OrnJQRWBQRw83dJ0brStU"}, {"name": "الأمير ٢", "formatted_address": "٦٩ شارع مصر و السودان -حدايق القبة تقاطع ترعة الجبل، أمام محل العفرات، Cairo Governorate, Egypt", "lat": 30.0777114, "lng": 31.2761855, "types": ["car_repair", "point_of_interest", "store", "establishment"], "place_id": "ChIJYdrasZE_WBQRQ7uh-_p-AOI"}, {"name": "Heritage Hostel cairo", "formatted_address": "Tahrir Square, 13.St Meret Basha, Ismailia, Qasr El Nil, Cairo Governorate 11556, Egypt", "lat": 30.0476447, "lng": 31.2348171, "types": ["lodging", "point_of_interest", "establishment"], "place_id": "ChIJ4Rly_u5BWBQRatWFBBdHtgk"}, {"name": "Faculty Of Business - Ain Shams University", "formatted_address": "El-Khalifa El-Maamoun, العباسية، Al Waili, Cairo Governorate, Egypt", "lat": 30.0746829, "lng": 31.2873348, "types": ["university", "point_of_interest", "establishment"], "place_id": "ChIJ0UpH2Jc_WBQRSSNJWpafEyY"}, {"name": "نظارات مارينا", "formatted_address": "173 King Faisal St, Kafr Tohormos /B, El Omraniya, Giza Governorate, Egypt", "lat": 30.0021682, "lng": 31.1694269, "types": ["point_of_interest", "establishment"], "place_id": "ChIJhabiRtZFWBQRNj6N3hv_C1I"}, {"name": "رمادا للسياحه حجز فنادق مصر", "formatted_address": "ميدان التحرير، محافظة القاهرة‬،، Egypt", "lat": 30.0442762, "lng": 31.2348688, "types": ["travel_agency", "point_of_interest", "establishment"], "place_id": "ChIJJX6-6QgXWBQRtYSBIXlRQC8"}, {"name": "Guardian Travel", "formatted_address": "5 Al Haram, Oula, Giza District, Giza Governorate, Egypt", "lat": 30.0156723, "lng": 31.2162386, "types": ["travel_agency", "point_of_interest", "establishment"], "place_id": "ChIJWTmML-BGWBQR8Wvzx4M_EVE"}, {"name": "Egyptian Night Hostel", "formatted_address": "13 Meret Basha, Ismailia, Qasr El Nil, Cairo Governorate, Egypt", "lat": 30.047618, "lng": 31.234779, "types": ["lodging", "point_of_interest", "establishment"], "place_id": "ChIJKSbylsZAWBQR8ssXHLhSxmM"}, {"name": "مؤسسة الحمد", "formatted_address": "٢٣٤ شارع شبرا، بجوار بنك بلوم مصر، الخلفاوى، قسم، Elsahel, Cairo Governorate, Egypt", "lat": 30.0956979, "lng": 31.2451312, "types": ["car_repair", "point_of_interest", "store", "establishment"], "place_id": "ChIJZR_UgBRAWBQRC4O8pqycEIM"}, {"name": "تمكو | مركزخدمة اطارات ميشلان البحر الاعظم", "formatted_address": "173 شارع البحر الاعظم , محطة توتال بجوار القرية الفرعونية, giza, Giza Governorate 12345, Egypt", "lat": 29.9980564, "lng": 31.2148387, "types": ["car_repair", "point_of_interest", "store", "establishment"], "place_id": "ChIJGet5bl1HWBQRi8BkGpWiEsc"}, {"name": "دار حضانة منبر الإسلام", "formatted_address": "شارع هيكل متفرع من شارع الجامع عزبة عثمان ، شبرا الخيمة قسم ثاني شبرا الخيمه، Al Qalyubia Governorate, Egypt", "lat": 30.126704, "lng": 31.2520859, "types": ["school", "point_of_interest", "establishment"], "place_id": "ChIJE3dYvLBqWBQRGkzUMPWoYgM"}, {"name": "ORO Plaza Hotel", "formatted_address": "Al Shorouk, Cairo Governorate, Egypt", "lat": 30.0863861, "lng": 31.4778615, "types": ["lodging", "point_of_interest", "establishment"], "place_id": "ChIJ_9no33AZWBQRYhac4kqIejI"}]