[{"name": "Positive Spot", "formatted_address": "7 Abd El-Kawy Ahmed Basha, Almazah, Heliopolis, Cairo Governorate, Egypt", "lat": 30.0938819, "lng": 31.3416986, "types": ["point_of_interest", "establishment"], "place_id": "ChIJO_Tnrv0VWBQR_6nKrMdk9qs"}, {"name": "متحف مطار القاهرة صالة ٣", "formatted_address": "Matar Al Kahera Al Gawi, Almazah, Heliopolis, Cairo Governorate, Egypt", "lat": 30.0934185, "lng": 31.3422464, "types": ["museum", "point_of_interest", "establishment"], "place_id": "ChIJRzZxrEUVWBQR1nTD5dvzGng"}, {"name": "The Villa", "formatted_address": "2 Abd El-Kawy Ahmed Basha, Almazah, Heliopolis, Cairo Governorate, Egypt", "lat": 30.0932621, "lng": 31.3399219, "types": ["cafe", "food", "point_of_interest", "establishment"], "place_id": "ChIJddZx91UVWBQRdqEIjrEQ0pE"}, {"name": "SKY for Giveaways in Egypt", "formatted_address": "8 Abd El-Kawy Ahmed Basha, Almazah, Heliopolis, Cairo Governorate 11361, Egypt", "lat": 30.0937503, "lng": 31.3409053, "types": ["point_of_interest", "establishment"], "place_id": "ChIJt_0fJ_cVWBQRk7QLyDBbcC8"}, {"name": "360 cafe", "formatted_address": "8 Abd El-Kawy Ahmed Basha, Almazah, Heliopolis, Cairo Governorate, Egypt", "lat": 30.0937557, "lng": 31.3410242, "types": ["restaurant", "food", "point_of_interest", "establishment"], "place_id": "ChIJlW4XIe8VWBQRKkBaMQEv72M"}, {"name": "Rashied Maritime Services", "formatted_address": "3 ش عبد القوى احمد، Almazah, Heliopolis, Cairo Governorate, Egypt", "lat": 30.0928593, "lng": 31.3397328, "types": ["point_of_interest", "establishment"], "place_id": "ChIJ3d5r4PYVWBQRoyE3FaNVXTM"}, {"name": "black & white", "formatted_address": "6 ش عبد القوى احمد مصر الجديدة السبع عمارات مصر الجديدة، القاهرة، Cairo Governorate, Egypt", "lat": 30.0934832, "lng": 31.3409776, "types": ["restaurant", "food", "point_of_interest", "establishment"], "place_id": "ChIJlf8wN_cVWBQROB1d9uyl4Yc"}, {"name": "La Favorite", "formatted_address": "25 ش عمر بن الخطاب، Almazah, Heliopolis, Cairo Governorate, Egypt", "lat": 30.0932921, "lng": 31.3389973, "types": ["point_of_interest", "establishment"], "place_id": "ChIJo0ecE_gVWBQRFmBSBLjrr04"}, {"name": "Bedaya", "formatted_address": "27 Omar Ibn El-Khattab, Al Matar, El Nozha, Cairo Governorate, Egypt", "lat": 30.0921801, "lng": 31.3393083, "types": ["point_of_interest", "establishment"], "place_id": "ChIJVVUx-vYVWBQRwDLtywZys_0"}, {"name": "We-care", "formatted_address": "عبد القوي أحمد باشا، الماظة،، Heliopolis, Cairo Governorate, Egypt", "lat": 30.093568, "lng": 31.3412742, "types": ["car_repair", "point_of_interest", "establishment"], "place_id": "ChIJR2qASNEVWBQR2I0nZghhOEA"}, {"name": "El Nozha bridge Salah Salem intersection", "formatted_address": "النزهة، الماظة، قسم مصر الجديدة،،, Almazah, El Nozha, Cairo Governorate, Egypt", "lat": 30.0955153, "lng": 31.3423958, "types": ["point_of_interest", "establishment"], "place_id": "ChIJR9yXzCgVWBQRK3gBA6CISgQ"}, {"name": "Foamix", "formatted_address": "25 Omar Ibn El-Khattab, Almazah, Heliopolis, Cairo Governorate, Egypt", "lat": 30.09230359999999, "lng": 31.339432, "types": ["point_of_interest", "establishment"], "place_id": "ChIJ115s-_YVWBQRdQlWwUoQCLY"}, {"name": "Integrated Office Systems", "formatted_address": "165 El Orouba St.، Almazah, Heliopolis, Cairo Governorate, Egypt", "lat": 30.093161, "lng": 31.3379301, "types": ["point_of_interest", "establishment"], "place_id": "ChIJkRnRlvYVWBQR2kwPMweeeZ4"}, {"name": "Steak Out", "formatted_address": "52 Omar Ibn El-Khattab, Almazah, El Omraniya, Cairo Governorate, Egypt", "lat": 30.0940406, "lng": 31.3374624, "types": ["point_of_interest", "establishment"], "place_id": "ChIJL7tJpPYVWBQR1NaWtfzc9wY"}, {"name": "بلاتوس", "formatted_address": "82 Abou Bakr El-Sedeek, Al Matar, El Nozha, Cairo Governorate, Egypt", "lat": 30.0961526, "lng": 31.3413735, "types": ["point_of_interest", "establishment"], "place_id": "ChIJb5v59_AVWBQR1BElCjwOFGA"}, {"name": "فيكتوريا المتحده للفنادق", "formatted_address": "Almazah, Heliopolis, Cairo Governorate, Egypt", "lat": 30.0953579, "lng": 31.3409361, "types": ["point_of_interest", "establishment"], "place_id": "ChIJ9xGK6fAVWBQRAhRpw-JjnOs"}, {"name": "El Masreya For Construction", "formatted_address": "84 ش ابو بكر الصديق، El-Nozha, El Nozha, Cairo Governorate, Egypt", "lat": 30.096445, "lng": 31.341332, "types": ["point_of_interest", "establishment"], "place_id": "ChIJ21aoivAVWBQRCsKQzFDqQ-I"}, {"name": "Amitab", "formatted_address": "Almazah, Heliopolis, Cairo Governorate, Egypt", "lat": 30.0941508, "lng": 31.3379166, "types": ["point_of_interest", "establishment"], "place_id": "ChIJGZ6IsPYVWBQRSzPIeTMEoY4"}, {"name": "مشويات الشرقاوى", "formatted_address": "55 Omar Ibn El-Khattab, Almazah, Heliopolis, Cairo Governorate, Egypt", "lat": 30.0935464, "lng": 31.3381244, "types": ["point_of_interest", "establishment"], "place_id": "ChIJiRVjvvYVWBQRynnYMJB6y68"}, {"name": "Diwan Bookstore", "formatted_address": "105 Abou Bakr El-Sedeek, Almazah, Heliopolis, Cairo Governorate, Egypt", "lat": 30.0955932, "lng": 31.3412005, "types": ["book_store", "point_of_interest", "store", "establishment"], "place_id": "ChIJkTmV7PAVWBQRthTVz3MR8nM"}, {"name": "كبري الجلا", "formatted_address": "مطار القاهرة الدولي، الماظة، محافظة القاهرة‬،، Egypt", "lat": 30.095014, "lng": 31.3425827, "types": ["museum", "point_of_interest", "establishment"], "place_id": "ChIJmYxP7AEVWBQRoKAUwhf3hjs"}, {"name": "Crocodile For Touristic Projects", "formatted_address": "26 ش رشدى، Almazah, Heliopolis, Cairo Governorate, Egypt", "lat": 30.0953, "lng": 31.341, "types": ["point_of_interest", "establishment"], "place_id": "ChIJ9eiKxZoVWBQRy_etO1qJb4o"}, {"name": "Orion360 Digital Transformation", "formatted_address": "6 Abd El-Kawy Ahmed Basha, Almazah, Heliopolis, Cairo Governorate, Egypt", "lat": 30.0937384, "lng": 31.3407827, "types": ["point_of_interest", "establishment"], "place_id": "ChIJyayf2gsVWBQR5cchs87lNOM"}, {"name": "مراعى الريف", "formatted_address": "48 Omar Ibn El-Khattab, Almazah, Heliopolis, Cairo Governorate, Egypt", "lat": 30.09424, "lng": 31.3376552, "types": ["point_of_interest", "establishment"], "place_id": "ChIJAQDsr_YVWBQR1HWKLtVnFUk"}, {"name": "GCM", "formatted_address": "24 Roushdy Basha, Almazah, Heliopolis, Cairo Governorate, Egypt", "lat": 30.0953532, "lng": 31.3408909, "types": ["point_of_interest", "establishment"], "place_id": "ChIJMb7o6fAVWBQR1Ti2U_py51o"}, {"name": "EL Nozha Bridge 2", "formatted_address": "Abou Bakr El-Sedeek, El-Nozha, El Nozha, Cairo Governorate, Egypt", "lat": 30.09572, "lng": 31.3424549, "types": ["point_of_interest", "establishment"], "place_id": "ChIJL3TJrRsVWBQRTrZcN-gQ_-E"}, {"name": "IMKAN (Sales Center)", "formatted_address": "Almazah, Heliopolis, Cairo Governorate, Egypt", "lat": 30.0930667, "lng": 31.3370289, "types": ["point_of_interest", "establishment"], "place_id": "ChIJ6_BTnfYVWBQRrhDCC-MGNXc"}, {"name": "Superior", "formatted_address": "86 ش ابو بكر الصديق، El-Nozha, El Nozha, Cairo Governorate, Egypt", "lat": 30.096227, "lng": 31.34153299999999, "types": ["point_of_interest", "establishment"], "place_id": "ChIJw66zi_AVWBQRLqHxKfl5mUc"}, {"name": "South Sinai Water Company", "formatted_address": "24 Roushdy Basha, Almazah, Heliopolis, Cairo Governorate, Egypt", "lat": 30.0953729, "lng": 31.3408585, "types": ["point_of_interest", "establishment"], "place_id": "ChIJjRKV6fAVWBQRCT6Lz0AAWyk"}, {"name": "Flambé", "formatted_address": "66 Omar Ibn El-Khattab, Al Matar, El Nozha, Cairo Governorate, Egypt", "lat": 30.0918863, "lng": 31.3407048, "types": ["point_of_interest", "establishment"], "place_id": "ChIJFx4PD_cVWBQRNQiPy6Wx8jU"}, {"name": "جزاره فوزى الدهان", "formatted_address": "٤٧عثمان، Othman Ibn Affan, Almazah, مصر الجديدة،، Egypt", "lat": 30.0930309, "lng": 31.3393188, "types": ["food", "point_of_interest", "store", "establishment"], "place_id": "ChIJa3YFwPMVWBQR1TXOilJLUGw"}, {"name": "Haden Tours", "formatted_address": "32 Abdallah Al Falaki, Almazah, Heliopolis, Cairo Governorate, Egypt", "lat": 30.0937174, "lng": 31.3404649, "types": ["local_government_office", "point_of_interest", "establishment"], "place_id": "ChIJ_60ONjEVWBQRT3HvyX2d_IE"}, {"name": "محمد مقبول سيد .المحامي", "formatted_address": "عرب الجسر، 68 Omar Ibn El-Khattab, Almazah, Heliopolis, Cairo Governorate, Egypt", "lat": 30.0917467, "lng": 31.3407455, "types": ["point_of_interest", "establishment"], "place_id": "ChIJm56Pf40VWBQRVp1lVfpEQ5E"}, {"name": "Scimitar Production Egypt Ltd.", "formatted_address": "4 Abd El Kawy Ahmed St, Almazah, Heliopolis, Cairo Governorate, Egypt", "lat": 30.093301, "lng": 31.3403343, "types": ["point_of_interest", "establishment"], "place_id": "ChIJkRnRlvYVWBQROjKbI7xiay0"}, {"name": "Nordic timber for Import & Trade", "formatted_address": "149 El-Sayed El-Merghany Almazah Heliopolis Cairo Governorate 11775 El-Sayed El-Merghany, Almazah, Heliopolis, Cairo Governorate 11775, Egypt", "lat": 30.0916771, "lng": 31.3422876, "types": ["point_of_interest", "establishment"], "place_id": "ChIJCdi1ZPcVWBQR79qOjpZFWwQ"}, {"name": "OSN", "formatted_address": "Abd El-Salam Farid, Almazah, Heliopolis, Cairo Governorate, Egypt", "lat": 30.092789, "lng": 31.3416321, "types": ["shopping_mall", "point_of_interest", "establishment"], "place_id": "ChIJ6_11Bt8VWBQRvEivjtPmRHA"}, {"name": "Alpha International For Trade & Marketing", "formatted_address": "191 El Orouba St.، Almazah, Heliopolis, Cairo Governorate, Egypt", "lat": 30.093161, "lng": 31.3379301, "types": ["point_of_interest", "store", "establishment"], "place_id": "ChIJQ8vcqg0VWBQRbHacHNVLCqg"}, {"name": "Salah Al-Din Al-Ayoubi Castle, Salah Salem Street, Cairo", "formatted_address": "Salah Salem St, Al Abageyah, El-Khalifa, Cairo Governorate, Egypt", "lat": 30.0290436, "lng": 31.2594688, "types": ["point_of_interest", "establishment"], "place_id": "ChIJY-3CkKxAWBQRby736eSW2y8"}, {"name": "Azha Eye Lounge", "formatted_address": "Almazah, Heliopolis, Cairo Governorate, Egypt", "lat": 30.093614, "lng": 31.341848, "types": ["hospital", "health", "point_of_interest", "establishment"], "place_id": "ChIJTUccTfcVWBQRZuYgkQMY3Tc"}, {"name": "كمبوند بارك لين", "formatted_address": "B61 ElOrouba Street, Salah Salem Helioplis، Cairo Governorate, Egypt", "lat": 30.0932823, "lng": 31.3395414, "types": ["real_estate_agency", "point_of_interest", "establishment"], "place_id": "ChIJEegRcuEVWBQRqbICaqxlu_Y"}, {"name": "ماكينة صراف الي البنك الاهلي المصري - سفن اليفن ماركت - الميرغنى", "formatted_address": "شارع المرغنى بجوار التوحيد و النور مصر الجديدة, Cairo Governorate 11364, Egypt", "lat": 30.09211119999999, "lng": 31.3395282, "types": ["atm", "finance", "point_of_interest", "establishment"], "place_id": "ChIJuWJguvcVWBQRyeF3-669Mlg"}, {"name": "El Dar", "formatted_address": "42 Omar Ibn El-Khattab, Almazah, Heliopolis, Cairo Governorate, Egypt", "lat": 30.094938, "lng": 31.3365537, "types": ["point_of_interest", "establishment"], "place_id": "ChIJO7vPBvQVWBQRRoYNoH5epvc"}, {"name": "The garden", "formatted_address": "3 Mohammed El-Kordy, Almazah, Heliopolis, Cairo Governorate, Egypt", "lat": 30.0924222, "lng": 31.3408982, "types": ["lodging", "point_of_interest", "establishment"], "place_id": "ChIJGXcv3BMVWBQRbI_k0CImT-I"}, {"name": "الصافى للاستيراد والتصدير والتوكيلات التجارية", "formatted_address": "72 El-Orouba, Almazah, Heliopolis, Cairo Governorate, Egypt", "lat": 30.0949193, "lng": 31.34053699999999, "types": ["point_of_interest", "establishment"], "place_id": "ChIJq6o62_AVWBQRUnlT2u-7D7c"}, {"name": "blue mall", "formatted_address": "Almazah, اول القاهرة الجديدة، Cairo Governorate, Egypt", "lat": 30.0945874, "lng": 31.34175449999999, "types": ["shopping_mall", "point_of_interest", "establishment"], "place_id": "ChIJj2KooxsVWBQRinF28I12Ekw"}, {"name": "بناء للتنمية العقارية", "formatted_address": "Almazah, Heliopolis, Cairo Governorate, Egypt", "lat": 30.0916706, "lng": 31.3398694, "types": ["point_of_interest", "establishment"], "place_id": "ChIJqaqqqvcVWBQR9XW0MzoLZ6c"}, {"name": "Hangout", "formatted_address": "Galaa Bridge, El-Nozha, Heliopolis, Cairo Governorate, Egypt", "lat": 30.0956384, "lng": 31.3426527, "types": ["restaurant", "food", "point_of_interest", "establishment"], "place_id": "ChIJDVC6zacVWBQRTu--X3KoNF8"}, {"name": "Pact", "formatted_address": "46 Abd El-Salam Farid, Almazah, Heliopolis, Cairo Governorate, Egypt", "lat": 30.0918925, "lng": 31.3392368, "types": ["point_of_interest", "establishment"], "place_id": "ChIJa7G6AvcVWBQRNhrsDnTnPFc"}, {"name": "IM MOS NSA INERNATIONAL AIR PORT جميع دول العالم", "formatted_address": "مطار القاهرة الدولي، الماظة، قسم مصر الجديدة،، Cairo Governorate, Egypt", "lat": 30.095014, "lng": 31.3425827, "types": ["point_of_interest", "establishment"], "place_id": "ChIJzwcWpsAVWBQRxMdVvHjxlHY"}, {"name": "تمكو مصر الجديدة - الجلاء", "formatted_address": "اسفل كوبري الثورة, El-Nozha, Heliopolis, Cairo Governorate, Egypt", "lat": 30.09427699999999, "lng": 31.342022, "types": ["car_repair", "point_of_interest", "store", "establishment"], "place_id": "ChIJY44e5zI_WBQRAIRVM_x7b-8"}, {"name": "New Building", "formatted_address": "El-Nozha, Almazah, Nasr City, Cairo Governorate, Egypt", "lat": 30.091549, "lng": 31.341435, "types": ["point_of_interest", "establishment"], "place_id": "ChIJ88ot2KkVWBQRBTsn2p2yzrg"}, {"name": "Hamed Sons Market", "formatted_address": "25 ش عمر بن الخطاب، Almazah, Heliopolis, Cairo Governorate, Egypt", "lat": 30.0932921, "lng": 31.3389973, "types": ["grocery_or_supermarket", "food", "point_of_interest", "store", "establishment"], "place_id": "ChIJo0ecE_gVWBQReSUmumjqKdY"}, {"name": "Al Galaa Bridge (Helipolis)", "formatted_address": "El-Nozha, El Nozha, Cairo Governorate, Egypt", "lat": 30.095953, "lng": 31.342318, "types": ["transit_station", "point_of_interest", "establishment"], "place_id": "ChIJ85LHhvAVWBQRWntl66bCchA"}, {"name": "مستشفي النخبة", "formatted_address": "السيد الميرغني، الماظة، قسم مصر الجديدة،، Cairo Governorate, Egypt", "lat": 30.0910631, "lng": 31.342643, "types": ["hospital", "health", "point_of_interest", "establishment"], "place_id": "ChIJw4gvX9gVWBQRWXqA5W-gBsY"}, {"name": "Kemet Medical", "formatted_address": "60 Yakoub Artin, Almazah, Heliopolis, Cairo Governorate, Egypt", "lat": 30.0938745, "lng": 31.338569, "types": ["point_of_interest", "establishment"], "place_id": "ChIJvXXz2B8VWBQR7QNwJraLzxg"}, {"name": "Projects Real Estate Development", "formatted_address": "67 Omar Ibn El-Khattab, Almazah, Heliopolis, Cairo Governorate, Egypt", "lat": 30.0910136, "lng": 31.3404526, "types": ["point_of_interest", "establishment"], "place_id": "ChIJAVG3p_cVWBQRvc1GRhe-ELI"}, {"name": "Al-Azhar Mosque", "formatted_address": "El-Darb El-Ahmar, Cairo Governorate, Egypt", "lat": 30.045688, "lng": 31.2626851, "types": ["mosque", "tourist_attraction", "place_of_worship", "point_of_interest", "establishment"], "place_id": "ChIJ9SH986JAWBQR6FIeS8dSZ2c"}, {"name": "ElAttal Holding", "formatted_address": "B 61. Salah Salem، El-Orouba, Cairo Governorate, Egypt", "lat": 30.0932927, "lng": 31.3394421, "types": ["general_contractor", "point_of_interest", "establishment"], "place_id": "ChIJAWPGlF0-WBQR71f8bhX3--o"}, {"name": "Disty Co.", "formatted_address": "7 Aflaton, Almazah, Heliopolis, Cairo Governorate, Egypt", "lat": 30.0943209, "lng": 31.33892, "types": ["point_of_interest", "establishment"], "place_id": "ChIJk2PutfYVWBQRG5ZmxXPqiTc"}, {"name": "Etapes Nouvelles Egypte Voyages", "formatted_address": "4 من ش عمر بن الخطاب، مصر الجديدة، القاهرة، Cairo Governorate, Egypt", "lat": 30.09420799999999, "lng": 31.338196, "types": ["travel_agency", "point_of_interest", "establishment"], "place_id": "ChIJWzTitvYVWBQRMlBDJD36L9s"}]