[{"name": "Baron Empain Palace", "formatted_address": "El-Orouba, El-Montaza, Heliopolis, Cairo Governorate 11757, Egypt", "lat": 31.3303332, "types": ["point_of_interest", "establishment"], "place_id": "ChIJ1_GM8iE-WBQRLNVi-RT7vDA"}, {"name": "الهندسيه للستائر الرأسيه", "formatted_address": "مصر الجديده، القاهره، مصر فارغ، Egypt", "lat": 31.3438507, "types": ["home_goods_store", "point_of_interest", "store", "establishment"], "place_id": "ChIJT2uD_nYVWBQRmvvE3fIiJnw"}, {"name": "art planet 369", "formatted_address": "Al Matar, El Nozha, Cairo Governorate, Egypt", "lat": 31.3438507, "types": ["point_of_interest", "establishment"], "place_id": "ChIJgW-2iYQVWBQRAcyJwo7q004"}, {"name": "مكتب المستشار يحي عبد المجيد", "formatted_address": "16 Al Sobki, Mansheya El-Bakry, Heliopolis, Cairo Governorate, Egypt", "lat": 31.3152517, "types": ["point_of_interest", "establishment"], "place_id": "ChIJEeAhii4-WBQRAa8jRLnRR5w"}, {"name": "مستشفى الحرية التخصصى", "formatted_address": "11 Latif Mansour St، Almazah, El Nozha, Cairo Governorate, Egypt", "lat": 31.3438507, "types": ["hospital", "health", "point_of_interest", "establishment"], "place_id": "ChIJq7jFPhw-WBQRx7wGgL_7bO8"}, {"name": "Arab film school", "formatted_address": "15-Al-Ahram Street, Heliopolis, Cairo Governorate 11757, Egypt", "lat": 31.3438507, "types": ["point_of_interest", "establishment"], "place_id": "ChIJcYZ1plEVWBQRfQ17CkMcvAQ"}, {"name": "EGENT Center (Heliopolis Branch)", "formatted_address": "24 el Ahram street, Al Matar, El Nozha, Cairo Governorate, Egypt", "lat": 31.3438507, "types": ["health", "point_of_interest", "establishment"], "place_id": "ChIJA9dUAxwVWBQRn6gBuXiy7yA"}, {"name": "دكتور عبدالمجيد العشماوى", "formatted_address": "Al Sayed Al Maqreezi, Mansheya El-Bakry, Heliopolis, Cairo Governorate, Egypt", "lat": 31.3080887, "types": ["health", "point_of_interest", "establishment"], "place_id": "ChIJAa8WNtM_WBQRtMFa4T6-y8Y"}, {"name": "مركز الدكتور امجد الحداد حساسية ومناعه 12ش بطرس غالى روكسي مصر الجديده", "formatted_address": "12 شارع بطرس غالى روكسى، روكسي، مصر الجديده، Cairo Governorate, Egypt", "lat": 31.343851, "types": ["doctor", "health", "point_of_interest", "establishment"], "place_id": "ChIJf2fnvc4VWBQRy8CF-La2d4c"}, {"name": "super", "formatted_address": "Al Matar, El Nozha, Cairo Governorate 11736, Egypt", "lat": 31.3438507, "types": ["secondary_school", "school", "point_of_interest", "establishment"], "place_id": "ChIJhznDAIIVWBQRSHr8c3DBaYU"}, {"name": "شقق مقروشة للايجار في القاهرة", "formatted_address": "ميدان تريومف، Al Matar, El Nozha, Cairo Governorate 11757, Egypt", "lat": 31.3438507, "types": ["lodging", "point_of_interest", "establishment"], "place_id": "ChIJWZEUunIVWBQR9m5l_WAmnt4"}, {"name": "دكتور خالد عبد المجيد", "formatted_address": "٢٩ شارع عين شمس - الدور ٣ - اعلى سنتر هدية و أمام ماركت عبدالله العثيم 70 EG, Egypt", "lat": 31.3246011, "types": ["doctor", "health", "point_of_interest", "establishment"], "place_id": "ChIJrZDrZikVWBQRwM-fNQNOAeY"}, {"name": "كمبوند سكاي كابيتال", "formatted_address": "محافظة القاهرة‬،4 ش صلاح الدين من العروبه - مصر الجديده، Cairo Governorate 11736, Egypt", "lat": 31.3438507, "types": ["real_estate_agency", "lodging", "point_of_interest", "establishment"], "place_id": "ChIJxeUN-f6NVxQR4gOpLWmma2E"}, {"name": "مريم عتمان", "formatted_address": "مصر الجديدة، المطار، قسم النزهة،، Cairo Governorate, Egypt", "lat": 31.3438507, "types": ["point_of_interest", "establishment"], "place_id": "ChIJgxrFUogVWBQRS1UPh4qIBp0"}, {"name": "Abdel Maksoud Pharmacy", "formatted_address": "Othman Ibn Affan, Al Matar, El Nozha, Cairo Governorate, Egypt", "lat": 31.3479913, "types": ["pharmacy", "health", "point_of_interest", "store", "establishment"], "place_id": "ChIJucrEyuYVWBQRdVzpt8MwhT4"}, {"name": "محمد سعد", "formatted_address": "Al Matar, El Nozha, Cairo Governorate 11757, Egypt", "lat": 31.3438507, "types": ["furniture_store", "home_goods_store", "point_of_interest", "store", "establishment"], "place_id": "ChIJi0ahxJQVWBQRvGgOE2t1p2c"}, {"name": "parrot crafts", "formatted_address": "19 mohamed elshaibani street, Al Matar, El Nozha, Cairo Governorate, Egypt", "lat": 31.3438507, "types": ["point_of_interest", "establishment"], "place_id": "ChIJpWN11U4VWBQRdMRql2T4eK4"}, {"name": "مدرسة البطل علي فهمي بالصوالح", "formatted_address": "مصر الجديدة، المطار، قسم النزهة،، Cairo Governorate, Egypt", "lat": 31.3438507, "types": ["school", "point_of_interest", "establishment"], "place_id": "ChIJz-uM8hIVWBQRWR8pB_-1pOE"}, {"name": "La Vie Gym", "formatted_address": "٤حسن منصور _خلف نادي النصر _ميدان المحكمة _مصر، الحديدة، المطار، قسم النزهة، محافظة القاهرة‬،، Egypt", "lat": 31.3438507, "types": ["gym", "health", "point_of_interest", "establishment"], "place_id": "ChIJfe8BkEkVWBQRKi2MKUETkMw"}, {"name": "هيلتون هيليوبلس", "formatted_address": "Al Matar, El Nozha, Cairo Governorate, Egypt", "lat": 31.3438507, "types": ["lodging", "point_of_interest", "establishment"], "place_id": "ChIJocT4HcUVWBQRgIk90yuylWM"}, {"name": "معاز السقا", "formatted_address": "مصر الجديدة، المطار، قسم النزهة، محافظة القاهرة‬،، Egypt", "lat": 31.3438507, "types": ["school", "point_of_interest", "establishment"], "place_id": "ChIJnVjy6JQVWBQRQ3ih7tn5Nws"}, {"name": "علي أبوهيف", "formatted_address": "مصر الجديدة الكوربة ش3 البوستة, Heliopolis, Cairo Governorate 11757, Egypt", "lat": 31.3438507, "types": ["point_of_interest", "establishment"], "place_id": "ChIJ26OLZNcVWBQRr73tM3AyTTM"}, {"name": "elsultan aqaria group", "formatted_address": "70 ش جوزيف تيتو - طريق المطار, El-Nozha, Egypt", "lat": 31.3438507, "types": ["lodging", "point_of_interest", "establishment"], "place_id": "ChIJsc8dY3UVWBQR4ERwwyHLfwc"}, {"name": "Mar Guirguis church", "formatted_address": "Al Matar, El Nozha, Cairo Governorate, Egypt", "lat": 31.3438507, "types": ["church", "place_of_worship", "point_of_interest", "establishment"], "place_id": "ChIJo7ZMU40VWBQRyM0cS-gcbeM"}, {"name": "Egyptravel", "formatted_address": "Safer square 12 Hassona, النواوي، Cairo Governorate, Egypt", "lat": 31.3438507, "types": ["travel_agency", "point_of_interest", "establishment"], "place_id": "ChIJneOVGKdHWBQR2dPurZOd9g8"}, {"name": "Radisson Blu Hotel, Cairo Heliopolis", "formatted_address": "Abdel Hamid Badawi St Heliopolis, Cairo Governorate 11787, Egypt", "lat": 31.3753121, "types": ["lodging", "point_of_interest", "establishment"], "place_id": "ChIJQZJ8fWUWWBQRAUPO9I6SxPg"}, {"name": "Gamal Abdel Nasser Mosque", "formatted_address": "ش El-Khalifa El-Maamoun, El-Qobba Bridge, Al Waili, Cairo Governorate, Egypt", "lat": 31.2944055, "types": ["mosque", "place_of_worship", "point_of_interest", "establishment"], "place_id": "ChIJwTVgWC0-WBQRWW3UZycLNi8"}, {"name": "princess toys", "formatted_address": "Al Matar, El Nozha, Cairo Governorate, Egypt", "lat": 31.3438507, "types": ["point_of_interest", "store", "establishment"], "place_id": "ChIJqSpPHO8VWBQRezuQybllP-8"}, {"name": "سيتى كريب", "formatted_address": "علي،قسم النزهه ، أحمد محمود، Egypt", "lat": 31.3438507, "types": ["restaurant", "food", "point_of_interest", "store", "establishment"], "place_id": "ChIJFw-y-tkVWBQRDGCNSqSvMdo"}, {"name": "Hotel Concorde El Salam Cairo By Royal Tulip", "formatted_address": "69 Abd El-Hameed Badawi, St، El Nozha, Cairo Governorate, Egypt", "lat": 31.3480627, "types": ["lodging", "point_of_interest", "establishment"], "place_id": "ChIJ3b5I-fUVWBQRVG_oX-wQmZE"}, {"name": "اولاد على عبد المجيد", "formatted_address": "شارع الشارع الجديد، الشرفا، El Marg, Cairo Governorate, Egypt", "lat": 31.35236829999999, "types": ["point_of_interest", "establishment"], "place_id": "ChIJd1gApCcUWBQRmrtIkbAWVlM"}, {"name": "دكتور خالد عبد المجيد", "formatted_address": "29 Ain Shams, Al Khosous, Al Salam First, Cairo Governorate, Egypt", "lat": 31.3247942, "types": ["doctor", "health", "point_of_interest", "establishment"], "place_id": "ChIJOXk2lJsVWBQR1nPhYquAPN8"}, {"name": "ورثة احمد حافظ", "formatted_address": "شارع, Cairo Governorate, Egypt", "lat": 31.3438507, "types": ["point_of_interest", "establishment"], "place_id": "ChIJZ5YXq9wVWBQR8n_hUliQaSQ"}, {"name": "Move Your Asana", "formatted_address": "Al Matar, El Nozha, Cairo Governorate, Egypt", "lat": 31.3438507, "types": ["gym", "health", "point_of_interest", "establishment"], "place_id": "ChIJyy1ze9IVWBQR6EITHhHFbTU"}, {"name": "مطبعة الأندلس", "formatted_address": "مصر الجديده الجرفه سابقن،، Egypt", "lat": 31.3438507, "types": ["point_of_interest", "establishment"], "place_id": "ChIJCX2oMEEVWBQRqJxm0dvnFks"}, {"name": "اوتوشوب فرع جسر السويس", "formatted_address": "شنودة، 6 عمارات الشرطة - ناصية عزبة، Cairo Governorate, Egypt", "lat": 31.3438507, "types": ["car_repair", "point_of_interest", "store", "establishment"], "place_id": "ChIJSfibmtoVWBQRKQFQedKNvE0"}, {"name": "go fianance", "formatted_address": "Al Matar, El Nozha, Cairo Governorate, Egypt", "lat": 31.3438507, "types": ["point_of_interest", "establishment"], "place_id": "ChIJp4eMKKYVWBQRkImXhuDazGc"}, {"name": "كلية البنات الإسلامية", "formatted_address": "Al Matar, El Nozha, Cairo Governorate, Egypt", "lat": 31.3438507, "types": ["school", "point_of_interest", "establishment"], "place_id": "ChIJm_9G-NIVWBQRek3167HyMZE"}, {"name": "diamond decoration", "formatted_address": "ارض الجولف مصر الجديدة ، 30 الحرية، Egypt", "lat": 31.3438507, "types": ["point_of_interest", "establishment"], "place_id": "ChIJmeXkw9wVWBQRe5NpWmzLXls"}, {"name": "النادى النهرى للمحاماه", "formatted_address": "مصر الجديدة، المطار، قسم النزهة،، Cairo Governorate, Egypt", "lat": 31.3438507, "types": ["gym", "health", "point_of_interest", "establishment"], "place_id": "ChIJVTBXv4cVWBQRFs-yzY6OY5k"}, {"name": "حجز فنادق مصر الجديدة", "formatted_address": "مصر الجديدة، Cairo Governorate, Egypt", "lat": 31.3438507, "types": ["travel_agency", "point_of_interest", "establishment"], "place_id": "ChIJI1h83OMVWBQRtdlkKJjuHuw"}, {"name": "egypt trade", "formatted_address": "Al Matar, El Nozha, Cairo Governorate, Egypt", "lat": 31.3438507, "types": ["point_of_interest", "establishment"], "place_id": "ChIJ3Q0z96wVWBQRy5ya7vDjai4"}, {"name": "مداك لانظمه الالومنيوم Madac for Aluminum Systems & U-PVC", "formatted_address": "53 شارع احمد زكى النزهه الجديده امام فلوبتير بالاس، مصر الجديده، القاهرة 11843، مصر Masr Elgdeda، Egypt", "lat": 31.3438507, "types": ["general_contractor", "point_of_interest", "establishment"], "place_id": "ChIJX5vK7EAVWBQRgVSZ83YGpW4"}, {"name": "علاج طبيعي بالمنزل", "formatted_address": "مصر الجديدة، المطار، قسم النزهة،، Cairo Governorate, Egypt", "lat": 31.3438507, "types": ["gym", "health", "point_of_interest", "establishment"], "place_id": "ChIJD8OAwS8VWBQRB5lwjHZNazg"}, {"name": "Dr. Abd El Meged Faheem", "formatted_address": "27 Baghdad, El-Montaza, Heliopolis, Cairo Governorate, Egypt", "lat": 31.3250824, "types": ["dentist", "health", "point_of_interest", "establishment"], "place_id": "ChIJ-_rKNyc-WBQRI_obVBVO0Q4"}, {"name": "Jobrp Recruitment Professionals", "formatted_address": "25 El Rahala El Boughdady, Ard El Golf, El Nozha, Cairo Governorate, Egypt", "lat": 31.3438507, "types": ["point_of_interest", "establishment"], "place_id": "ChIJh2xAG40VWBQRoJFc6vPLOog"}, {"name": "المصرية لخدمات المؤتمرات", "formatted_address": "6 Al Abnasy Street, Mansheiet El-Bakry, Cairo Governorate 11341, Egypt", "lat": 31.3438507, "types": ["point_of_interest", "establishment"], "place_id": "ChIJV2-3ZtM_WBQRppQSBfVwTtY"}, {"name": "Mohamed hassan", "formatted_address": "Roxy, Al Matar, El Nozha, Cairo Governorate, Egypt", "lat": 31.3438507, "types": ["general_contractor", "point_of_interest", "establishment"], "place_id": "ChIJWcrQp1cVWBQRxa48aNK0CZw"}, {"name": "amany elcherif", "formatted_address": "elshahed mohamed abdelhady، 18، المطار، قسم النزهة، محافظة القاهرة‬،، Egypt", "lat": 31.3438507, "types": ["point_of_interest", "establishment"], "place_id": "ChIJqTJ_tOcVWBQRSf4BJUlgOdE"}, {"name": "معاز السقا", "formatted_address": "14 عبد الحي فتحي، المطار، قسم النزهة،، Cairo Governorate, Egypt", "lat": 31.3438292, "types": ["point_of_interest", "establishment"], "place_id": "ChIJv5bKAj8VWBQRkEBXT4OP3sE"}, {"name": "كلية البنات جامعة عين شمس", "formatted_address": "Al Matar, El Nozha, Cairo Governorate, Egypt", "lat": 31.3437665, "types": ["school", "point_of_interest", "establishment"], "place_id": "ChIJ9TIiBcQVWBQRnL0x6V1A3A0"}, {"name": "Dr. Mina magdi dental clinic", "formatted_address": "60 Heliopolis st. El ibrahemya 2ndfloor, Egypt", "lat": 31.3438507, "types": ["dentist", "health", "point_of_interest", "establishment"], "place_id": "ChIJyVgcg9oVWBQRsq6fyvZ8Vu0"}, {"name": "El Tahra Palace - قصر الطاهرة", "formatted_address": "El-Zaytoun Sharkeya, Zeitoun, Cairo Governorate, Egypt", "lat": 31.3085112, "types": ["museum", "point_of_interest", "establishment"], "place_id": "ChIJM_O-HYAVWBQRMuzVJ73MpHY"}, {"name": "د/ شيماء عبد المجيد العشماوى", "formatted_address": "المقريزي، Mansheya El-Bakry, Heliopolis, Cairo Governorate, Egypt", "lat": 31.3079107, "types": ["physiotherapist", "doctor", "health", "point_of_interest", "establishment"], "place_id": "ChIJZekiMdM_WBQRaKDTHKXoOL8"}, {"name": "Gonline for Trading", "formatted_address": "8 Sayed Afifi, Al Matar, El Nozha, Cairo Governorate, Egypt", "lat": 31.3438507, "types": ["point_of_interest", "establishment"], "place_id": "ChIJD41-uccVWBQR6NYWzQjgGzY"}, {"name": "Agency's chemical products", "formatted_address": "٣ق ب و ارض، الجولف، Cairo Governorate, Egypt", "lat": 31.3438507, "types": ["point_of_interest", "establishment"], "place_id": "ChIJV-2pqfQVWBQRDBoBrvbCYaI"}, {"name": "New khalifa", "formatted_address": "roxy, 2 Dimsuq street, Al Matar, El Nozha, Cairo Governorate, Egypt", "lat": 31.3438507, "types": ["food", "point_of_interest", "establishment"], "place_id": "ChIJs9rBu-Y_WBQRT34u3gM2KM8"}, {"name": "فندق كنكورد السلام", "formatted_address": "المطار، قسم النزهة، محافظة القاهرة‬،، Egypt", "lat": 31.3438507, "types": ["lodging", "point_of_interest", "establishment"], "place_id": "ChIJZYOYs08VWBQRBPgJTZvjWGo"}, {"name": "Spectra Restaurant", "formatted_address": "city stars, Al Matar, El Nozha, Cairo Governorate, Egypt", "lat": 31.3438507, "types": ["restaurant", "food", "point_of_interest", "establishment"], "place_id": "ChIJO5X6FZoVWBQRuJSlbjeUxnA"}, {"name": "Hex Advertising", "formatted_address": "Cairo, Cairo Governorate 11757, Egypt", "lat": 31.3438043, "types": ["point_of_interest", "establishment"], "place_id": "ChIJeZyDI1M_WBQR0uRSvjPywB0"}]