[{"name": "New Contrast For Engineering", "formatted_address": "35 Abd Al Hamid Abou Hief, El-Nozha, El Nozha, Cairo Governorate, Egypt", "lat": 30.10497549999999, "lng": 31.3340361, "types": ["point_of_interest", "establishment"], "place_id": "ChIJVxOh7uwVWBQREX6JJkcrHIA"}, {"name": "Rowad Masr Newspaper", "formatted_address": "28 ش عبد الحميد ابو هيف، El-Nozha, El Nozha, Cairo Governorate, Egypt", "lat": 30.1047686, "lng": 31.3331495, "types": ["point_of_interest", "establishment"], "place_id": "ChIJVxOh7uwVWBQRdmYlPid9l8M"}, {"name": "Hamed El Sonbaty", "formatted_address": "21 ش عبد الحميد ابو هيف، El-Nozha, El Nozha, Cairo Governorate, Egypt", "lat": 30.1047686, "lng": 31.3331495, "types": ["point_of_interest", "establishment"], "place_id": "ChIJVxOh7uwVWBQROpzBs5X76L0"}, {"name": "International British Center - IBC", "formatted_address": "4 ش عبد الحميد ابو هيف، El-Nozha, El Nozha, Cairo Governorate, Egypt", "lat": 30.1047686, "lng": 31.3331495, "types": ["point_of_interest", "establishment"], "place_id": "ChIJVxOh7uwVWBQRQ7kfHiUInoM"}, {"name": "Our Lady of Heliopolis Co-Cathedral", "formatted_address": "Nazih Khalifa crossroad، Al Ahram, Heliopolis, Cairo Governorate, Egypt", "lat": 30.0935707, "lng": 31.3251828, "types": ["church", "place_of_worship", "point_of_interest", "establishment"], "place_id": "ChIJJdgh-okVWBQR5TqTmKuQ0IM"}, {"name": "yallango", "formatted_address": "مستشفى هليوبوليس _، ٣٧ عبد الحميد ابو هيف _ خلف، El-Nozha, El Nozha, Cairo Governorate, Egypt", "lat": 30.1053363, "lng": 31.3349744, "types": ["lodging", "point_of_interest", "establishment"], "place_id": "ChIJq6o-cOwVWBQR3z8YFKZVc-E"}, {"name": "Ehab Mohamed Abdel Ghaffar", "formatted_address": "15 ش Abd Al Hamid Abou Hief, El-Bostan, Heliopolis, Cairo Governorate, Egypt", "lat": 30.1004115, "lng": 31.3303834, "types": ["point_of_interest", "establishment"], "place_id": "ChIJI6IHOY0VWBQRMjj6CkTdsw0"}, {"name": "Hospital Petrogas", "formatted_address": "9 Abd Al Hamid Abou Hief, El-Nozha, El Nozha, Cairo Governorate, Egypt", "lat": 30.1037679, "lng": 31.3313293, "types": ["hospital", "health", "point_of_interest", "establishment"], "place_id": "ChIJSSoyLe0VWBQRAj4AJ9e-TYw"}, {"name": "NOKA", "formatted_address": "93 El Hegaz St, El-Nozha, El Nozha, Cairo Governorate, Egypt", "lat": 30.1050333, "lng": 31.3324871, "types": ["point_of_interest", "establishment"], "place_id": "ChIJ22aEwOwVWBQRqkxMyVwTuyk"}, {"name": "معهد قيثاره هليوبوليس", "formatted_address": "46 Abd Al Hamid Abou Hief, El-Nozha, El Nozha, Cairo Governorate, Egypt", "lat": 30.1059696, "lng": 31.3352648, "types": ["electronics_store", "home_goods_store", "point_of_interest", "store", "establishment"], "place_id": "ChIJiWaFtBAVWBQRmMeUSWuJSmM"}, {"name": "مركز قيثارة", "formatted_address": "46 Abd Al Hamid Abou Hief, El-Nozha, El Nozha, Cairo Governorate, Egypt", "lat": 30.1059696, "lng": 31.3352648, "types": ["point_of_interest", "establishment"], "place_id": "ChIJi2BOUXIVWBQRUJt6_qeC8Z0"}, {"name": "Elhoseeny", "formatted_address": "101 El Hegaz St, El-Nozha, El Nozha, Cairo Governorate, Egypt", "lat": 30.1057088, "lng": 31.3339036, "types": ["point_of_interest", "establishment"], "place_id": "ChIJQQgrhOwVWBQRUjLq-jDJidM"}, {"name": "العيسوى ماركت", "formatted_address": "97 El Hegaz St, Al Matar, El Nozha, Cairo Governorate, Egypt", "lat": 30.10584399999999, "lng": 31.3336124, "types": ["point_of_interest", "establishment"], "place_id": "ChIJTXRYhOwVWBQRqPpLANbqfA8"}, {"name": "ROYAL INTERNATIONAL ACADEMY HEAD QUARTER", "formatted_address": "35 عبد الحميد أبو هيف، النزهة، قسم النزهة، محافظة القاهرة‬،، Egypt", "lat": 30.10497549999999, "lng": 31.3340361, "types": ["point_of_interest", "establishment"], "place_id": "ChIJTQ4CZjYVWBQR8--FmFzYGtk"}, {"name": "Residence Development", "formatted_address": "91 El Hegaz St, Al Matar, El Nozha, Cairo Governorate, Egypt", "lat": 30.105034, "lng": 31.332044, "types": ["point_of_interest", "establishment"], "place_id": "ChIJ5fZCeI4VWBQRUxveaZbUyxA"}, {"name": "مستشفى البدراوي لعلاج الادمان", "formatted_address": "بجوار محكمة الاسرة، شارع Abd Al Hamid Abou Hief, El-Nozha, El Nozha, Cairo Governorate, Egypt", "lat": 30.1041063, "lng": 31.3303296, "types": ["hospital", "health", "point_of_interest", "establishment"], "place_id": "ChIJ7X8vCW4VWBQRl-MKiKh8dro"}, {"name": "Kythara Music Center", "formatted_address": "46 ش عبد الحميد ابو هيف، El-Nozha, El Nozha, Cairo Governorate, Egypt", "lat": 30.1047686, "lng": 31.3331495, "types": ["point_of_interest", "establishment"], "place_id": "ChIJVxOh7uwVWBQR-krJAUr13IE"}, {"name": "Arab Tone", "formatted_address": "45 El Hegaz St, Al Matar, El Nozha, Cairo Governorate, Egypt", "lat": 30.1055542, "lng": 31.3324016, "types": ["point_of_interest", "establishment"], "place_id": "ChIJ2-y3vuwVWBQRPNLhpdhe-TQ"}, {"name": "Urban Art For Engineering & Contracting", "formatted_address": "27-43 Abd Al Hamid Abou Hief, El-Nozha, El Nozha, Cairo Governorate, Egypt", "lat": 30.1057081, "lng": 31.3349323, "types": ["point_of_interest", "establishment"], "place_id": "ChIJLY1WzmQVWBQRpAL6ZuvYpec"}, {"name": "SHERIF BEIK IBRAHIM", "formatted_address": "44 Abd Al Hamid Abou Hief, El-Nozha, El Nozha, Cairo Governorate, Egypt", "lat": 30.1058546, "lng": 31.3350861, "types": ["point_of_interest", "establishment"], "place_id": "ChIJraRGxQoVWBQRZhmyCqXDS3c"}, {"name": "Fouda Motors", "formatted_address": "97 El Hegaz St, Al Matar, El Nozha, Cairo Governorate, Egypt", "lat": 30.10584399999999, "lng": 31.3336124, "types": ["point_of_interest", "establishment"], "place_id": "ChIJTXRYhOwVWBQRxElz8ty30Lk"}, {"name": "El Nasr Park", "formatted_address": "El-Nozha, El Nozha, Cairo Governorate, Egypt", "lat": 30.1063003, "lng": 31.3312034, "types": ["park", "point_of_interest", "establishment"], "place_id": "ChIJcQtrMrsVWBQR8WaHRMvTDUI"}, {"name": "Sandwichagy", "formatted_address": "21 عبد الحميد أبو هيف، Mohammed Zaki، El-Nozha, Cairo Governorate, Egypt", "lat": 30.1043734, "lng": 31.3328078, "types": ["restaurant", "food", "point_of_interest", "establishment"], "place_id": "ChIJKxvk5-wVWBQReevqo8KMKmE"}, {"name": "IFI Islam Farahat Innovations", "formatted_address": "27 Abd Al Hamid Abou Hief, El-Nozha, El Nozha, Cairo Governorate, Egypt", "lat": 30.105028, "lng": 31.3339786, "types": ["furniture_store", "home_goods_store", "point_of_interest", "store", "establishment"], "place_id": "ChIJhfY5VMEWWBQRWPZa_63ka6M"}, {"name": "اون ذا ران", "formatted_address": "46 El Hegaz St, Al Matar, El Nozha, Cairo Governorate, Egypt", "lat": 30.1062849, "lng": 31.3333538, "types": ["point_of_interest", "establishment"], "place_id": "ChIJWaZBnewVWBQRTHDPVixVwSc"}, {"name": "Tiba For Office Equipment & Copy Centers", "formatted_address": "5 عبد الحميد أبو هيف، خلف محكمة الأسرة، ، النزهة،، قسم النزهة،، Cairo Governorate 11771, Egypt", "lat": 30.10361309999999, "lng": 31.3309754, "types": ["point_of_interest", "establishment"], "place_id": "ChIJVxOh7uwVWBQRfq6IjOCAqHk"}, {"name": "Marhaba Stationery", "formatted_address": "22 ش على ابراهيم رامز، El-Nozha, El Nozha, Cairo Governorate, Egypt", "lat": 30.1042762, "lng": 31.3337072, "types": ["point_of_interest", "establishment"], "place_id": "ChIJ02oN-uwVWBQRA0lNuj0qklg"}, {"name": "EDC - Equipment Development Center", "formatted_address": "50 ش Abd Al Hamid Abou Hief, El-Nozha, El Nozha, Cairo Governorate, Egypt", "lat": 30.1060618, "lng": 31.3357168, "types": ["point_of_interest", "store", "establishment"], "place_id": "ChIJH9GF8-sVWBQRQcSNWlUi448"}, {"name": "Dalia & Haidy Stationery", "formatted_address": "21 Abd Al Hamid Abou Hief, El-Nozha, El Nozha, Cairo Governorate, Egypt", "lat": 30.1044159, "lng": 31.3328521, "types": ["store", "point_of_interest", "establishment"], "place_id": "ChIJVxOh7uwVWBQRnvGgsOaEP8w"}, {"name": "معهد قيثارة", "formatted_address": "46 Abd Al Hamid Abou Hief, El-Nozha, El Nozha, Cairo Governorate, Egypt", "lat": 30.1059817, "lng": 31.3352567, "types": ["point_of_interest", "establishment"], "place_id": "ChIJrWtpdewVWBQR07HeaEgGP6I"}, {"name": "صيدلية د/أحمد أحمد", "formatted_address": "31-43 Abd Al Hamid Abou Hief, El-Nozha, El Nozha, Cairo Governorate, Egypt", "lat": 30.1051075, "lng": 31.3335781, "types": ["pharmacy", "health", "point_of_interest", "store", "establishment"], "place_id": "ChIJddWf6PAVWBQR182S_FObY9o"}, {"name": "القومسيون الطبي لوزارة البترول", "formatted_address": "5-9، Abd Al Hamid Abou Hief, El-Nozha, El Nozha, Cairo Governorate, Egypt", "lat": 30.103617, "lng": 31.3309955, "types": ["hospital", "health", "point_of_interest", "establishment"], "place_id": "ChIJR9LFzZIVWBQR9BDoHDjSZP4"}, {"name": "Alfa Electronics Maintenance Dept", "formatted_address": "21 Abd Al Hamid Abou Hief, El-Nozha, El Nozha, Cairo Governorate, Egypt", "lat": 30.1045725, "lng": 31.333125, "types": ["point_of_interest", "establishment"], "place_id": "ChIJHWs67-wVWBQR6hN8yaxjn2A"}, {"name": "Microknit", "formatted_address": "40 ش الحجاز، مصر الجديدة، القاهرة، Cairo Governorate, Egypt", "lat": 30.105842, "lng": 31.332508, "types": ["point_of_interest", "establishment"], "place_id": "ChIJKXLnvOwVWBQRnPfGj7Bx-2Q"}, {"name": "BetterLifeTechnology co., ltd.", "formatted_address": "9 Abd Al Hamid Abou Hief, El-Nozha, El Nozha, Cairo Governorate, Egypt", "lat": 30.1038364, "lng": 31.3313347, "types": ["point_of_interest", "establishment"], "place_id": "ChIJ1_oyT4wVWBQRPFyK24szhoA"}, {"name": "مدرسة صلاح الدين الابتدائية المشتركة", "formatted_address": "36 El Hegaz St, Al Matar, El Nozha, Cairo Governorate, Egypt", "lat": 30.10579929999999, "lng": 31.3323044, "types": ["point_of_interest", "establishment"], "place_id": "ChIJDX6cu-wVWBQRGPlgBWxjCJw"}, {"name": "Hossam Farouk", "formatted_address": "5 Abd Al Hamid Abou Hief, El-Nozha, El Nozha, Cairo Governorate, Egypt", "lat": 30.10360859999999, "lng": 31.3309781, "types": ["university", "point_of_interest", "establishment"], "place_id": "ChIJ_eXPzZIVWBQR80LDlbBCjc8"}, {"name": "شركة انترناشونال بيونيرز", "formatted_address": "44 El Hegaz St, Al Matar, El Nozha, Cairo Governorate, Egypt", "lat": 30.1055542, "lng": 31.3324016, "types": ["point_of_interest", "establishment"], "place_id": "ChIJ2-y3vuwVWBQR-FKzmSj-59g"}, {"name": "Mohamed Taher Supermarket", "formatted_address": "5 ش عبد الحميد ابو هيف، El-Nozha, El Nozha, Cairo Governorate, Egypt", "lat": 30.1047686, "lng": 31.3331495, "types": ["grocery_or_supermarket", "food", "point_of_interest", "store", "establishment"], "place_id": "ChIJVxOh7uwVWBQRDNMLb8TJG2Y"}, {"name": "Authentic For Import & Export", "formatted_address": "33 El Hegaz St, El-Nozha, El Nozha, Cairo Governorate, Egypt", "lat": 30.105682, "lng": 31.331975, "types": ["point_of_interest", "establishment"], "place_id": "ChIJOXVct-wVWBQRUF3akZDcw_g"}, {"name": "Flowers Garden", "formatted_address": "40 El Hegaz St, El-Nozha, El Nozha, Cairo Governorate, Egypt", "lat": 30.105988, "lng": 31.332681, "types": ["point_of_interest", "establishment"], "place_id": "ChIJd0eaouwVWBQREzXoDMofITo"}, {"name": "ميديكس للاجهزة الطبية", "formatted_address": "101 El Hegaz St, Al Matar, El Nozha, Cairo Governorate, Egypt", "lat": 30.10571199999999, "lng": 31.3336931, "types": ["point_of_interest", "establishment"], "place_id": "ChIJETu_hewVWBQR8hxiP9VtGRI"}, {"name": "سوبر ماركت اولاد الجمال", "formatted_address": "33 عبد الحميد أبو هيف، النزهة، قسم النزهة،، Egypt", "lat": 30.10517029999999, "lng": 31.3345276, "types": ["grocery_or_supermarket", "food", "point_of_interest", "store", "establishment"], "place_id": "ChIJuzRAvvoVWBQRUy2HDQR8zhg"}, {"name": "Metaco", "formatted_address": "44 ش الحجاز، مصر الجديدة، القاهرة، Cairo Governorate, Egypt", "lat": 30.106139, "lng": 31.333227, "types": ["point_of_interest", "establishment"], "place_id": "ChIJf0FnnOwVWBQRfj8x2TWRyF4"}, {"name": "Post Office - West Heliopolis", "formatted_address": "El-Nozha, El Nozha, Cairo Governorate, Egypt", "lat": 30.1036179, "lng": 31.33018539999999, "types": ["post_office", "finance", "point_of_interest", "establishment"], "place_id": "ChIJ-1tRxpIVWBQR8pyCMmqAgXM"}, {"name": "SolarServ", "formatted_address": "21 Abd Al Hamid Abou Hief, El-Nozha, El Nozha, Cairo Governorate, Egypt", "lat": 30.1044798, "lng": 31.3327216, "types": ["point_of_interest", "establishment"], "place_id": "ChIJ1y6b8YYVWBQRR4Gf3uiwz9I"}, {"name": "Paradise For Project & Touristic Village Management", "formatted_address": "34 ش الحجاز، El-Nozha, El Nozha, Cairo Governorate, Egypt", "lat": 30.105638, "lng": 31.331991, "types": ["travel_agency", "point_of_interest", "establishment"], "place_id": "ChIJW35ht-wVWBQRzrBZN_EuVGE"}, {"name": "Speed-Electronics Games", "formatted_address": "An Nuzhah, Qesm an Nuzhah, Cairo Governorate, Egypt", "lat": 30.1050084, "lng": 31.332795, "types": ["point_of_interest", "establishment"], "place_id": "ChIJO1Rm6uwVWBQR6UGD2gpTNk0"}, {"name": "صيدلية الالفي", "formatted_address": "28 Abd Al Hamid Abou Hief, El-Nozha, El Nozha, Cairo Governorate, Egypt", "lat": 30.1051235, "lng": 31.3336165, "types": ["health", "point_of_interest", "store", "establishment"], "place_id": "ChIJq8_s49IVWBQRIc9mB-_UX4I"}, {"name": "Al Arabia Motors", "formatted_address": "34 ش على ابراهيم رامز، El-Nozha, El Nozha, Cairo Governorate, Egypt", "lat": 30.1041934, "lng": 31.3336985, "types": ["point_of_interest", "establishment"], "place_id": "ChIJ02oN-uwVWBQRmc6A_PNF3Io"}, {"name": "El mktab", "formatted_address": "43 Abd Al Hamid Abou Hief, El-Nozha, El Nozha, Cairo Governorate, Egypt", "lat": 30.1056407, "lng": 31.3355972, "types": ["point_of_interest", "establishment"], "place_id": "ChIJSXiB5OsVWBQRISI_EMdaCfw"}, {"name": "قبنورى للالومنيوم", "formatted_address": "36 El Hegaz St, Al Matar, El Nozha, Cairo Governorate, Egypt", "lat": 30.10579929999999, "lng": 31.3323044, "types": ["point_of_interest", "establishment"], "place_id": "ChIJDX6cu-wVWBQRLBuYxgMVoMA"}, {"name": "Dr Ramy Raafat Osteopathy Clinic", "formatted_address": "5 Abd Al Hamid Abou Hief, El-Nozha, El Nozha, Cairo Governorate, Egypt", "lat": 30.1036438, "lng": 31.330764, "types": ["health", "point_of_interest", "establishment"], "place_id": "ChIJPxXvjNQVWBQRe5QOb4YykYU"}, {"name": "د هشام تركيبات", "formatted_address": "16 Abd Al Hamid Abou Hief, El-Nozha, El Nozha, Cairo Governorate, Egypt", "lat": 30.1043676, "lng": 31.3319003, "types": ["health", "point_of_interest", "establishment"], "place_id": "ChIJVcyH1-wVWBQR9uwJA648XBY"}, {"name": "Shahd Market", "formatted_address": "33 ش عبد الحميد ابو هيف، El-Nozha, El Nozha, Cairo Governorate, Egypt", "lat": 30.1047686, "lng": 31.3331495, "types": ["grocery_or_supermarket", "food", "point_of_interest", "store", "establishment"], "place_id": "ChIJVxOh7uwVWBQRZXkJup4cRxM"}, {"name": "مسجد النور", "formatted_address": "94 Al Kasr Al Aini, El-Nozha, El Nozha, Cairo Governorate, Egypt", "lat": 30.10484829999999, "lng": 31.3328019, "types": ["mosque", "place_of_worship", "point_of_interest", "establishment"], "place_id": "ChIJRdxC6uwVWBQRxBbSYWOIfdk"}, {"name": "Allin One", "formatted_address": "An Nuzhah, Qesm an Nuzhah, Cairo Governorate, Egypt", "lat": 30.1052677, "lng": 31.3345251, "types": ["point_of_interest", "establishment"], "place_id": "ChIJP12DZOwVWBQRsBRAb1u-Idc"}, {"name": "ALMIC", "formatted_address": "46 Abd Al Hamid Abou Hief, El-Nozha, El Nozha, Cairo Governorate, Egypt", "lat": 30.1059464, "lng": 31.335291, "types": ["point_of_interest", "establishment"], "place_id": "ChIJZ7G3byIVWBQRJircLcCMeNo"}, {"name": "Idea Advertising", "formatted_address": "21 Abdel Hamid Abou Heif St.، El-Nozha, Heliopolis, Cairo Governorate, Egypt", "lat": 30.1047686, "lng": 31.3331495, "types": ["point_of_interest", "establishment"], "place_id": "ChIJVxOh7uwVWBQRAi7Gxefwga0"}, {"name": "Moonstone", "formatted_address": "46 Abd Al Hamid Abou Hief, El-Nozha, El Nozha, Cairo Governorate 11667, Egypt", "lat": 30.105918, "lng": 31.335349, "types": ["dentist", "health", "point_of_interest", "establishment"], "place_id": "ChIJlSFDiusVWBQRgHn0BQJH3HQ"}]