[{"name": "ايكوفارم للصناعات الدوائية", "formatted_address": "12 Abd El-Hady Sadik, Almazah, Heliopolis, Cairo Governorate, Egypt", "lat": 30.0828544, "lng": 31.3463689, "types": ["point_of_interest", "establishment"], "place_id": "ChIJ-3MUkAM-WBQRbvB7KYszIYQ"}, {"name": "Al takwa masjed", "formatted_address": "Abd El-Hady Sadik, Almazah, Heliopolis, Cairo Governorate, Egypt", "lat": 30.0827744, "lng": 31.3462835, "types": ["mosque", "place_of_worship", "point_of_interest", "establishment"], "place_id": "ChIJS2b4jwM-WBQR9aAfKHueH00"}, {"name": "FilKhedma", "formatted_address": "12 ش Abd El-Hady Sadik, Almazah, Heliopolis, Cairo Governorate, Egypt", "lat": 30.0828617, "lng": 31.346491, "types": ["local_government_office", "point_of_interest", "establishment"], "place_id": "ChIJRbyUHtE_WBQRt9IWr4Q7TG0"}, {"name": "Ecco Marcyrl", "formatted_address": "سفاره الامارات, ١٢ شارع عبد الهادي صادق متفرع من شارع الثوره ارض الجولف امام, Abd El-Hady Sadik, Almazah, Heliopolis, Cairo Governorate, Egypt", "lat": 30.0828849, "lng": 31.3463569, "types": ["health", "point_of_interest", "establishment"], "place_id": "ChIJW0rcsKY_WBQRPS8xiRz1mx4"}, {"name": "Ittihadia Palace", "formatted_address": "Al Nadi، El-Montaza, Heliopolis, Cairo Governorate, Egypt", "lat": 30.0888643, "lng": 31.3193929, "types": ["tourist_attraction", "premise", "point_of_interest", "establishment"], "place_id": "ChIJuftqUS8-WBQRtM7fDk0QcPk"}, {"name": "Al-Hussain Mosque", "formatted_address": "Al-Mashhad Al-Hussaini شارع المشهد الحسين، شارع Hasan El-Adawy, امتداد، Egypt", "lat": 30.0476847, "lng": 31.2630585, "types": ["mosque", "tourist_attraction", "place_of_worship", "point_of_interest", "establishment"], "place_id": "ChIJtV4bG2A_WBQRVZjDa4cjz_E"}, {"name": "Baron Empain Palace", "formatted_address": "El-Orouba, El-Montaza, Heliopolis, Cairo Governorate 11757, Egypt", "lat": 30.0866701, "lng": 31.3303332, "types": ["point_of_interest", "establishment"], "place_id": "ChIJ1_GM8iE-WBQRLNVi-RT7vDA"}, {"name": "Ahmed Abdel Moneim", "formatted_address": "36 ش العشماوى، العتبة، Heliopolis, Cairo Governorate, Egypt", "lat": 30.083485, "lng": 31.3455929, "types": ["point_of_interest", "establishment"], "place_id": "ChIJ1bUFs71AWBQRzvIVY9d-fhI"}, {"name": "Fay Medical Clinics", "formatted_address": "Abd El-Hady Sadik, Almazah, Heliopolis, Cairo Governorate, Egypt", "lat": 30.08309839999999, "lng": 31.3465187, "types": ["health", "point_of_interest", "establishment"], "place_id": "ChIJ2x8UTHw_WBQR60VKi-mHna0"}, {"name": "Bangkok Thai Spa & massage", "formatted_address": "12 Abd El-Hady Sadik, Almazah, Heliopolis, Cairo Governorate, Egypt", "lat": 30.0828744, "lng": 31.3464985, "types": ["spa", "point_of_interest", "establishment"], "place_id": "ChIJybUr6s4_WBQRsM9VJ1vo3nc"}, {"name": "Afify", "formatted_address": "9 ش العشماوى، العتبة، Heliopolis, Cairo Governorate, Egypt", "lat": 30.083485, "lng": 31.3455929, "types": ["point_of_interest", "establishment"], "place_id": "ChIJ9RbVnwM-WBQR4Cbc267HdIM"}, {"name": "Mohamed Abdel Zaher Sons", "formatted_address": "29 ش العشماوى، العتبة، Heliopolis, Cairo Governorate, Egypt", "lat": 30.083485, "lng": 31.3455929, "types": ["point_of_interest", "establishment"], "place_id": "ChIJ9RbVnwM-WBQRqYwMCC8Gn6k"}, {"name": "Fathy", "formatted_address": "17 ش العشماوى، العتبة، Heliopolis, Cairo Governorate, Egypt", "lat": 30.083485, "lng": 31.3455929, "types": ["point_of_interest", "establishment"], "place_id": "ChIJ9RbVnwM-WBQReY72nwJYbas"}, {"name": "El Nour", "formatted_address": "8 ش العشماوى، العتبة، Heliopolis, Cairo Governorate, Egypt", "lat": 30.083485, "lng": 31.3455929, "types": ["point_of_interest", "establishment"], "place_id": "ChIJ9RbVnwM-WBQRxNx4czMg06A"}, {"name": "Aly Sultan", "formatted_address": "15 ش العشماوى، العتبة، Heliopolis, Cairo Governorate, Egypt", "lat": 30.083485, "lng": 31.3455929, "types": ["point_of_interest", "establishment"], "place_id": "ChIJ9RbVnwM-WBQRRVvjQ1-OzoI"}, {"name": "Our Lady of Heliopolis Co-Cathedral", "formatted_address": "Nazih Khalifa crossroad، Al Ahram, Heliopolis, Cairo Governorate, Egypt", "lat": 30.0935707, "lng": 31.3251828, "types": ["church", "place_of_worship", "point_of_interest", "establishment"], "place_id": "ChIJJdgh-okVWBQR5TqTmKuQ0IM"}, {"name": "Acacia Travel", "formatted_address": "10 Abdel Hady Sadek St.، Almazah, Heliopolis, Cairo Governorate, Egypt", "lat": 30.083055, "lng": 31.3464299, "types": ["travel_agency", "point_of_interest", "establishment"], "place_id": "ChIJAU1skAM-WBQRceeF6XJVbQI"}, {"name": "Masader For International Trading", "formatted_address": "2 Abou El-Magd Amer Street، Shams Al Din Al Zahabi, Al Golf, Cairo Governorate 11757, Egypt", "lat": 30.0838881, "lng": 31.3308895, "types": ["point_of_interest", "establishment"], "place_id": "ChIJ5_aolwM-WBQRk-ZqQbMtcEI"}, {"name": "El Ashry", "formatted_address": "31 ش العشماوى، العتبة، Heliopolis, Cairo Governorate, Egypt", "lat": 30.083485, "lng": 31.3455929, "types": ["point_of_interest", "establishment"], "place_id": "ChIJ9RbVnwM-WBQR4vflTKDm0Ns"}, {"name": "Said & Nino", "formatted_address": "27 ش العشماوى، العتبة، Heliopolis, Cairo Governorate, Egypt", "lat": 30.083485, "lng": 31.3455929, "types": ["point_of_interest", "establishment"], "place_id": "ChIJ9RbVnwM-WBQRq1WF1xcB-pw"}, {"name": "العالمية للكابلات", "formatted_address": "Abd El-Hady Sadik, Almazah, Heliopolis, Cairo Governorate, Egypt", "lat": 30.0830429, "lng": 31.3465235, "types": ["point_of_interest", "establishment"], "place_id": "ChIJFSgukQM-WBQRIPc9wn5BSLQ"}, {"name": "First Power", "formatted_address": "40 ش العشماوى، العتبة، Heliopolis, Cairo Governorate, Egypt", "lat": 30.083485, "lng": 31.3455929, "types": ["point_of_interest", "establishment"], "place_id": "ChIJ9RbVnwM-WBQRTmtGktbULeA"}, {"name": "Xerox", "formatted_address": "Abd El-Hady Sadik, Almazah, Heliopolis, Cairo Governorate, Egypt", "lat": 30.0818887, "lng": 31.3461738, "types": ["point_of_interest", "store", "establishment"], "place_id": "ChIJA8yadwQ-WBQR14cVhwUNdgQ"}, {"name": "Porto Heliopolis", "formatted_address": "Almazah, Heliopolis, Cairo Governorate, Egypt", "lat": 30.0827031, "lng": 31.348709, "types": ["lodging", "point_of_interest", "establishment"], "place_id": "ChIJR5FCXgE-WBQR471eyuZuvGw"}, {"name": "Hamada", "formatted_address": "14 Ahmed Wasfi, Almazah, Heliopolis, Cairo Governorate, Egypt", "lat": 30.083317, "lng": 31.3441336, "types": ["point_of_interest", "establishment"], "place_id": "ChIJrwJJXQM-WBQR2ItNrQgvQls"}, {"name": "Aya & Radwa & Azza", "formatted_address": "31 ش العشماوى، العتبة، Heliopolis, Cairo Governorate, Egypt", "lat": 30.083485, "lng": 31.3455929, "types": ["point_of_interest", "establishment"], "place_id": "ChIJIygetb1AWBQRfTHQAgdY3Mc"}, {"name": "Falcon East", "formatted_address": "9 ش العشماوى، العتبة، Heliopolis, Cairo Governorate, Egypt", "lat": 30.083485, "lng": 31.3455929, "types": ["point_of_interest", "establishment"], "place_id": "ChIJ9RbVnwM-WBQRN6T3x5uhmf8"}, {"name": "Golden Home", "formatted_address": "137 Omar Ibn El-Khattab, Almazah, Heliopolis, Cairo Governorate, Egypt", "lat": 30.082972, "lng": 31.3474488, "types": ["point_of_interest", "establishment"], "place_id": "ChIJUWR06QM-WBQRvlQ8bSBcKzY"}, {"name": "دار مريم للرعاية", "formatted_address": "20 شارع محمود فؤاد, متفرع من جمال نوح ,ألماظة, Heliopolis, Cairo, Cairo Governorate 11341, Egypt", "lat": 30.082801, "lng": 31.347116, "types": ["lodging", "point_of_interest", "establishment"], "place_id": "ChIJxehFh34_WBQRJUW53CQK3-E"}, {"name": "Electro Power", "formatted_address": "40 ش العشماوى، العتبة، Heliopolis, Cairo Governorate, Egypt", "lat": 30.083485, "lng": 31.3455929, "types": ["point_of_interest", "establishment"], "place_id": "ChIJ9RbVnwM-WBQRWBblgTCWJp4"}, {"name": "Ankram Travel", "formatted_address": "116 ش الثورة، Almazah, Heliopolis, Cairo Governorate, Egypt", "lat": 30.081829, "lng": 31.346139, "types": ["travel_agency", "point_of_interest", "establishment"], "place_id": "ChIJ_we0WBs-WBQRtw0VD9BwQLY"}, {"name": "Funday Travel", "formatted_address": "In Front Of The Emirates Embassy, 120 El-Thawra St, Almazah, Heliopolis, Cairo Governorate, Egypt", "lat": 30.0818672, "lng": 31.3467056, "types": ["travel_agency", "point_of_interest", "establishment"], "place_id": "ChIJdQvyuww_WBQR0gfGb7-psnk"}, {"name": "Senwan Egypt for General Trading", "formatted_address": "8 Abd El-Hady Sadik, Almazah, Heliopolis, Cairo Governorate, Egypt", "lat": 30.0828849, "lng": 31.3463569, "types": ["point_of_interest", "establishment"], "place_id": "ChIJS83Xc2A_WBQRgmvw1PdcqgM"}, {"name": "Magar", "formatted_address": "9 ش العشماوى، العتبة، Heliopolis, Cairo Governorate, Egypt", "lat": 30.083485, "lng": 31.3455929, "types": ["point_of_interest", "establishment"], "place_id": "ChIJ9RbVnwM-WBQRqSfVmsq3rjg"}, {"name": "Dar Al Eshara", "formatted_address": "Masaken Al Mohandesin, Nasr City, Cairo Governorate, Egypt", "lat": 30.0811408, "lng": 31.3488, "types": ["point_of_interest", "establishment"], "place_id": "ChIJLyhTqQY-WBQRc1aMkVsnYv8"}, {"name": "Sanabel Forage", "formatted_address": "133 Omar Ibn El-Khattab, Almazah, Heliopolis, Cairo Governorate, Egypt", "lat": 30.0834957, "lng": 31.3475521, "types": ["point_of_interest", "establishment"], "place_id": "ChIJJZlixAM-WBQR4MQzRFDnw7c"}, {"name": "Abdou Sholah", "formatted_address": "36 ش العشماوى، العتبة، Heliopolis, Cairo Governorate, Egypt", "lat": 30.083485, "lng": 31.3455929, "types": ["point_of_interest", "establishment"], "place_id": "ChIJ9RbVnwM-WBQRI8z0bk33EqY"}, {"name": "Saint Mary Church - Ard El-Golf", "formatted_address": "Shams Al Din Al Zahabi, Al Golf, Nasr City, Cairo Governorate, Egypt", "lat": 30.0825805, "lng": 31.33328239999999, "types": ["church", "place_of_worship", "point_of_interest", "establishment"], "place_id": "ChIJz961RBg-WBQR2HK25harflQ"}, {"name": "Norica Food", "formatted_address": "Abd El-Hady Sadik, Almazah, Heliopolis, Cairo Governorate, Egypt", "lat": 30.0830702, "lng": 31.3464595, "types": ["point_of_interest", "establishment"], "place_id": "ChIJ_z7OkAM-WBQRUQFG38RUMQw"}, {"name": "Speed", "formatted_address": "Almazah, Heliopolis, Cairo Governorate, Egypt", "lat": 30.0847465, "lng": 31.3468341, "types": ["point_of_interest", "establishment"], "place_id": "ChIJmXoCSwI-WBQRZbJ8tlxrTdA"}, {"name": "كنيسة الأخوة", "formatted_address": "شارع المساح من, El-Thawra St, Egypt", "lat": 30.0815405, "lng": 31.3475658, "types": ["lodging", "point_of_interest", "establishment"], "place_id": "ChIJkfQaixo_WBQR88d03OoZyx4"}, {"name": "La Bella", "formatted_address": "Almazah, Heliopolis, Cairo Governorate, Egypt", "lat": 30.0824686, "lng": 31.3466115, "types": ["beauty_salon", "point_of_interest", "establishment"], "place_id": "ChIJdyiwjgM-WBQRJsu-B1Sd6ok"}, {"name": "C'est La Vie", "formatted_address": "Almazah, Heliopolis, Cairo Governorate, Egypt", "lat": 30.0826728, "lng": 31.3462689, "types": ["beauty_salon", "spa", "point_of_interest", "establishment"], "place_id": "ChIJg6cAkAM-WBQRqFc3vm_IIQw"}, {"name": "محمد واحمد بيوتى صالون", "formatted_address": "28 ش جمال نوح, متفرع من، ش Omar Ibn El-Khattab, Heliopolis, Cairo Governorate, Egypt", "lat": 30.082561, "lng": 31.346194, "types": ["beauty_salon", "point_of_interest", "establishment"], "place_id": "ChIJecwuhLo_WBQRiIKPsXvxYVg"}, {"name": "مركز ضي الجمال", "formatted_address": "Almazah, Heliopolis, Cairo Governorate, Egypt", "lat": 30.08186169999999, "lng": 31.3472443, "types": ["beauty_salon", "point_of_interest", "establishment"], "place_id": "ChIJLcBvCgQ-WBQRZ-WmuvdXXr8"}, {"name": "Coiffeur Lollita", "formatted_address": "Mahmoud Fouad, Almazah, Heliopolis, Cairo Governorate, Egypt", "lat": 30.0831545, "lng": 31.3468121, "types": ["beauty_salon", "point_of_interest", "establishment"], "place_id": "ChIJC6IXlQM-WBQRdv7phrdgKA4"}, {"name": "Nshape ارض الجولف", "formatted_address": "Asmaa Fahmi, Al Golf, Nasr City, Cairo Governorate, Egypt", "lat": 30.079046, "lng": 31.3382582, "types": ["point_of_interest", "establishment"], "place_id": "ChIJK24uUhc-WBQROSbDAGuBic8"}, {"name": "Fay Clinic", "formatted_address": "Almazah, Heliopolis, Cairo Governorate, Egypt", "lat": 30.0832814, "lng": 31.3464394, "types": ["health", "point_of_interest", "establishment"], "place_id": "ChIJI8l9Vv8_WBQRBf8pfZO51k0"}, {"name": "E Haj Bolbol Abdel Hady Abdel Aal Sons For Trade", "formatted_address": "El-Adaweya, Bulaq, Cairo Governorate, Egypt", "lat": 30.0575302, "lng": 31.2351906, "types": ["point_of_interest", "establishment"], "place_id": "ChIJFUUgxutAWBQRU7xrPSZhdPY"}, {"name": "Plan Masr", "formatted_address": "14Abd El-Hady Sadik, Almazah, Heliopolis, Cairo Governorate 11865, Egypt", "lat": 30.0827119, "lng": 31.34647229999999, "types": ["general_contractor", "point_of_interest", "establishment"], "place_id": "ChIJFejUZH8_WBQRMmvH3irOJwQ"}, {"name": "Hotel Concorde El Salam Cairo By Royal Tulip", "formatted_address": "69 Abd El-Hameed Badawi, St، El Nozha, Cairo Governorate, Egypt", "lat": 30.1237847, "lng": 31.3480627, "types": ["lodging", "point_of_interest", "establishment"], "place_id": "ChIJ3b5I-fUVWBQRVG_oX-wQmZE"}, {"name": "Emad Yohanna", "formatted_address": "137 Omar Ibn El-Khattab, Almazah, Heliopolis, Cairo Governorate, Egypt", "lat": 30.0829719, "lng": 31.3474488, "types": ["point_of_interest", "establishment"], "place_id": "ChIJByEpvgU_WBQRa41ufdIpulE"}, {"name": "Saad of Egypt", "formatted_address": "114 El-Thawra St, Almazah, Heliopolis, Cairo Governorate, Egypt", "lat": 30.0819991, "lng": 31.3459634, "types": ["jewelry_store", "finance", "point_of_interest", "store", "establishment"], "place_id": "ChIJZzGT9VM_WBQRkKnr0oWo47I"}, {"name": "الوفائي أنظمة الإنارة Branch 2", "formatted_address": "114 الثورة، الماظة، قسم مصر الجديدة، محافظة القاهرة‬،، Egypt", "lat": 30.081806, "lng": 31.346012, "types": ["point_of_interest", "store", "establishment"], "place_id": "ChIJ26n_CuI_WBQRoN1MUXRmT4A"}, {"name": "أضواء البركة", "formatted_address": "Almazah, Heliopolis, Cairo Governorate, Egypt", "lat": 30.0828026, "lng": 31.34629, "types": ["point_of_interest", "establishment"], "place_id": "ChIJ2ZQXWqE_WBQR-EHzqIJZ1kg"}, {"name": "Candella clinic", "formatted_address": "Omar Ibn El-Khattab, Almazah, Heliopolis, Cairo Governorate, Egypt", "lat": 30.0820227, "lng": 31.3475799, "types": ["health", "point_of_interest", "establishment"], "place_id": "ChIJWTYb9wM-WBQRoPdPW6O9yMM"}, {"name": "Company Stella Heliopolis", "formatted_address": "El-Thawra St, Almazah, Heliopolis, Cairo Governorate, Egypt", "lat": 30.0815405, "lng": 31.3475658, "types": ["point_of_interest", "establishment"], "place_id": "ChIJE-v7fAQ-WBQRr1HSghnEVmc"}, {"name": "MOHAMED ELSHEIKH HAIR1EXTENSIONS", "formatted_address": "134 عمر بن الخطاب، الماظة، قسم مصر الجديدة، محافظة القاهرة‬، القاهره، Cairo Governorate, Egypt", "lat": 30.0825287, "lng": 31.347882, "types": ["shopping_mall", "point_of_interest", "establishment"], "place_id": "ChIJF5Xuu88_WBQR0A6C9jPN_BM"}, {"name": "Le Chateau لوشاتو", "formatted_address": "122عمر بن الخطاب، الماظة، مصر الجديدة،، محافظة، Cairo Governorate, Egypt", "lat": 30.0835601, "lng": 31.3477119, "types": ["home_goods_store", "point_of_interest", "store", "establishment"], "place_id": "ChIJxfIB2wM-WBQRuqVgsGnTP18"}, {"name": "Hamdy Maroof Afefey", "formatted_address": "26 Gamal Nouh, Almazah, Heliopolis, Cairo Governorate, Egypt", "lat": 30.0826368, "lng": 31.3457866, "types": ["health", "point_of_interest", "establishment"], "place_id": "ChIJtVCYgQM-WBQRdi7dY-AsQDk"}]