[{"name": "Abou Bakr El Sedeek Bridge", "formatted_address": "Abou Bakr El-Sedeek, Almazah, Heliopolis, Cairo Governorate, Egypt", "lat": 30.0935104, "lng": 31.3453359, "types": ["point_of_interest", "establishment"], "place_id": "ChIJG5oVwZIVWBQRVvsdaChLn1U"}, {"name": "The Child Museum", "formatted_address": "34 Abou Bakr El-Sedeek, El-Bostan, Heliopolis, Cairo Governorate, Egypt", "lat": 30.1022381, "lng": 31.33694599999999, "types": ["tourist_attraction", "museum", "point_of_interest", "establishment"], "place_id": "ChIJz-2ngvIVWBQR0usMZT-HkR8"}, {"name": "Bedayat بدايات", "formatted_address": "51-53 Abou Bakr El-Sedeek, El-Bostan, Heliopolis, Cairo Governorate, Egypt", "lat": 30.10016469999999, "lng": 31.3336797, "types": ["point_of_interest", "establishment"], "place_id": "ChIJNQuUjvIVWBQRh7cvzoMWCIY"}, {"name": "Diwan Bookstore", "formatted_address": "105 Abou Bakr El-Sedeek, Almazah, Heliopolis, Cairo Governorate, Egypt", "lat": 30.0955932, "lng": 31.3412005, "types": ["book_store", "point_of_interest", "store", "establishment"], "place_id": "ChIJkTmV7PAVWBQRthTVz3MR8nM"}, {"name": "شركة بريمير للتطوير العقاري شارع ابو بكر الصديق", "formatted_address": "61 أبو بكر الصديق، البستان، قسم مصر الجديدة،، Cairo Governorate, Egypt", "lat": 30.09940929999999, "lng": 31.3349074, "types": ["point_of_interest", "establishment"], "place_id": "ChIJKXU756EVWBQR5kj8vfpGh-0"}, {"name": "Misr Academy", "formatted_address": "58 ش ابو بكر الصديق، El-Nozha, El Nozha, Cairo Governorate, Egypt", "lat": 30.098544, "lng": 31.337693, "types": ["point_of_interest", "establishment"], "place_id": "ChIJrUiCjfEVWBQRS3KM5GKOJUc"}, {"name": "المستقبل للتكنولوجيا المتقدمه", "formatted_address": "18 Abou Bakr El-Sedeek, Al Matar, El Nozha, Cairo Governorate, Egypt", "lat": 30.0984543, "lng": 31.3364489, "types": ["point_of_interest", "establishment"], "place_id": "ChIJAQB0JfIVWBQRD9nrxcodz34"}, {"name": "El Taher Cosmo Plastic Center", "formatted_address": "54 ش ابو بكر الصديق، El-Bostan, Heliopolis, Cairo Governorate, Egypt", "lat": 30.097443, "lng": 31.336882, "types": ["point_of_interest", "establishment"], "place_id": "ChIJlcil1fMVWBQRStk9DXDvGnc"}, {"name": "بيت الحياة (فرع مصر الجديدة) Beyt El-7ayah", "formatted_address": "57أ ش عثمان بن عفان سفير أمام التوحيد والنور الدور 3 Cairo, 11351, Egypt", "lat": 30.0970939, "lng": 31.3370459, "types": ["point_of_interest", "establishment"], "place_id": "ChIJy5K3XKA5WBQRQ0iZ5LxxIW8"}, {"name": "بدايات", "formatted_address": "Abou Bakr El-Sedeek, El-Bostan, El Nozha, Cairo Governorate, Egypt", "lat": 30.1001394, "lng": 31.3336404, "types": ["cafe", "food", "point_of_interest", "store", "establishment"], "place_id": "ChIJI0uEjvIVWBQRbI9_RoNZGjU"}, {"name": "Our Lady of Heliopolis Co-Cathedral", "formatted_address": "Nazih Khalifa crossroad، Al Ahram, Heliopolis, Cairo Governorate, Egypt", "lat": 30.0935707, "lng": 31.3251828, "types": ["church", "place_of_worship", "point_of_interest", "establishment"], "place_id": "ChIJJdgh-okVWBQR5TqTmKuQ0IM"}, {"name": "Safeer Bridge", "formatted_address": "16 شارع قنال السويس - ميدان سفير - اول الشارع التوحيد و النور - الدور 1 شقة 3 موازى لشارع ابوبكر الصديق - مصر الجديدة، Almazah, Cairo Governorate, Egypt", "lat": 30.097707, "lng": 31.3383463, "types": ["point_of_interest", "establishment"], "place_id": "ChIJu_GCfJ4VWBQRX0fTUy3djqA"}, {"name": "Child Center of Civilization and Creativity", "formatted_address": "أبو بكر الصديق street قسم، Egypt", "lat": 30.1015244, "lng": 31.3349439, "types": ["point_of_interest", "establishment"], "place_id": "ChIJ1cMP2O0VWBQRtz0VMcBk7xQ"}, {"name": "شارع هارون مصر الجديدة - Haroun Street Heliopolis", "formatted_address": "43-45 Abou Bakr El-Sedeek, El-Bostan, Heliopolis, Cairo Governorate, Egypt", "lat": 30.1012259, "lng": 31.3322984, "types": ["shopping_mall", "point_of_interest", "establishment"], "place_id": "ChIJf4zEpvIVWBQRSSrLyqFS-NI"}, {"name": "مؤسسة مصر الخير أبو بكر الصديق", "formatted_address": "ميدان سفير بجوار لابور، 36 Abou Bakr El-Sedeek, El-Nozha, El Nozha, Cairo Governorate, Egypt", "lat": 30.1002827, "lng": 31.3350637, "types": ["point_of_interest", "establishment"], "place_id": "ChIJi6cRj_IVWBQRDaHZNHuhxg8"}, {"name": "كوبري سفير", "formatted_address": "أبو بكر الصديق، الماظة، قسم مصر الجديدة،، Cairo Governorate, Egypt", "lat": 30.0976487, "lng": 31.3387943, "types": ["lodging", "point_of_interest", "establishment"], "place_id": "ChIJM_KwUtIVWBQRVawDtM6pvGo"}, {"name": "Rokn El Hafalat", "formatted_address": "10 Abou Bakr El-Sedeek, El-Bostan, Heliopolis, Cairo Governorate, Egypt", "lat": 30.100413, "lng": 31.3335425, "types": ["point_of_interest", "establishment"], "place_id": "ChIJdyOSj_IVWBQRLZVYm-QaLF0"}, {"name": "Safir Radiology Center", "formatted_address": "60 ش ابو بكر الصديق، El-Nozha, El Nozha, Cairo Governorate, Egypt", "lat": 30.0985392, "lng": 31.3378599, "types": ["doctor", "health", "point_of_interest", "establishment"], "place_id": "ChIJG2R1KFEUWBQRoQjDL6-XdsI"}, {"name": "Amin Group For Fashion", "formatted_address": "79 Abou Bakr El-Sedeek, El-Bostan, Heliopolis, Cairo Governorate, Egypt", "lat": 30.098054, "lng": 31.337203, "types": ["point_of_interest", "establishment"], "place_id": "ChIJKfNThvEVWBQRkQWUkMG-mMM"}, {"name": "Redcon Construction", "formatted_address": "35 Abou Bakr El-Sedeek, El-Bostan, Heliopolis, Cairo Governorate, Egypt", "lat": 30.1017348, "lng": 31.3310042, "types": ["general_contractor", "point_of_interest", "establishment"], "place_id": "ChIJn8sJXJIVWBQRcDbhALjTlbU"}, {"name": "Elrayes", "formatted_address": "٥ Abou Bakr El-Sedeek, El-Bostan, Heliopolis, Cairo Governorate 11771, Egypt", "lat": 30.1049963, "lng": 31.3254672, "types": ["car_dealer", "point_of_interest", "store", "establishment"], "place_id": "ChIJtz78J5IVWBQRlmgKG4-aU5g"}, {"name": "Dokan daPicture", "formatted_address": "76 Abou Bakr El-Sedeek, Almazah, El Nozha, Cairo Governorate, Egypt", "lat": 30.0970531, "lng": 31.3402806, "types": ["home_goods_store", "point_of_interest", "store", "establishment"], "place_id": "ChIJ5f9jcPIVWBQRbZCXbz1O4HU"}, {"name": "Abu Bakr Elseddiq", "formatted_address": "2 Abd El-Rahman Roushdy, Al Matar, El Nozha, Cairo Governorate, Egypt", "lat": 30.1064335, "lng": 31.3428063, "types": ["mosque", "place_of_worship", "point_of_interest", "establishment"], "place_id": "ChIJ_WSfK-YVWBQR7l-gqWjJxXo"}, {"name": "مفروشات خطاب", "formatted_address": "مفارق ال15، Abou Bakr El-Sedeek, Egypt", "lat": 30.0984658, "lng": 31.3367768, "types": ["shopping_mall", "point_of_interest", "establishment"], "place_id": "ChIJPeFmjDsVWBQR_SZXZHWuxKI"}, {"name": "PRO VAD", "formatted_address": "58 Abou Bakr El-Sedeek, El-Bostan, Heliopolis, Cairo Governorate, Egypt", "lat": 30.0988146, "lng": 31.33759269999999, "types": ["point_of_interest", "establishment"], "place_id": "ChIJoZv79hkVWBQRgVNMh2CwxjU"}, {"name": "Lebanon For Transportation", "formatted_address": "first floor, 60 Abou Bakr El-Sedeek, El-Bostan, Heliopolis, Cairo Governorate, Egypt", "lat": 30.0986097, "lng": 31.3378063, "types": ["point_of_interest", "establishment"], "place_id": "ChIJq8ijJPIVWBQRT0fPuBu0Yac"}, {"name": "Bayet El Aze", "formatted_address": "57 Othman Ibn Affan, Almazah, Heliopolis, Cairo Governorate, Egypt", "lat": 30.0969761, "lng": 31.337052, "types": ["point_of_interest", "establishment"], "place_id": "ChIJ_8sv1vMVWBQRpr8UurGVyCY"}, {"name": "شبرا الخيمه", "formatted_address": "Abou Bakr El-Sedeek, El-Bostan, Heliopolis, Cairo Governorate, Egypt", "lat": 30.0984658, "lng": 31.3367768, "types": ["pharmacy", "health", "point_of_interest", "store", "establishment"], "place_id": "ChIJGzT2ihEVWBQR8LjsVHpwGoc"}, {"name": "Hadhramawt Restaurant", "formatted_address": "Bakr El Seddik St, 11599, Egypt", "lat": 30.0980309, "lng": 31.3372265, "types": ["restaurant", "food", "point_of_interest", "establishment"], "place_id": "ChIJh9U5kOwVWBQR_MUc74eGxII"}, {"name": "Misr Pharmacies - Safir Square Branch", "formatted_address": "سفير, 58 Abou Bakr El-Sedeek, El-Nozha, Heliopolis, Cairo Governorate, Egypt", "lat": 30.0987211, "lng": 31.3375185, "types": ["pharmacy", "health", "point_of_interest", "store", "establishment"], "place_id": "ChIJvYuzjPEVWBQRLG5WRFD5dVk"}, {"name": "El Domiaty Fish Restaurant", "formatted_address": "شارع أبو بكر الصديق،النزهة،قسم مصر، النزهة، Cairo Governorate, Egypt", "lat": 30.1060609, "lng": 31.3252247, "types": ["restaurant", "food", "point_of_interest", "establishment"], "place_id": "ChIJVVLZeJEVWBQR7WQLgdK1RYQ"}, {"name": "19011 Pharmacies", "formatted_address": "سفير، 66 Abou Bakr El-Sedeek, El-Nozha, Heliopolis, Cairo Governorate 11361, Egypt", "lat": 30.0976268, "lng": 31.3395846, "types": ["pharmacy", "health", "point_of_interest", "clothing_store", "store", "establishment"], "place_id": "ChIJjXz_MswVWBQRxmx4hHQBRnA"}, {"name": "Safeer Eye & Lasik Center", "formatted_address": "SafirSquare, 62 Abou Bakr El-Sedeek, El-Bostan, Heliopolis, Egypt", "lat": 30.097995, "lng": 31.3383273, "types": ["health", "point_of_interest", "establishment"], "place_id": "ChIJm6dmotIVWBQRzMYONBrqeFc"}, {"name": "Al Tawheed & Al Nour", "formatted_address": "54 Othman Ibn Affan, El-Bostan, مصر الجديدة،, Cairo Governorate, Egypt", "lat": 30.0974634, "lng": 31.3367656, "types": ["bicycle_store", "point_of_interest", "clothing_store", "store", "establishment"], "place_id": "ChIJARZq1PMVWBQRYJ5p02qE4uE"}, {"name": "سوبرماركت أولاد خلف", "formatted_address": "شارع أبو بكر الصديق ميدان، Haroun El-Rashid, El Nozha, Cairo Governorate, Egypt", "lat": 30.0991987, "lng": 31.3373821, "types": ["supermarket", "grocery_or_supermarket", "food", "point_of_interest", "store", "establishment"], "place_id": "ChIJAxNK8fEVWBQRSRQyyw2CsZk"}, {"name": "صيدلية محمد عثمان", "formatted_address": "75 ابو بكر الصديق، بجوار سمايلز، ميدان سفير، مصر الجديدة،، El-Bostan, Cairo Governorate, Egypt", "lat": 30.0982899, "lng": 31.33688059999999, "types": ["pharmacy", "health", "point_of_interest", "store", "establishment"], "place_id": "ChIJJV4aJvIVWBQRq846-CT-Tjs"}, {"name": "Mostafa Shakl", "formatted_address": "54 Othman Ibn Affan, El-Bostan, Heliopolis, Cairo Governorate, Egypt", "lat": 30.0975339, "lng": 31.336784, "types": ["point_of_interest", "establishment"], "place_id": "ChIJsRZU1PMVWBQRDpt0HmFxj7Y"}, {"name": "Samsung Office", "formatted_address": "58 شارع ابو بكر الصديق،ميدان سفير، أعلى فودافون، الدور الثانى. 58 Abou Bakr El-Sedeek، El-Nozha, El Nozha, Cairo Governorate, Egypt", "lat": 30.098777, "lng": 31.3374388, "types": ["point_of_interest", "establishment"], "place_id": "ChIJYcG0jPEVWBQRQ3aYxVdnqjQ"}, {"name": "The United Bank", "formatted_address": "Abou Bakr El-Sedeek, An Nuzhah, Qesm an Nuzhah, Cairo Governorate, Egypt", "lat": 30.1000823, "lng": 31.3352542, "types": ["bank", "atm", "finance", "point_of_interest", "establishment"], "place_id": "ChIJi4_ycfIVWBQR-ItpbFV5Zis"}, {"name": "Eat & Run", "formatted_address": "67 أبو بكر الصديق، البستان، قسم مصر الجديدة،، Cairo Governorate, Egypt", "lat": 30.0989534, "lng": 31.3357116, "types": ["restaurant", "food", "point_of_interest", "establishment"], "place_id": "ChIJ_2lr-sQVWBQR9I9INuO5OKo"}, {"name": "Dolaby - Showroom", "formatted_address": "16 شارع قنال السويس - ميدان سفير - اول الشارع التوحيد و النور - الدور 1 شقة 3 موازى لشارع ابوبكر الصديق - مصر الجديدة، Heliopolis, Egypt", "lat": 30.0976527, "lng": 31.3384098, "types": ["clothing_store", "point_of_interest", "store", "establishment"], "place_id": "ChIJ5xd_u1wVWBQR3uCf9gSMrCU"}, {"name": "جمعية الأورمان", "formatted_address": "شارع أبو بكر الصديق ميدان، Haroun El-Rashid, El Nozha, Cairo Governorate, Egypt", "lat": 30.0985722, "lng": 31.3362308, "types": ["point_of_interest", "establishment"], "place_id": "ChIJd7XEOvIVWBQRbJUT-OS6eb0"}, {"name": "محطة الطيران", "formatted_address": "79 Abou Bakr El-Sedeek, El-Bostan, Heliopolis, Cairo Governorate, Egypt", "lat": 30.0978366, "lng": 31.3373117, "types": ["gas_station", "point_of_interest", "establishment"], "place_id": "ChIJTaE1hPEVWBQR37jHrDCdGK8"}, {"name": "Oldish", "formatted_address": "El-Bostan, Heliopolis, Cairo Governorate, Egypt", "lat": 30.0994561, "lng": 31.3349454, "types": ["restaurant", "food", "point_of_interest", "establishment"], "place_id": "ChIJ55LoajUVWBQRs2DSSDL6_2U"}, {"name": "El Shaimaa For Communication", "formatted_address": "54 Othman Ibn Affan, El-Bostan, Heliopolis, Cairo Governorate, Egypt", "lat": 30.097455, "lng": 31.336909, "types": ["point_of_interest", "establishment"], "place_id": "ChIJd12g1fMVWBQRhRydJBvXweU"}, {"name": "بنك القاهرة", "formatted_address": "شارع أبو بكر الصديق ميدان، Haroun El-Rashid, El Nozha, Cairo Governorate, Egypt", "lat": 30.0987689, "lng": 31.3375581, "types": ["atm", "finance", "point_of_interest", "establishment"], "place_id": "ChIJYybU8vEVWBQR_3jULMdRK90"}, {"name": "Sara Clean", "formatted_address": "1 ش محمود حافظ، El-Nozha, El Nozha, Cairo Governorate, Egypt", "lat": 30.0983734, "lng": 31.33837089999999, "types": ["point_of_interest", "establishment"], "place_id": "ChIJFYingeM_WBQRzQ8uBm7XmcU"}, {"name": "For Ever", "formatted_address": "53 Othman Ibn Affan, Almazah, Heliopolis, Cairo Governorate, Egypt", "lat": 30.097455, "lng": 31.336909, "types": ["point_of_interest", "establishment"], "place_id": "ChIJd12g1fMVWBQRrsAgTZABRhE"}, {"name": "BeNeshty", "formatted_address": "64 Abou Bakr El-Sedeek, El-Nozha, El Nozha, Cairo Governorate 11843, Egypt", "lat": 30.0980854, "lng": 31.3386611, "types": ["clothing_store", "point_of_interest", "store", "establishment"], "place_id": "ChIJn8sJXJIVWBQRsy9pTXWwzlo"}, {"name": "Change International Business Training", "formatted_address": "58 شارع ابو بكر الصديق،ميدان سفير، أعلى فودافون، الدور الثانى.، 58 Abou Bakr El-Sedeek, El Nozha, Cairo Governorate, Egypt", "lat": 30.0987423, "lng": 31.3374508, "types": ["point_of_interest", "establishment"], "place_id": "ChIJ2RO5jPEVWBQRbHuv9r889XE"}, {"name": "Look and Like", "formatted_address": "79 Abou Bakr El-Sedeek, El-Bostan, Heliopolis, Cairo Governorate, Egypt", "lat": 30.0979822, "lng": 31.3371565, "types": ["clothing_store", "point_of_interest", "store", "establishment"], "place_id": "ChIJU3HJh_EVWBQRnTy6nSrRT5E"}, {"name": "Egypt Ladders", "formatted_address": "52 Abou Bakr El-Sedeek, El-Nozha, Heliopolis, Cairo Governorate, Egypt", "lat": 30.0989444, "lng": 31.3371459, "types": ["point_of_interest", "establishment"], "place_id": "ChIJG2R1KFEUWBQRUMsvWc5BiSc"}, {"name": "Egy Center Education Center", "formatted_address": "شارع أبو بكر الصديق ميدان، Haroun El-Rashid, El Nozha, Cairo Governorate, Egypt", "lat": 30.0980312, "lng": 31.33715879999999, "types": ["point_of_interest", "establishment"], "place_id": "ChIJH90Gh_EVWBQRdCfw5CxkOY0"}, {"name": "McDonald's Safir Heliopolis", "formatted_address": "60 Abou Bakr El Sedeek St., Heliopolis, 60شارع ابو بكر الصديق, Cairo Governorate, Egypt", "lat": 30.098581, "lng": 31.337788, "types": ["restaurant", "food", "point_of_interest", "establishment"], "place_id": "ChIJu1t30BwVWBQR49-ck9Wy8k4"}, {"name": "Pastaweesy", "formatted_address": "ميدان سفير، ٦٧، Abou Bakr El-Sedeek, Cairo Governorate, Egypt", "lat": 30.0989229, "lng": 31.3357336, "types": ["food", "point_of_interest", "store", "establishment"], "place_id": "ChIJXwosP_IVWBQR_vBqaCVJONA"}, {"name": "البنك الأهلى المصرى", "formatted_address": "شارع أبو بكر الصديق ميدان، Haroun El-Rashid, El Nozha, Cairo Governorate, Egypt", "lat": 30.0987506, "lng": 31.3375293, "types": ["atm", "finance", "point_of_interest", "establishment"], "place_id": "ChIJQ-_UjPEVWBQRB0XVhFwjP2k"}, {"name": "Cecil Alex", "formatted_address": "شارع أبوبكر الصديق،مصر الجديدة،قسم النزهة،، Cairo Governorate, Egypt", "lat": 30.0981388, "lng": 31.33844019999999, "types": ["shoe_store", "point_of_interest", "store", "establishment"], "place_id": "ChIJDTD2vfEVWBQR3kU2XPG2ER0"}, {"name": "Acacia For Trading & Marketing", "formatted_address": "69 Abou Bakr El-Sedeek, El-Bostan, Heliopolis, Cairo Governorate, Egypt", "lat": 30.0988272, "lng": 31.3360514, "types": ["point_of_interest", "establishment"], "place_id": "ChIJtWp2PPIVWBQRZlYCn41AaOg"}, {"name": "Dr Bishoy Nady دكتور بيشوي نادى", "formatted_address": "60 شارع أبو بكر الصديق، ميدان سفير، El Nozha, Cairo Governorate, Egypt", "lat": 30.0986097, "lng": 31.3378063, "types": ["doctor", "health", "point_of_interest", "establishment"], "place_id": "ChIJ8bmakvEVWBQRkpHitsOrzH0"}, {"name": "أ.د/ حازم عفت هارون", "formatted_address": "شارع أبو بكر الصديق ميدان، Haroun El-Rashid, El Nozha, Cairo Governorate, Egypt", "lat": 30.0983065, "lng": 31.3368423, "types": ["doctor", "health", "point_of_interest", "establishment"], "place_id": "ChIJmWXUJ_IVWBQR_7LEMSlL-bQ"}]