[{"name": "Gamal Abdel Nasser Museum", "formatted_address": "4 El-Khalifa El-Maamoun, Mansheya El-Bakry, Heliopolis, Cairo Governorate, Egypt", "lat": 30.08654319999999, "lng": 31.3106985, "types": ["tourist_attraction", "museum", "point_of_interest", "establishment"], "place_id": "ChIJRRoLYy0-WBQR5Q1w1SdH0dQ"}, {"name": "Ittihadia Palace", "formatted_address": "Al Nadi، El-Montaza, Heliopolis, Cairo Governorate, Egypt", "lat": 30.0888643, "lng": 31.3193929, "types": ["tourist_attraction", "premise", "point_of_interest", "establishment"], "place_id": "ChIJuftqUS8-WBQRtM7fDk0QcPk"}, {"name": "Kodak Heliopolis", "formatted_address": "57 Al Maqrizi, Mansheya El-Bakry, Heliopolis, Cairo Governorate, Egypt", "lat": 30.0909717, "lng": 31.3078025, "types": ["point_of_interest", "establishment"], "place_id": "ChIJPYPDN9M_WBQRjyTNXa7JIag"}, {"name": "Nermin Salama For Law & Translation", "formatted_address": "53 المقريزي، Mansheya El-Bakry, Heliopolis, Cairo Governorate, Egypt", "lat": 30.090696, "lng": 31.307929, "types": ["point_of_interest", "establishment"], "place_id": "ChIJb_b4VNI_WBQRCuZ2rXPLkhk"}, {"name": "Love Me", "formatted_address": "53 el Maqrizy st.، Mansheya El-Bakry, Heliopolis, Cairo Governorate, Egypt", "lat": 30.090696, "lng": 31.307929, "types": ["point_of_interest", "establishment"], "place_id": "ChIJb_b4VNI_WBQRlN4haQVoT9w"}, {"name": "Baron Empain Palace", "formatted_address": "El-Orouba, El-Montaza, Heliopolis, Cairo Governorate 11757, Egypt", "lat": 30.0866701, "lng": 31.3303332, "types": ["point_of_interest", "establishment"], "place_id": "ChIJ1_GM8iE-WBQRLNVi-RT7vDA"}, {"name": "Compu System Al Samir", "formatted_address": "15 Abou El Serour El Bakry St.، Mansheya El-Bakry, Heliopolis, Cairo Governorate, Egypt", "lat": 30.089205, "lng": 31.30780499999999, "types": ["point_of_interest", "establishment"], "place_id": "ChIJp39c0NI_WBQRL_XHM8q4uNo"}, {"name": "KFC", "formatted_address": "شارع ابو السرور البكرى منشية البكرى قسم مصر الجديدة، Mansheya El-Bakry, القاهره، Cairo Governorate, Egypt", "lat": 30.0873385, "lng": 31.3082108, "types": ["restaurant", "food", "point_of_interest", "establishment"], "place_id": "ChIJDb4BrNI_WBQRkYCd2Fyjgy8"}, {"name": "Link", "formatted_address": "6 El Asiouty St.، Mansheya El-Bakry, Heliopolis, Cairo Governorate, Egypt", "lat": 30.089514, "lng": 31.309055, "types": ["point_of_interest", "establishment"], "place_id": "ChIJjf2Z1yw-WBQRgz2CwPrnywc"}, {"name": "مكتبة عباد الرحمن", "formatted_address": "١٩ شارع، Abou Al Srour Al Bakri, Mansheya El-Bakry, Heliopolis, Cairo Governorate, Egypt", "lat": 30.0899023, "lng": 31.3079594, "types": ["point_of_interest", "store", "establishment"], "place_id": "ChIJgX0RKdM_WBQRvSOUkLdQ56Q"}, {"name": "El Dar El Ory", "formatted_address": "29 المقريزي، Mansheya El-Bakry, Heliopolis, Cairo Governorate, Egypt", "lat": 30.0887326, "lng": 31.3064724, "types": ["point_of_interest", "establishment"], "place_id": "ChIJ2Y4lk9I_WBQRqtosL7IgENg"}, {"name": "مؤسسة العروبة للمقاولات والتوريدات", "formatted_address": "٢١ شارع أبو السرور البكرى،، Mansheya El-Bakry, Heliopolis, Cairo Governorate, Egypt", "lat": 30.0901764, "lng": 31.3078976, "types": ["general_contractor", "point_of_interest", "establishment"], "place_id": "ChIJf9D4LtM_WBQRfUm1pTZSYCA"}, {"name": "Shewawa", "formatted_address": "امام مطعم كنتاكى، ٤ شارع ابو السرور البكري، منشية البكري، مصر الجديدة، Mansheya El-Bakry, Heliopolis, Cairo Governorate, Egypt", "lat": 30.0877773, "lng": 31.30787219999999, "types": ["cafe", "food", "point_of_interest", "establishment"], "place_id": "ChIJZ6sssNI_WBQRQlcvu9akeTU"}, {"name": "مؤسسة الاهرام للتكييف والمقاولات", "formatted_address": "49 Abou Al Srour Al Bakri, Mansheya El-Bakry, Heliopolis, Cairo Governorate, Egypt", "lat": 30.0905575, "lng": 31.3076671, "types": ["point_of_interest", "establishment"], "place_id": "ChIJvYptX2Q_WBQRleTbdI_-VMA"}, {"name": "Masjed Manshyet Elbakry", "formatted_address": "Mansheya El-Bakry, Mansheyat as Sadr, Heliopolis, Cairo Governorate, Egypt", "lat": 30.0892365, "lng": 31.3059051, "types": ["mosque", "place_of_worship", "point_of_interest", "establishment"], "place_id": "ChIJYU8L8dI_WBQR1dLrLx1DSXE"}, {"name": "Brazilian Coffee Palace", "formatted_address": "49 Abou Al Srour Al Bakri, Mansheya El-Bakry, Heliopolis, Cairo Governorate, Egypt", "lat": 30.0904481, "lng": 31.3075766, "types": ["food", "point_of_interest", "store", "establishment"], "place_id": "ChIJx0U4MNM_WBQRoDxp93eQrU8"}, {"name": "Heath Xpert House", "formatted_address": "19 شارع أبوالسرور البكري من شارع، El-Khalifa El-Maamoun, Heliopolis, Cairo Governorate, Egypt", "lat": 30.090148, "lng": 31.307749, "types": ["point_of_interest", "establishment"], "place_id": "ChIJadHJuUI_WBQR3sbPkwZVgOM"}, {"name": "persona studio", "formatted_address": "19 A Abou Al Srour Al Bakri, Mansheya El-Bakry, Heliopolis, Cairo Governorate 11774, Egypt", "lat": 30.0901495, "lng": 31.3077776, "types": ["point_of_interest", "establishment"], "place_id": "ChIJn_RCG4U_WBQRMalr91HPtOI"}, {"name": "همسة تك", "formatted_address": "1 ش Abou Al Srour Al Bakri, Mansheya El-Bakry, Heliopolis, Cairo Governorate, Egypt", "lat": 30.0904581, "lng": 31.3077276, "types": ["point_of_interest", "establishment"], "place_id": "ChIJk39F2fE_WBQRNRLhaaeO6_Q"}, {"name": "مكتب حاتم ثروت البسومى - محام بالنقض", "formatted_address": "5 أبو السرور البكري، منشية البكري، قسم مصر الجديدة،، Cairo Governorate, Egypt", "lat": 30.090148, "lng": 31.307749, "types": ["point_of_interest", "establishment"], "place_id": "ChIJwZnaMFs_WBQRb6JfAFe1iRQ"}, {"name": "سوبر ماركت حنين", "formatted_address": "شارع ابو السرور البكرى، منشية البكرى،، Heliopolis, Cairo Governorate, Egypt", "lat": 30.09000899999999, "lng": 31.3078952, "types": ["supermarket", "grocery_or_supermarket", "food", "point_of_interest", "store", "establishment"], "place_id": "ChIJDXYsKdM_WBQRxJcaF6BWpd4"}, {"name": "Bendary Stores", "formatted_address": "10 Abou Al Srour Al Bakri, Mansheya El-Bakry, Heliopolis, Cairo Governorate, Egypt", "lat": 30.0883693, "lng": 31.3078788, "types": ["point_of_interest", "establishment"], "place_id": "ChIJ1RUtttI_WBQRul-ig8fwHAw"}, {"name": "بنداري ستورز", "formatted_address": "4 Abou Al Srour Al Bakri, Mansheya El-Bakry, Heliopolis, Cairo Governorate 11774, Egypt", "lat": 30.0882441, "lng": 31.3075547, "types": ["electronics_store", "point_of_interest", "store", "establishment"], "place_id": "ChIJTQ3uwYg_WBQRvc_qDVuX-OY"}, {"name": "دكتور عادل نبيه محمد", "formatted_address": "19a أبو السرور البكري، منشية البكري، قسم مصر الجديدة، محافظة القاهرة‬ 11774،، Egypt", "lat": 30.0902719, "lng": 31.3082012, "types": ["doctor", "health", "point_of_interest", "establishment"], "place_id": "ChIJm7DuFd0_WBQRawz5heV0t5E"}, {"name": "Mix Max", "formatted_address": "شارع ابو السرور البكرى، منشية البكرى،، Heliopolis, Cairo Governorate, Egypt", "lat": 30.0884753, "lng": 31.3078084, "types": ["electronics_store", "point_of_interest", "store", "establishment"], "place_id": "ChIJr5o7yNI_WBQR-Q1RfqYTAvk"}, {"name": "مقر صندوق التأمين الخاص بالمهندسين (التكافل)", "formatted_address": "13 Abou Al Srour Al Bakri, Mansheya El-Bakry, Heliopolis, Cairo Governorate, Egypt", "lat": 30.0890409, "lng": 31.3080196, "types": ["point_of_interest", "establishment"], "place_id": "ChIJd5lvBxw_WBQRJGbNV6YQybs"}, {"name": "ميكانيكي سيارات", "formatted_address": "11 أبو السرور البكري، منشية البكري، قسم مصر الجديدة،، Cairo Governorate, Egypt", "lat": 30.0881748, "lng": 31.3078989, "types": ["car_repair", "point_of_interest", "establishment"], "place_id": "ChIJgbjXm_4_WBQRKoUBN7sELmI"}, {"name": "مركز هويدا للتجميل", "formatted_address": "4 Abou Al Srour Al Bakri, Mansheya El-Bakry, Heliopolis, Cairo Governorate 11774, Egypt", "lat": 30.0881705, "lng": 31.30782719999999, "types": ["beauty_salon", "point_of_interest", "establishment"], "place_id": "ChIJR3nasNI_WBQR9C1aTuBcv44"}, {"name": "العبد هليوبوليس", "formatted_address": "5el الجبرتي، منشية البكري، قسم مصر الجديدة، محافظة القاهرة‬،، Egypt", "lat": 30.0878383, "lng": 31.307465, "types": ["restaurant", "food", "point_of_interest", "establishment"], "place_id": "ChIJRcKxC-0_WBQREwfRmnJpsRk"}, {"name": "الاحمد", "formatted_address": "م الجديدة, 15 ابو السرور البكرى, El-Khalifa El-Maamoun, Mansheya El-Bakry, Cairo Governorate, Egypt", "lat": 30.0890806, "lng": 31.3078782, "types": ["car_dealer", "point_of_interest", "store", "establishment"], "place_id": "ChIJ1-s42-w_WBQR4FuuTsGL1t4"}, {"name": "Hamsa Tech", "formatted_address": "10 شارع ابو السرور البكرى، منشية البكرى،، Heliopolis, Cairo Governorate, Egypt", "lat": 30.0884744, "lng": 31.3078124, "types": ["electronics_store", "point_of_interest", "store", "establishment"], "place_id": "ChIJq7w7yNI_WBQRPgSL8tmCqjI"}, {"name": "مركز عبد الرحمن لصيانة السيارات", "formatted_address": "شارع Abou Al Srour Al Bakri, Mansheya El-Bakry, Heliopolis, Cairo Governorate, Egypt", "lat": 30.0886392, "lng": 31.3080267, "types": ["car_repair", "point_of_interest", "establishment"], "place_id": "ChIJqS1aydI_WBQRnFqWYoVTHQk"}, {"name": "ايجبت تكنولوجى للكمبيوتر", "formatted_address": "13 Abou Al Srour Al Bakri, Mansheya El-Bakry, Heliopolis, Cairo Governorate 11311, Egypt", "lat": 30.0904581, "lng": 31.3077276, "types": ["electronics_store", "point_of_interest", "store", "establishment"], "place_id": "ChIJF6LZKQ4_WBQR1D-rP47-gUY"}, {"name": "Eva Beauty Center", "formatted_address": "منشية البكرى، 5، Abou Al Srour Al Bakri, Mansheya El-Bakry, Heliopolis, Cairo Governorate, Egypt", "lat": 30.08797019999999, "lng": 31.307863, "types": ["beauty_salon", "point_of_interest", "establishment"], "place_id": "ChIJY5w4sdI_WBQRTdnLDVrrkh0"}, {"name": "Mansheyet El Bakry General Hospital", "formatted_address": "13 ش Gesr Al Suez, Mansheya El-Bakry, Heliopolis, Cairo Governorate, Egypt", "lat": 30.0911932, "lng": 31.3060844, "types": ["hospital", "health", "point_of_interest", "establishment"], "place_id": "ChIJO3lbbtM_WBQR4rWY0INWS4s"}, {"name": "مسجد الإيمان", "formatted_address": "Mansheya El-Bakry, Heliopolis, Cairo Governorate, Egypt", "lat": 30.08885669999999, "lng": 31.3079918, "types": ["mosque", "place_of_worship", "point_of_interest", "establishment"], "place_id": "ChIJ94MNRDY_WBQRbglK1C-J6U0"}, {"name": "El Safa For Trading", "formatted_address": "شارع Abou Al Srour Al Bakri, Mansheya El-Bakry, Heliopolis, Cairo Governorate, Egypt", "lat": 30.0885739, "lng": 31.3080324, "types": ["electronics_store", "home_goods_store", "point_of_interest", "store", "establishment"], "place_id": "ChIJNXBjydI_WBQRoTLk4NoVuEE"}, {"name": "Egint", "formatted_address": "٩ شارع، Abou Al Srour Al Bakri, Mansheya El-Bakry, Heliopolis, Cairo Governorate, Egypt", "lat": 30.088651, "lng": 31.308044, "types": ["electronics_store", "point_of_interest", "store", "establishment"], "place_id": "ChIJM9hVydI_WBQRkXRvl7wB_3c"}, {"name": "Social Insurance Bureau - Mansheyet El Bakry", "formatted_address": "12 El-Maqrezy - ١٢ شارع المقريزي، منشية البكري، مصر الجديدة, Mansheya El-Bakry, Cairo Governorate, Egypt", "lat": 30.0904657, "lng": 31.3056201, "types": ["local_government_office", "point_of_interest", "establishment"], "place_id": "ChIJ_____yY-WBQRWFQ1z-yKySk"}, {"name": "محمد عبده meat man", "formatted_address": "15 Abou Al Srour Al Bakri, Mansheya El-Bakry, Heliopolis, Cairo Governorate, Egypt", "lat": 30.0892278, "lng": 31.3079396, "types": ["food", "point_of_interest", "store", "establishment"], "place_id": "ChIJybfdQ5E_WBQRmfm7DhV80Fc"}, {"name": "Family", "formatted_address": "30 Mansheya El-Bakry, Heliopolis, Cairo Governorate, Egypt", "lat": 30.0887145, "lng": 31.307149, "types": ["point_of_interest", "establishment"], "place_id": "ChIJnTBYwNI_WBQREJVage0EGss"}, {"name": "Our Lady of Heliopolis Co-Cathedral", "formatted_address": "Nazih Khalifa crossroad، Al Ahram, Heliopolis, Cairo Governorate, Egypt", "lat": 30.0935707, "lng": 31.3251828, "types": ["church", "place_of_worship", "point_of_interest", "establishment"], "place_id": "ChIJJdgh-okVWBQR5TqTmKuQ0IM"}, {"name": "كومبيو ستيشن", "formatted_address": "4 Abou Al Srour Al Bakri, Mansheya El-Bakry, Heliopolis, Cairo Governorate 11774, Egypt", "lat": 30.088172, "lng": 31.3078424, "types": ["electronics_store", "point_of_interest", "store", "establishment"], "place_id": "ChIJ9c5xfwc_WBQR88JlOGoOXG4"}, {"name": "محمد سامي", "formatted_address": "ممر داخل الحرس الجمهوري، منشية البكري، قسم مصر الجديدة،، Cairo Governorate, Egypt", "lat": 30.0882171, "lng": 31.3078417, "types": ["lodging", "point_of_interest", "establishment"], "place_id": "ChIJdZ31pPc_WBQRo5fCky7NcTo"}, {"name": "Jet Elevators", "formatted_address": "9 ش Abou Al Srour Al Bakri, Mansheya El-Bakry, Heliopolis, Cairo Governorate, Egypt", "lat": 30.0904581, "lng": 31.3077276, "types": ["point_of_interest", "establishment"], "place_id": "ChIJe1CZydI_WBQRL3YAroTdDXY"}, {"name": "كمبيو عامر", "formatted_address": "١٩ ش، Abou Al Srour Al Bakri, Heliopolis, Cairo Governorate, Egypt", "lat": 30.08842599999999, "lng": 31.3080954, "types": ["point_of_interest", "establishment"], "place_id": "ChIJR2AXytI_WBQRJ-RLCH-nclQ"}, {"name": "El Rahman Mosque", "formatted_address": "Mansheya El-Bakry, Heliopolis, Cairo Governorate, Egypt", "lat": 30.0881408, "lng": 31.3070608, "types": ["mosque", "place_of_worship", "point_of_interest", "establishment"], "place_id": "ChIJrw0mTcY_WBQRMVVTg8sB2Uo"}, {"name": "Ismart 2bro", "formatted_address": "4 أبو السرور البكري، منشية البكري، قسم مصر الجديدة، محافظة القاهرة‬، 11774, Egypt", "lat": 30.0882308, "lng": 31.3078279, "types": ["electronics_store", "point_of_interest", "store", "establishment"], "place_id": "ChIJg1E8u7o_WBQRH41hFHpfKIc"}, {"name": "كوافير سيدات إيفا", "formatted_address": "منشية البكرى، Abou Al Srour Al Bakri, Mansheya El-Bakry, Heliopolis, Cairo Governorate, Egypt", "lat": 30.0879534, "lng": 31.3077269, "types": ["beauty_salon", "hair_care", "point_of_interest", "establishment"], "place_id": "ChIJT-dosNI_WBQR1d8GtlTGdoA"}, {"name": "Eng. Military Auth. House", "formatted_address": "Mansheya El-Bakry, Heliopolis, Cairo Governorate, Egypt", "lat": 30.08136559999999, "lng": 31.30596509999999, "types": ["lodging", "point_of_interest", "establishment"], "place_id": "ChIJOQqUcss_WBQRlT7AQB0UXK8"}, {"name": "جاماتك", "formatted_address": "٢١ شارع أبو السرور البكرى،، Mansheya El-Bakry, Heliopolis, Cairo Governorate, Egypt", "lat": 30.08833779999999, "lng": 31.3076649, "types": ["point_of_interest", "store", "establishment"], "place_id": "ChIJu2EvuNI_WBQRgekS6rDugwE"}, {"name": "TRINITY SOLUTION", "formatted_address": "6، ش ابو السرور البكرىالخليفه المأمون، Heliopolis, Egypt", "lat": 30.0875093, "lng": 31.3079588, "types": ["point_of_interest", "establishment"], "place_id": "ChIJN1jrrtI_WBQRNBDgv4bklf8"}, {"name": "Mc Technology", "formatted_address": "9 شارع أبو السرور البكري،، المأمون،، Heliopolis, Cairo Governorate, Egypt", "lat": 30.0884726, "lng": 31.3077896, "types": ["electronics_store", "point_of_interest", "store", "establishment"], "place_id": "ChIJOz49yNI_WBQRwn689IFUmas"}, {"name": "Al Abd online", "formatted_address": "٤ شارع الجبرتي، El-Khalifa El-Maamoun, من، Cairo Governorate, Egypt", "lat": 30.0877043, "lng": 31.3072524, "types": ["bakery", "food", "point_of_interest", "store", "establishment"], "place_id": "ChIJk8GRDj0_WBQRNEQq7JiwWdk"}, {"name": "Dr. Mohamed Hussein Mostafa", "formatted_address": "16 El Maqrizy St.، Mansheya El-Bakry, Heliopolis, Cairo Governorate, Egypt", "lat": 30.090966, "lng": 31.307238, "types": ["doctor", "health", "point_of_interest", "establishment"], "place_id": "ChIJb_b4VNI_WBQRQ3yt62qEHe8"}, {"name": "CIB", "formatted_address": "46ب الخليفة المأمون، منشية البكري، مصر الجديدة،، Cairo Governorate, Egypt", "lat": 30.0873079, "lng": 31.3075713, "types": ["bank", "atm", "finance", "point_of_interest", "establishment"], "place_id": "ChIJP3qaoNI_WBQRq-lyymctgzE"}, {"name": "MJM", "formatted_address": "25 شارع منشية البكري امام مسجد منشية البكري, El-Khalifa El-Maamoun, Heliopolis, Cairo Governorate 11851, Egypt", "lat": 30.0890052, "lng": 31.3058615, "types": ["point_of_interest", "establishment"], "place_id": "ChIJgTJm17E_WBQRtGpy8lIl3eQ"}, {"name": "Homey store", "formatted_address": "2 El Gabarty St., from 47 El Khalifa El Maamoun St., in front of Triumph Hotel, Heliopolis, محافظة القاهرة‬،, Egypt", "lat": 30.0873976, "lng": 31.3073069, "types": ["lodging", "home_goods_store", "point_of_interest", "store", "establishment"], "place_id": "ChIJY5LJcFo_WBQRlAVx_JhagA8"}, {"name": "برج الأطباء", "formatted_address": "٥٣، المقريزي، Mansheya El-Bakry, Heliopolis, Cairo Governorate, Egypt", "lat": 30.0907047, "lng": 31.3078829, "types": ["hospital", "health", "point_of_interest", "establishment"], "place_id": "ChIJ6YfKNtM_WBQRHXkadZ7UJHA"}, {"name": "Egypt Post", "formatted_address": "السكة الحديد، Mansheya El-Bakry, Heliopolis, Cairo Governorate, Egypt", "lat": 30.0874435, "lng": 31.30289299999999, "types": ["post_office", "finance", "point_of_interest", "establishment"], "place_id": "ChIJZzIw_c0_WBQRij_7WmG671I"}]