[{"name": "جلوبال للتجارة", "formatted_address": "1 ش Abou Al Mahasen, Mansheya El-Bakry, Heliopolis, Cairo Governorate, Egypt", "lat": 30.0901404, "lng": 31.3127346, "types": ["point_of_interest", "establishment"], "place_id": "ChIJBxk3Eyw-WBQRqM-cPABzzvs"}, {"name": "الهيئة العامة للتأمين الصحى", "formatted_address": "Abou Al Mahasen, Mansheya El-Bakry, Heliopolis, Cairo Governorate, Egypt", "lat": 30.090186, "lng": 31.3124745, "types": ["insurance_agency", "health", "point_of_interest", "establishment"], "place_id": "ChIJ4w8oFSw-WBQRvZdqf2l5LtY"}, {"name": "Ittihadia Palace", "formatted_address": "Al Nadi، El-Montaza, Heliopolis, Cairo Governorate, Egypt", "lat": 30.0888643, "lng": 31.3193929, "types": ["tourist_attraction", "premise", "point_of_interest", "establishment"], "place_id": "ChIJuftqUS8-WBQRtM7fDk0QcPk"}, {"name": "Heliopolis House", "formatted_address": "13 أبو المحاسن، منشية البكري، قسم مصر الجديدة، محافظة القاهرة‬،، Egypt", "lat": 30.0884148, "lng": 31.3144963, "types": ["restaurant", "food", "point_of_interest", "establishment"], "place_id": "ChIJCV8ofuo_WBQRrZLq-kueHhw"}, {"name": "Our Lady of Heliopolis Co-Cathedral", "formatted_address": "Nazih Khalifa crossroad، Al Ahram, Heliopolis, Cairo Governorate, Egypt", "lat": 30.0935707, "lng": 31.3251828, "types": ["church", "place_of_worship", "point_of_interest", "establishment"], "place_id": "ChIJJdgh-okVWBQR5TqTmKuQ0IM"}, {"name": "الهيئة العامة للتأمين الصحي رئاسة الهيئة", "formatted_address": "1 ش Abou Al Mahasen, Mansheya El-Bakry, Heliopolis, Cairo Governorate, Egypt", "lat": 30.0898315, "lng": 31.3126864, "types": ["point_of_interest", "establishment"], "place_id": "ChIJ85YqhdI_WBQR1akCcLaXXeE"}, {"name": "ميتالار", "formatted_address": "8 El-Sayed El-Merghany, Al Matar, El Nozha, Cairo Governorate, Egypt", "lat": 30.08905619999999, "lng": 31.3172421, "types": ["point_of_interest", "establishment"], "place_id": "ChIJly3E0y4-WBQRx2P53maBqYE"}, {"name": "توشكى ماركت", "formatted_address": "7 أبو المحاسن، الشاذلي, Heliopolis, Cairo Governorate, Egypt", "lat": 30.0890589, "lng": 31.3135481, "types": ["point_of_interest", "establishment"], "place_id": "ChIJ__-boCRBWBQR75i9X0co3FM"}, {"name": "Tegra", "formatted_address": "2 Al Sobki, Mansheya El-Bakry, Heliopolis, Cairo Governorate, Egypt", "lat": 30.08872, "lng": 31.313122, "types": ["point_of_interest", "establishment"], "place_id": "ChIJ70lHMSw-WBQRMvOUPJ-ZA4k"}, {"name": "مهندس طارق حسين Marwan Consulting Group", "formatted_address": "13-17 أبو المحاسن، منشية البكري، مصر الجديدة،، Cairo Governorate, Egypt", "lat": 30.0882472, "lng": 31.31488939999999, "types": ["point_of_interest", "establishment"], "place_id": "ChIJAWpCtJk_WBQRMlIRWNo3spk"}, {"name": "Twinky", "formatted_address": "6 Abou Al Mahasen, Mansheya El-Bakry, Heliopolis, Cairo Governorate, Egypt", "lat": 30.0901043, "lng": 31.3130397, "types": ["food", "point_of_interest", "store", "establishment"], "place_id": "ChIJhaLWEyw-WBQRMNz8xbW_pv4"}, {"name": "Rouaa", "formatted_address": "7 ش ادريس، Mansheya El-Bakry, Heliopolis, Cairo Governorate, Egypt", "lat": 30.088302, "lng": 31.31426309999999, "types": ["point_of_interest", "establishment"], "place_id": "ChIJVW08gi4-WBQR-fuc3S--EgI"}, {"name": "مؤسسة مصر الخير نادي هليوبوليس", "formatted_address": "داخل نادي، Mansheya El-Bakry, Heliopolis, Cairo Governorate, Egypt", "lat": 30.0883155, "lng": 31.3164398, "types": ["point_of_interest", "establishment"], "place_id": "ChIJITd0igg_WBQRO_q0Tx_ZjII"}, {"name": "C.N.R For Import & World Trade", "formatted_address": "7 ش السبكى، مصر الجديدة، القاهرة، Cairo Governorate, Egypt", "lat": 30.0878154, "lng": 31.31448099999999, "types": ["point_of_interest", "establishment"], "place_id": "ChIJdzh_fi4-WBQR3gYKlcr1_64"}, {"name": "Nile Foreign Trade", "formatted_address": "7 Al Idrisi, Mansheya El-Bakry, Heliopolis, Cairo Governorate, Egypt", "lat": 30.0877944, "lng": 31.3138614, "types": ["point_of_interest", "establishment"], "place_id": "ChIJPfWf1i0-WBQRPH-iBvLJMHs"}, {"name": "Modern Management Technology", "formatted_address": "7 ش الادريسى، Mansheya El-Bakry, Heliopolis, Cairo Governorate, Egypt", "lat": 30.0884292, "lng": 31.3142129, "types": ["point_of_interest", "establishment"], "place_id": "ChIJPfWf1i0-WBQR8D3IOHV6RzQ"}, {"name": "Rasha", "formatted_address": "شارع ابو المحاسن ،مصر الجديدة،قسم مصر جديدة ،القاهرة، Cairo Governorate, Egypt", "lat": 30.0895779, "lng": 31.3137126, "types": ["beauty_salon", "point_of_interest", "establishment"], "place_id": "ChIJjejEGCw-WBQRnzMqmtXroFc"}, {"name": "GMS - ABB Panel Builder", "formatted_address": "Abou Al Mahasen, Mansheya El-Bakry, Heliopolis, Cairo Governorate, Egypt", "lat": 30.0888632, "lng": 31.3142018, "types": ["point_of_interest", "establishment"], "place_id": "ChIJ95vjg78_WBQR-L6tXiFLwiY"}, {"name": "The Egyptian Museum", "formatted_address": "شارع ماريت باشا، ميدان التحرير، Egypt", "lat": 30.0475781, "lng": 31.23361389999999, "types": ["museum", "tourist_attraction", "point_of_interest", "establishment"], "place_id": "ChIJw741VYhBWBQRD2Z6OiulDVI"}, {"name": "Cadbury Adams Egypt", "formatted_address": "Al Mamlik, El-Montaza, Heliopolis, Cairo Governorate, Egypt", "lat": 30.0903183, "lng": 31.3178093, "types": ["point_of_interest", "establishment"], "place_id": "ChIJ_____yY-WBQRFfviuk2ZuaE"}, {"name": "Advanced Control Systems", "formatted_address": "3 ش ابن منظور، Mansheya El-Bakry, Heliopolis, Cairo Governorate, Egypt", "lat": 30.0877944, "lng": 31.3138614, "types": ["point_of_interest", "establishment"], "place_id": "ChIJPfWf1i0-WBQRrgXiAF7eHhY"}, {"name": "SBP Strategic Business Partner", "formatted_address": "15 Abou Al Mahasen, Mansheya El-Bakry, Heliopolis, Cairo Governorate, Egypt", "lat": 30.088306, "lng": 31.314685, "types": ["point_of_interest", "establishment"], "place_id": "ChIJUSPKhS4-WBQRz26EtnMmcFg"}, {"name": "Dental Clinic", "formatted_address": "7 Abou Al Mahasen, Mansheya El-Bakry, Heliopolis, Cairo Governorate, Egypt", "lat": 30.0891483, "lng": 31.3136671, "types": ["dentist", "health", "point_of_interest", "establishment"], "place_id": "ChIJGe5ddUw_WBQRThkVRN1QvQE"}, {"name": "stage architecture studio", "formatted_address": "6 Abou Al Mahasen, Mansheya El-Bakry, Heliopolis, Cairo Governorate, Egypt", "lat": 30.0901102, "lng": 31.3131074, "types": ["point_of_interest", "establishment"], "place_id": "ChIJZTHeZXg_WBQRhIYydSdI7DU"}, {"name": "Media Solutions Group", "formatted_address": "2 Al Sobki, Mansheya El-Bakry, Heliopolis, Cairo Governorate, Egypt", "lat": 30.088725, "lng": 31.313148, "types": ["point_of_interest", "establishment"], "place_id": "ChIJVWQVMSw-WBQR1wqE2FU-Gwo"}, {"name": "Peking", "formatted_address": "17 Abou Al Mahasen, Mansheya El-Bakry, Heliopolis, Cairo Governorate, Egypt", "lat": 30.0881761, "lng": 31.3149762, "types": ["restaurant", "food", "point_of_interest", "establishment"], "place_id": "ChIJf4FkfMo_WBQRtqcJ3LxVlRU"}, {"name": "C & Co", "formatted_address": "ش El-Sayed El-Merghany, Mansheya El-Bakry, Heliopolis, Cairo Governorate, Egypt", "lat": 30.089278, "lng": 31.316849, "types": ["point_of_interest", "establishment"], "place_id": "ChIJTUAo2C4-WBQRxX_4hyzbFbE"}, {"name": "مسجد", "formatted_address": "Youssef Al Sobki, مصر الجديدة،، قسم مصر جديدة، Cairo Governorate, Egypt", "lat": 30.0881115, "lng": 31.3145347, "types": ["mosque", "place_of_worship", "point_of_interest", "establishment"], "place_id": "ChIJSxDYhi4-WBQRjV6mIYUNPo8"}, {"name": "Main restaurant", "formatted_address": "17 Abou Al Mahasen, Mansheya El-Bakry, Heliopolis, Cairo Governorate, Egypt", "lat": 30.0882366, "lng": 31.3149023, "types": ["restaurant", "food", "point_of_interest", "establishment"], "place_id": "ChIJDQ8Kijw_WBQRbljZQ-gzAxE"}, {"name": "Studio Lumiére", "formatted_address": "5 Abou Al Mahasen, Mansheya El-Bakry, Heliopolis, Cairo Governorate, Egypt", "lat": 30.0892603, "lng": 31.3133436, "types": ["point_of_interest", "establishment"], "place_id": "ChIJo2bo7sY_WBQRMdj3sq2ZL00"}, {"name": "Datum Engineering & Management Consultancy", "formatted_address": "6 Abou Al Mahasen, Mansheya El-Bakry, Heliopolis, Cairo Governorate, Egypt", "lat": 30.09009339999999, "lng": 31.3130119, "types": ["point_of_interest", "establishment"], "place_id": "ChIJ_X-mvsI_WBQRxMCm9q_mXys"}, {"name": "Kfc Roxy", "formatted_address": "4 El-Sayed El-Merghany, Al Matar, El Nozha, Cairo Governorate, Egypt", "lat": 30.0890925, "lng": 31.3172282, "types": ["point_of_interest", "establishment"], "place_id": "ChIJ9yYE1C4-WBQRaz2Kgo7031I"}, {"name": "Energya", "formatted_address": "7 Al Idrisi, Mansheya El-Bakry, Heliopolis, Cairo Governorate, Egypt", "lat": 30.0877944, "lng": 31.3138614, "types": ["point_of_interest", "establishment"], "place_id": "ChIJPfWf1i0-WBQROSnvmbUy90s"}, {"name": "Heliopolis Center Government Services", "formatted_address": "17 El-Sayed El-Marghany, Mansheya El-Bakry, Heliopolis, Cairo Governorate, Egypt", "lat": 30.0889328, "lng": 31.31707889999999, "types": ["point_of_interest", "establishment"], "place_id": "ChIJhVshJy8-WBQRYP8KfS5OkCM"}, {"name": "صيدلية د. تقى عابدين", "formatted_address": "شارع ابو المحاسن، ،مصر الجديدة،قسم، مصر جديدة، القاهرة، Egypt", "lat": 30.0895501, "lng": 31.3137562, "types": ["pharmacy", "health", "point_of_interest", "store", "establishment"], "place_id": "ChIJK4zLGCw-WBQR75tw8299FMs"}, {"name": "New life medical company", "formatted_address": "7A Al Sobki, Mansheya El-Bakry, Heliopolis, Cairo Governorate, Egypt", "lat": 30.0878963, "lng": 31.3145395, "types": ["point_of_interest", "establishment"], "place_id": "ChIJcTh_fi4-WBQR--93oub3XRY"}, {"name": "مركز الدراسات التخطيطية والمعمارية", "formatted_address": "14 el-sobky street، Mansheya El-Bakry, Heliopolis, Cairo Governorate 11712, Egypt", "lat": 30.0880106, "lng": 31.3150114, "types": ["local_government_office", "point_of_interest", "establishment"], "place_id": "ChIJWaxwKyw-WBQRJoXO_Y3BD8g"}, {"name": "Badawy Abou El Mahasen", "formatted_address": "16 ش مصطفى النحاس، Al Manteqah as Sadesah, Nasr City, Cairo Governorate, Egypt", "lat": 30.054793, "lng": 31.3467093, "types": ["point_of_interest", "establishment"], "place_id": "ChIJURQ9FHo-WBQR13LKCUCexdo"}, {"name": "Bosta Furniture", "formatted_address": "7 Al Idrisi, Mansheya El-Bakry, Heliopolis, Cairo Governorate, Egypt", "lat": 30.0877944, "lng": 31.3138614, "types": ["point_of_interest", "establishment"], "place_id": "ChIJPfWf1i0-WBQR8mvR9gXHaYI"}, {"name": "الهيئة العامة للتأمين الصحى", "formatted_address": "1 ش Abou Al Mahasen, Mansheya El-Bakry, Heliopolis, Cairo Governorate, Egypt", "lat": 30.08985329999999, "lng": 31.3127504, "types": ["insurance_agency", "health", "point_of_interest", "establishment"], "place_id": "ChIJ6ReFBso_WBQR3MinguxT-vw"}, {"name": "Samy Nabil", "formatted_address": "ش Ibn Manzoor, Mansheya El-Bakry, Heliopolis, Cairo Governorate, Egypt", "lat": 30.0877944, "lng": 31.3138614, "types": ["point_of_interest", "establishment"], "place_id": "ChIJPfWf1i0-WBQRJ8TQyhtqdBs"}, {"name": "1 football stadium", "formatted_address": "Mansheya El-Bakry, Heliopolis, Cairo Governorate, Egypt", "lat": 30.0873641, "lng": 31.3177011, "types": ["point_of_interest", "establishment"], "place_id": "ChIJT80fBi8-WBQRxDZHgIahR1s"}, {"name": "Center For Planning & Architectural Studies", "formatted_address": "14, El-Sobky St., behind Heliopolis Club Cairo, 11712, Egypt", "lat": 30.0879748, "lng": 31.3149896, "types": ["point_of_interest", "establishment"], "place_id": "ChIJv25_q-0_WBQRm_YtIGsu7dM"}, {"name": "سوبرماركت توشكى", "formatted_address": "شارع الادريسي،مصر الجديدة،قسم مصر جديدة، Cairo Governorate, Egypt", "lat": 30.0885269, "lng": 31.3144486, "types": ["supermarket", "grocery_or_supermarket", "food", "point_of_interest", "store", "establishment"], "place_id": "ChIJSUtmgy4-WBQRGhSHgYPUoas"}, {"name": "El Ramlawy Food Company", "formatted_address": "6 El-Sayed El-Merghany, Mansheya El-Bakry, Heliopolis, Cairo Governorate, Egypt", "lat": 30.08905619999999, "lng": 31.3172421, "types": ["point_of_interest", "establishment"], "place_id": "ChIJK45cJi8-WBQRuNkeSXL00oQ"}, {"name": "Saad elsoghier", "formatted_address": "13 Abou Al Mahasen, Mansheya El-Bakry, Heliopolis, Cairo Governorate, Egypt", "lat": 30.0886343, "lng": 31.3143681, "types": ["hair_care", "point_of_interest", "establishment"], "place_id": "ChIJXxfsrkE_WBQRyFmx64ittvk"}, {"name": "Reda clothes", "formatted_address": "13 أبو المحاسن، منشية البكري، قسم مصر الجديدة،، Cairo Governorate, Egypt", "lat": 30.0883935, "lng": 31.314468, "types": ["point_of_interest", "establishment"], "place_id": "ChIJS-v-Dbw_WBQRNBoZ4RJMJ_8"}, {"name": "مسجد محمد عبد العزيز", "formatted_address": "12 Al Sobki, Mansheya El-Bakry, Heliopolis, Cairo Governorate, Egypt", "lat": 30.0882022, "lng": 31.3146036, "types": ["mosque", "place_of_worship", "point_of_interest", "establishment"], "place_id": "ChIJW7OWhi4-WBQR72UfwNUmYQg"}, {"name": "Heliopolis Sporting Club (HSC)", "formatted_address": "17 El-Sayed El-Marghany, Mansheya El-Bakry, Heliopolis, Cairo Governorate, Egypt", "lat": 30.0883155, "lng": 31.3164398, "types": ["point_of_interest", "establishment"], "place_id": "ChIJB9zy8B4-WBQRz_zRpJte8sA"}, {"name": "El Wady El Akhdar Holding For Security Investment", "formatted_address": "7 ش النادى، Mansheya El-Bakry, Heliopolis, Cairo Governorate, Egypt", "lat": 30.0884378, "lng": 31.3182862, "types": ["point_of_interest", "establishment"], "place_id": "ChIJGUjPm6A4WBQR6_vyFw47gqI"}, {"name": "NBK", "formatted_address": "17 شارع الميرغنى، نادي هليوبوليس الرياضى، مصر الجديدة 17 Marghany Street, Heliopolis Club, Heliopolis, Heliopolis, Cairo Governorate, Egypt", "lat": 30.0889328, "lng": 31.31707889999999, "types": ["bank", "finance", "point_of_interest", "establishment"], "place_id": "ChIJq1IeSKo_WBQR5BI7tspeN_k"}, {"name": "صناع السعادة - فرع مصر الجديدة", "formatted_address": "شارع السيد المرغني، أمام نادي هليوبوليس، مصر الجديدة شارع السيد، المرغني،مصر الجديدة،قسم، قسم مصر الجديدة،, Cairo Governorate, Egypt", "lat": 30.0895895, "lng": 31.3168969, "types": ["food", "point_of_interest", "store", "establishment"], "place_id": "ChIJtchitQQ_WBQRShwHWIY9Hx8"}, {"name": "عيادة دكتور احمد عبدالعزيز حافظ للأسنان", "formatted_address": "4-31 Abou Al Mahasen, Mansheya El-Bakry, Heliopolis, Cairo Governorate, Egypt", "lat": 30.0902329, "lng": 31.3129163, "types": ["hospital", "health", "point_of_interest", "establishment"], "place_id": "ChIJc4E3Eyw-WBQR52VRRppxnjU"}, {"name": "Le Bec Sucre", "formatted_address": "ش El-Sayed El-Merghany, Mansheya El-Bakry, Heliopolis, Cairo Governorate, Egypt", "lat": 30.089278, "lng": 31.316849, "types": ["point_of_interest", "establishment"], "place_id": "ChIJTUAo2C4-WBQRE6xXIRryKqk"}, {"name": "Mwasalat Misr, S.A.E", "formatted_address": "El-Sayed El-Marghany, Mansheya El-Bakry, Heliopolis, Cairo Governorate, Egypt", "lat": 30.09037399999999, "lng": 31.31528309999999, "types": ["point_of_interest", "establishment"], "place_id": "ChIJAQAQsi4-WBQR0x4iA6MglxA"}, {"name": "Heliopolis Services Co.", "formatted_address": "15 Abou Al Mahasen, Mansheya El-Bakry, Heliopolis, Cairo Governorate, Egypt", "lat": 30.088278, "lng": 31.3145478, "types": ["point_of_interest", "establishment"], "place_id": "ChIJ27nT9t4_WBQRZXJDoKmvWUo"}, {"name": "ازياء الرضا", "formatted_address": "شارع الادريسي،مصر الجديدة،قسم مصر جديدة، منشية البكري، قسم مصر الجديدة، محافظة القاهرة‬،، Egypt", "lat": 30.0885179, "lng": 31.3145505, "types": ["point_of_interest", "establishment"], "place_id": "ChIJIf6RK14_WBQRe5DTj4PU5Vo"}, {"name": "Heliopolis Company For Housing & Development", "formatted_address": "28 Ibrahim Al Lakani, El-Montaza, Heliopolis, Cairo Governorate, Egypt", "lat": 30.089427, "lng": 31.32091599999999, "types": ["general_contractor", "point_of_interest", "establishment"], "place_id": "ChIJeUp1DiY-WBQRkHRQbiaGSrA"}, {"name": "Alfa Lab", "formatted_address": "El-Sayed El-Marghany, Mansheya El-Bakry, Heliopolis, Cairo Governorate, Egypt", "lat": 30.0864773, "lng": 31.3164365, "types": ["point_of_interest", "establishment"], "place_id": "ChIJ5xIrTy4-WBQRuQPFfoNV7Lk"}, {"name": "Ta2meen si77y", "formatted_address": "31 Abou Al Mahasen, Mansheya El-Bakry, Heliopolis, Cairo Governorate, Egypt", "lat": 30.090328, "lng": 31.3125785, "types": ["point_of_interest", "establishment"], "place_id": "ChIJVQIZFew_WBQR8foDWeDFRCo"}]