[{"name": "The Child Museum", "formatted_address": "34 Abou Bakr El-Sedeek, El-Bostan, Heliopolis, Cairo Governorate, Egypt", "lat": 31.33694599999999, "types": ["tourist_attraction", "museum", "point_of_interest", "establishment"], "place_id": "ChIJz-2ngvIVWBQR0usMZT-HkR8"}, {"name": "Ittihadia Palace", "formatted_address": "Al Nadi، El-Montaza, Heliopolis, Cairo Governorate, Egypt", "lat": 31.3193929, "types": ["tourist_attraction", "premise", "point_of_interest", "establishment"], "place_id": "ChIJuftqUS8-WBQRtM7fDk0QcPk"}, {"name": "Baron Empain Palace", "formatted_address": "El-Orouba, El-Montaza, Heliopolis, Cairo Governorate 11757, Egypt", "lat": 31.3303332, "types": ["point_of_interest", "establishment"], "place_id": "ChIJ1_GM8iE-WBQRLNVi-RT7vDA"}, {"name": "Our Lady of Heliopolis Co-Cathedral", "formatted_address": "Nazih Khalifa crossroad، Al Ahram, Heliopolis, Cairo Governorate, Egypt", "lat": 31.3251828, "types": ["church", "place_of_worship", "point_of_interest", "establishment"], "place_id": "ChIJJdgh-okVWBQR5TqTmKuQ0IM"}, {"name": "مريم عتمان", "formatted_address": "مصر الجديدة، المطار، قسم النزهة،، Cairo Governorate, Egypt", "lat": 31.3438507, "types": ["point_of_interest", "establishment"], "place_id": "ChIJgxrFUogVWBQRS1UPh4qIBp0"}, {"name": "Lont Group", "formatted_address": "4A Kamal EL Shafie، Ismailia Square، Heliopolis, Cairo Governorate, Egypt", "lat": 31.3438507, "types": ["travel_agency", "point_of_interest", "establishment"], "place_id": "ChIJ2_pLw4Q_WBQR5wCWEEgCfSw"}, {"name": "حجز فنادق مصر الجديدة", "formatted_address": "مصر الجديدة، Cairo Governorate, Egypt", "lat": 31.3438507, "types": ["travel_agency", "point_of_interest", "establishment"], "place_id": "ChIJI1h83OMVWBQRtdlkKJjuHuw"}, {"name": "Disruptive Management Solutions - DMS", "formatted_address": "Military College, 03 General Abdulaziz Ali St, Al Matar, El Nozha, Cairo Governorate, Egypt", "lat": 31.3438507, "types": ["point_of_interest", "establishment"], "place_id": "ChIJxbKCrkoVWBQRRg1tITQb_BQ"}, {"name": "Mar Guirguis church", "formatted_address": "Al Matar, El Nozha, Cairo Governorate, Egypt", "lat": 31.3438507, "types": ["church", "place_of_worship", "point_of_interest", "establishment"], "place_id": "ChIJo7ZMU40VWBQRyM0cS-gcbeM"}, {"name": "Egyptair", "formatted_address": "Al Matar, El Nozha, Cairo Governorate, Egypt", "lat": 31.3438507, "types": ["travel_agency", "point_of_interest", "establishment"], "place_id": "ChIJmeXkw9wVWBQRhp0z_uttSsk"}, {"name": "هيلتون هيليوبلس", "formatted_address": "Al Matar, El Nozha, Cairo Governorate, Egypt", "lat": 31.3438507, "types": ["lodging", "point_of_interest", "establishment"], "place_id": "ChIJocT4HcUVWBQRgIk90yuylWM"}, {"name": "شقق مقروشة للايجار في القاهرة", "formatted_address": "ميدان تريومف، Al Matar, El Nozha, Cairo Governorate 11757, Egypt", "lat": 31.3438507, "types": ["lodging", "point_of_interest", "establishment"], "place_id": "ChIJWZEUunIVWBQR9m5l_WAmnt4"}, {"name": "Radisson Blu Hotel, Cairo Heliopolis", "formatted_address": "Abdel Hamid Badawi St Heliopolis, Cairo Governorate 11787, Egypt", "lat": 31.3753121, "types": ["lodging", "point_of_interest", "establishment"], "place_id": "ChIJQZJ8fWUWWBQRAUPO9I6SxPg"}, {"name": "اوتوشوب فرع جسر السويس", "formatted_address": "شنودة، 6 عمارات الشرطة - ناصية عزبة، Cairo Governorate, Egypt", "lat": 31.3438507, "types": ["car_repair", "point_of_interest", "store", "establishment"], "place_id": "ChIJSfibmtoVWBQRKQFQedKNvE0"}, {"name": "مستشفى الحرية التخصصى", "formatted_address": "11 Latif Mansour St، Almazah, El Nozha, Cairo Governorate, Egypt", "lat": 31.3438507, "types": ["hospital", "health", "point_of_interest", "establishment"], "place_id": "ChIJq7jFPhw-WBQRx7wGgL_7bO8"}, {"name": "art planet 369", "formatted_address": "Al Matar, El Nozha, Cairo Governorate, Egypt", "lat": 31.3438507, "types": ["point_of_interest", "establishment"], "place_id": "ChIJgW-2iYQVWBQRAcyJwo7q004"}, {"name": "Heliopolis Towers Hotel", "formatted_address": "El Shaheed Sayed Zakaria, Sheraton Al Matar, El Nozha, Cairo Governorate 11736, Egypt", "lat": 31.3661798, "types": ["lodging", "point_of_interest", "establishment"], "place_id": "ChIJZ9p3820WWBQRmZh2M_MSzOQ"}, {"name": "Hotel Concorde El Salam Cairo By Royal Tulip", "formatted_address": "69 Abd El-Hameed Badawi, St، El Nozha, Cairo Governorate, Egypt", "lat": 31.3480627, "types": ["lodging", "point_of_interest", "establishment"], "place_id": "ChIJ3b5I-fUVWBQRVG_oX-wQmZE"}, {"name": "المصرية لخدمات المؤتمرات", "formatted_address": "6 Al Abnasy Street, Mansheiet El-Bakry, Cairo Governorate 11341, Egypt", "lat": 31.3438507, "types": ["point_of_interest", "establishment"], "place_id": "ChIJV2-3ZtM_WBQRppQSBfVwTtY"}, {"name": "princess toys", "formatted_address": "Al Matar, El Nozha, Cairo Governorate, Egypt", "lat": 31.3438507, "types": ["point_of_interest", "store", "establishment"], "place_id": "ChIJqSpPHO8VWBQRezuQybllP-8"}, {"name": "El Dawleya Cars", "formatted_address": "61 Farid Semeika St.، Al Matar, Heliopolis, Cairo Governorate, Egypt", "lat": 31.344487, "types": ["point_of_interest", "establishment"], "place_id": "ChIJAeBmGKEVWBQRQZIutCFDKuU"}, {"name": "كيميت توريدات معدات مطارات ومقاولات", "formatted_address": "16 محمد غنيم، Al Matar, El Nozha, Cairo Governorate, Egypt", "lat": 31.342972, "types": ["point_of_interest", "establishment"], "place_id": "ChIJVVXlqyQ-WBQRnCPy1bxzWSs"}, {"name": "Zazy Collection", "formatted_address": "111 ش فريد سميكة، Al Matar, El Nozha, Cairo Governorate, Egypt", "lat": 31.345483, "types": ["point_of_interest", "establishment"], "place_id": "ChIJ3wzJitwVWBQR3wtC0gMctEE"}, {"name": "Media Rack", "formatted_address": "15 Abdel Azim Awadallah St.، Al Matar, Heliopolis, Cairo Governorate, Egypt", "lat": 31.342883, "types": ["point_of_interest", "establishment"], "place_id": "ChIJFbMI09wVWBQRc68dm8ldfsc"}, {"name": "Bromo Motors", "formatted_address": "160 ميدان الحجاز، Al Matar, El Nozha, Cairo Governorate, Egypt", "lat": 31.34491539999999, "types": ["point_of_interest", "establishment"], "place_id": "ChIJQSuK8dwVWBQRTcpR4vGXlyw"}, {"name": "Egipto Tour", "formatted_address": "Triumph square, 9 Mostafa Sadek El Rafae Street, Al Matar, El Nozha, Cairo Governorate 11361, Egypt", "lat": 31.3438507, "types": ["travel_agency", "point_of_interest", "establishment"], "place_id": "ChIJz1YOGw4VWBQR2H8smMZ423g"}, {"name": "الندى للسياحة", "formatted_address": "95 Mohammed Farid, Al Matar, El Nozha, Cairo Governorate, Egypt", "lat": 31.3429199, "types": ["travel_agency", "point_of_interest", "establishment"], "place_id": "ChIJ87OaqtwVWBQRi2RVO1IZb0w"}, {"name": "Maadi Island", "formatted_address": "Dar Al Salam, Giza Governorate, Egypt", "lat": 31.239237, "types": ["restaurant", "tourist_attraction", "park", "food", "point_of_interest", "establishment"], "place_id": "ChIJwY7d5MFHWBQRl1nMXlW_tUY"}, {"name": "Porto Heliopolis", "formatted_address": "Almazah, Heliopolis, Cairo Governorate, Egypt", "lat": 31.348709, "types": ["lodging", "point_of_interest", "establishment"], "place_id": "ChIJR5FCXgE-WBQR471eyuZuvGw"}, {"name": "Soliman Travel", "formatted_address": "95 ش فريد سميكة، Al Matar, El Nozha, Cairo Governorate, Egypt", "lat": 31.345483, "types": ["travel_agency", "point_of_interest", "establishment"], "place_id": "ChIJAeBmGKEVWBQR9txzbMNO-No"}, {"name": "Golden Park Hotel", "formatted_address": "شارع الحجاز ، مصر الجديده، 221 شارع الحجاز ، هيليوبوليس ،، El Nozha, Cairo Governorate, Egypt", "lat": 31.3525102, "types": ["lodging", "point_of_interest", "establishment"], "place_id": "ChIJsQQdRNgVWBQRss6fVxNFk_8"}, {"name": "فندق كنكورد السلام", "formatted_address": "المطار، قسم النزهة، محافظة القاهرة‬،، Egypt", "lat": 31.3438507, "types": ["lodging", "point_of_interest", "establishment"], "place_id": "ChIJZYOYs08VWBQRBPgJTZvjWGo"}, {"name": "Bedayat بدايات", "formatted_address": "51-53 Abou Bakr El-Sedeek, El-Bostan, Heliopolis, Cairo Governorate, Egypt", "lat": 31.3336797, "types": ["point_of_interest", "establishment"], "place_id": "ChIJNQuUjvIVWBQRh7cvzoMWCIY"}, {"name": "Church of the Great Martyr Saint George and Anba Ebram - كنيسة الشهيد العظيم مارجرجس و الأنبا ابرآم", "formatted_address": "54 Abd El-Aziz Fahmy, Al Matar, El Nozha, Cairo Governorate, Egypt", "lat": 31.3392792, "types": ["church", "place_of_worship", "point_of_interest", "establishment"], "place_id": "ChIJvzrXsekVWBQRye4OpOsJnNM"}, {"name": "مطبعة الأندلس", "formatted_address": "مصر الجديده الجرفه سابقن،، Egypt", "lat": 31.3438507, "types": ["point_of_interest", "establishment"], "place_id": "ChIJCX2oMEEVWBQRqJxm0dvnFks"}, {"name": "الهندسيه للستائر الرأسيه", "formatted_address": "مصر الجديده، القاهره، مصر فارغ، Egypt", "lat": 31.3438507, "types": ["home_goods_store", "point_of_interest", "store", "establishment"], "place_id": "ChIJT2uD_nYVWBQRmvvE3fIiJnw"}, {"name": "مصر الجديدة", "formatted_address": "المطار، قسم النزهة،، Cairo Governorate, Egypt", "lat": 31.3443623, "types": ["point_of_interest", "store", "establishment"], "place_id": "ChIJJ9PrwbkVWBQRv9pWnoGZE6o"}, {"name": "international consultant bureau", "formatted_address": "3 mohamed kamal eldin st, Al Matar, El Nozha, Cairo Governorate, Egypt", "lat": 31.3438507, "types": ["lawyer", "point_of_interest", "establishment"], "place_id": "ChIJ6--YtSEVWBQRQvC0-UUTb_s"}, {"name": "Arab film school", "formatted_address": "15-Al-Ahram Street, Heliopolis, Cairo Governorate 11757, Egypt", "lat": 31.3438507, "types": ["point_of_interest", "establishment"], "place_id": "ChIJcYZ1plEVWBQRfQ17CkMcvAQ"}, {"name": "EGENT Center (Heliopolis Branch)", "formatted_address": "24 el Ahram street, Al Matar, El Nozha, Cairo Governorate, Egypt", "lat": 31.3438507, "types": ["health", "point_of_interest", "establishment"], "place_id": "ChIJA9dUAxwVWBQRn6gBuXiy7yA"}, {"name": "كمبوند سكاي كابيتال", "formatted_address": "محافظة القاهرة‬،4 ش صلاح الدين من العروبه - مصر الجديده، Cairo Governorate 11736, Egypt", "lat": 31.3438507, "types": ["real_estate_agency", "lodging", "point_of_interest", "establishment"], "place_id": "ChIJxeUN-f6NVxQR4gOpLWmma2E"}, {"name": "Eduk Educational Consultant", "formatted_address": "10 Qaitbay St, Ismailia Square, Cairo Governorate, Egypt", "lat": 31.3438507, "types": ["point_of_interest", "establishment"], "place_id": "ChIJlZaYZbsVWBQRtvBn7GNVW1Y"}, {"name": "عصايروفاكه العالات الساعه", "formatted_address": "مصر الجديدة، المطار، قسم النزهة،، Cairo Governorate, Egypt", "lat": 31.3438507, "types": ["restaurant", "food", "point_of_interest", "establishment"], "place_id": "ChIJLQywCxQVWBQRHOOrmbgTJ9I"}, {"name": "OKKA Coffee Machine", "formatted_address": "5 ش ابن سينا - ميدان سفير Heliopolis القاهرة، 11757, Egypt", "lat": 31.3438507, "types": ["home_goods_store", "point_of_interest", "store", "establishment"], "place_id": "ChIJ30hiuoUVWBQRhk5mzfGj5Yc"}, {"name": "super", "formatted_address": "Al Matar, El Nozha, Cairo Governorate 11736, Egypt", "lat": 31.3438507, "types": ["secondary_school", "school", "point_of_interest", "establishment"], "place_id": "ChIJhznDAIIVWBQRSHr8c3DBaYU"}, {"name": "Child Center of Civilization and Creativity", "formatted_address": "أبو بكر الصديق street قسم، Egypt", "lat": 31.3349439, "types": ["point_of_interest", "establishment"], "place_id": "ChIJ1cMP2O0VWBQRtz0VMcBk7xQ"}, {"name": "مداك لانظمه الالومنيوم Madac for Aluminum Systems & U-PVC", "formatted_address": "53 شارع احمد زكى النزهه الجديده امام فلوبتير بالاس، مصر الجديده، القاهرة 11843، مصر Masr Elgdeda، Egypt", "lat": 31.3438507, "types": ["general_contractor", "point_of_interest", "establishment"], "place_id": "ChIJX5vK7EAVWBQRgVSZ83YGpW4"}, {"name": "go fianance", "formatted_address": "Al Matar, El Nozha, Cairo Governorate, Egypt", "lat": 31.3438507, "types": ["point_of_interest", "establishment"], "place_id": "ChIJp4eMKKYVWBQRkImXhuDazGc"}, {"name": "IDP Education & IELTS Testing - Cairo", "formatted_address": "31 Omar Bekir St off Othman Ibn Afan St, Othman Ibn Affan, Nozha, Cairo Governorate 11361, Egypt", "lat": 31.348553, "types": ["point_of_interest", "establishment"], "place_id": "ChIJYWJmM-EVWBQRsRn2yOGljFo"}, {"name": "سيتى كريب", "formatted_address": "علي،قسم النزهه ، أحمد محمود، Egypt", "lat": 31.3438507, "types": ["restaurant", "food", "point_of_interest", "store", "establishment"], "place_id": "ChIJFw-y-tkVWBQRDGCNSqSvMdo"}, {"name": "مركز الدكتور امجد الحداد حساسية ومناعه 12ش بطرس غالى روكسي مصر الجديده", "formatted_address": "12 شارع بطرس غالى روكسى، روكسي، مصر الجديده، Cairo Governorate, Egypt", "lat": 31.343851, "types": ["doctor", "health", "point_of_interest", "establishment"], "place_id": "ChIJf2fnvc4VWBQRy8CF-La2d4c"}, {"name": "A|X Heliopolis City Stars Mall", "formatted_address": "City Stars Mall Heliopolis, Il Cairo, 11757, Egypt", "lat": 31.34367929999999, "types": ["point_of_interest", "clothing_store", "store", "establishment"], "place_id": "ChIJi1N7kww_WBQR2_0TRndb_UU"}, {"name": "parrot crafts", "formatted_address": "19 mohamed elshaibani street, Al Matar, El Nozha, Cairo Governorate, Egypt", "lat": 31.3438507, "types": ["point_of_interest", "establishment"], "place_id": "ChIJpWN11U4VWBQRdMRql2T4eK4"}, {"name": "ورثة احمد حافظ", "formatted_address": "شارع, Cairo Governorate, Egypt", "lat": 31.3438507, "types": ["point_of_interest", "establishment"], "place_id": "ChIJZ5YXq9wVWBQR8n_hUliQaSQ"}, {"name": "Adel Sadek Law Firm", "formatted_address": "مصر الجديدة،، Cairo Governorate, Egypt", "lat": 31.3438507, "types": ["point_of_interest", "establishment"], "place_id": "ChIJJ0tK4Kk_WBQRJY8CWS6y4ok"}, {"name": "علي أبوهيف", "formatted_address": "مصر الجديدة الكوربة ش3 البوستة, Heliopolis, Cairo Governorate 11757, Egypt", "lat": 31.3438507, "types": ["point_of_interest", "establishment"], "place_id": "ChIJ26OLZNcVWBQRr73tM3AyTTM"}, {"name": "Hilton Cairo Heliopolis", "formatted_address": "El-Orouba, Sheraton Al Matar, El Nozha, Cairo Governorate, Egypt", "lat": 31.3646213, "types": ["lodging", "point_of_interest", "establishment"], "place_id": "ChIJUYFpLCELRRQRzCxbUHFt6Vs"}, {"name": "Hex Advertising", "formatted_address": "Cairo, Cairo Governorate 11757, Egypt", "lat": 31.3438043, "types": ["point_of_interest", "establishment"], "place_id": "ChIJeZyDI1M_WBQR0uRSvjPywB0"}, {"name": "Dr. Mina magdi dental clinic", "formatted_address": "60 Heliopolis st. El ibrahemya 2ndfloor, Egypt", "lat": 31.3438507, "types": ["dentist", "health", "point_of_interest", "establishment"], "place_id": "ChIJyVgcg9oVWBQRsq6fyvZ8Vu0"}, {"name": "Tarraqi HR, Training & Consultations", "formatted_address": "21 Mohammed Mahmoud Kassim, Al Matar, El Nozha, Cairo Governorate, Egypt", "lat": 31.3429521, "types": ["point_of_interest", "establishment"], "place_id": "ChIJwa-QtdwVWBQRp1eg20dNi8k"}]