[{"name": "New Cairo News", "formatted_address": "14 ش الشهيد احمد وصفى، Almazah, Heliopolis, Cairo Governorate, Egypt", "lat": 30.083787, "lng": 31.344744, "types": ["point_of_interest", "establishment"], "place_id": "ChIJ62U9bQM-WBQRrfg8A_Whzec"}, {"name": "Ittihadia Palace", "formatted_address": "Al Nadi، El-Montaza, Heliopolis, Cairo Governorate, Egypt", "lat": 30.0888643, "lng": 31.3193929, "types": ["tourist_attraction", "premise", "point_of_interest", "establishment"], "place_id": "ChIJuftqUS8-WBQRtM7fDk0QcPk"}, {"name": "Baron Empain Palace", "formatted_address": "El-Orouba, El-Montaza, Heliopolis, Cairo Governorate 11757, Egypt", "lat": 30.0866701, "lng": 31.3303332, "types": ["point_of_interest", "establishment"], "place_id": "ChIJ1_GM8iE-WBQRLNVi-RT7vDA"}, {"name": "Hamada", "formatted_address": "14 Ahmed Wasfi, Almazah, Heliopolis, Cairo Governorate, Egypt", "lat": 30.083317, "lng": 31.3441336, "types": ["point_of_interest", "establishment"], "place_id": "ChIJrwJJXQM-WBQR2ItNrQgvQls"}, {"name": "Al Ashmawi Park", "formatted_address": "Almazah, Heliopolis, Cairo Governorate, Egypt", "lat": 30.08320759999999, "lng": 31.3451877, "types": ["park", "point_of_interest", "establishment"], "place_id": "ChIJcbmoR-8_WBQR3EqxbxIiNWA"}, {"name": "Afify", "formatted_address": "9 ش العشماوى، العتبة، Heliopolis, Cairo Governorate, Egypt", "lat": 30.083485, "lng": 31.3455929, "types": ["point_of_interest", "establishment"], "place_id": "ChIJ9RbVnwM-WBQR4Cbc267HdIM"}, {"name": "Our Lady of Heliopolis Co-Cathedral", "formatted_address": "Nazih Khalifa crossroad، Al Ahram, Heliopolis, Cairo Governorate, Egypt", "lat": 30.0935707, "lng": 31.3251828, "types": ["church", "place_of_worship", "point_of_interest", "establishment"], "place_id": "ChIJJdgh-okVWBQR5TqTmKuQ0IM"}, {"name": "Ahmed Abdel Moneim", "formatted_address": "36 ش العشماوى، العتبة، Heliopolis, Cairo Governorate, Egypt", "lat": 30.083485, "lng": 31.3455929, "types": ["point_of_interest", "establishment"], "place_id": "ChIJ1bUFs71AWBQRzvIVY9d-fhI"}, {"name": "Cherries", "formatted_address": "16 madkour abou el ezz st.، Almazah, Heliopolis, Cairo Governorate, Egypt", "lat": 30.08303209999999, "lng": 31.3452357, "types": ["point_of_interest", "establishment"], "place_id": "ChIJh0P2eQM-WBQRmbRiN7wC3Oo"}, {"name": "Nasser For Elevators & Escalators", "formatted_address": "28 Almaza St.، Almazah, Heliopolis, Cairo Governorate, Egypt", "lat": 30.0842012, "lng": 31.3441059, "types": ["point_of_interest", "establishment"], "place_id": "ChIJk3g8FwM-WBQR5QywQcTawN4"}, {"name": "El Nour", "formatted_address": "8 ش العشماوى، العتبة، Heliopolis, Cairo Governorate, Egypt", "lat": 30.083485, "lng": 31.3455929, "types": ["point_of_interest", "establishment"], "place_id": "ChIJ9RbVnwM-WBQRxNx4czMg06A"}, {"name": "Aly Sultan", "formatted_address": "15 ش العشماوى، العتبة، Heliopolis, Cairo Governorate, Egypt", "lat": 30.083485, "lng": 31.3455929, "types": ["point_of_interest", "establishment"], "place_id": "ChIJ9RbVnwM-WBQRRVvjQ1-OzoI"}, {"name": "Al Jazeera For Engineering & Trading", "formatted_address": "3 El Shaheed Ahmed Wasfy St.، Almazah, Heliopolis, Cairo Governorate, Egypt", "lat": 30.083974, "lng": 31.3452853, "types": ["point_of_interest", "establishment"], "place_id": "ChIJ_RxQXQM-WBQR7_uTx_HOxKs"}, {"name": "Mohamed Abdel Zaher Sons", "formatted_address": "29 ش العشماوى، العتبة، Heliopolis, Cairo Governorate, Egypt", "lat": 30.083485, "lng": 31.3455929, "types": ["point_of_interest", "establishment"], "place_id": "ChIJ9RbVnwM-WBQRqYwMCC8Gn6k"}, {"name": "Fathy", "formatted_address": "17 ش العشماوى، العتبة، Heliopolis, Cairo Governorate, Egypt", "lat": 30.083485, "lng": 31.3455929, "types": ["point_of_interest", "establishment"], "place_id": "ChIJ9RbVnwM-WBQReY72nwJYbas"}, {"name": "MCC - Middle East Commercial Center", "formatted_address": "15 ش الماظة، Almazah, Heliopolis, Cairo Governorate, Egypt", "lat": 30.0839663, "lng": 31.3441336, "types": ["point_of_interest", "establishment"], "place_id": "ChIJd78yPgM-WBQRewY44gJ7jgE"}, {"name": "Arab Federation For Wild Life Protection", "formatted_address": "6 Abdel Azim El Ashmawy St.، Almazah, Heliopolis, Cairo Governorate, Egypt", "lat": 30.0834857, "lng": 31.3455526, "types": ["park", "point_of_interest", "establishment"], "place_id": "ChIJ9RbVnwM-WBQRW9f0jegSptU"}, {"name": "The Egyptian Group For Trading - Opticon", "formatted_address": "36 El Shaheed Ahmed Wasfy St.، Almazah, Heliopolis, Cairo Governorate, Egypt", "lat": 30.083974, "lng": 31.3452853, "types": ["point_of_interest", "establishment"], "place_id": "ChIJg_J4NQI-WBQRUSQ4dvZ4d3w"}, {"name": "مكتب المستشار حسين غريب للمحاماة والاستشارات القانونية", "formatted_address": "22 ش الشهيد، Ahmed Wasfi, Heliopolis, Cairo Governorate, Egypt", "lat": 30.084271, "lng": 31.345625, "types": ["lawyer", "point_of_interest", "establishment"], "place_id": "ChIJnXE8pjg_WBQRlvZYzjdCOJI"}, {"name": "El Ethad For Electric Supplies", "formatted_address": "40 ش العشماوى، العتبة، Heliopolis, Cairo Governorate, Egypt", "lat": 30.083485, "lng": 31.3455929, "types": ["point_of_interest", "establishment"], "place_id": "ChIJ9RbVnwM-WBQRnZnz9t4tAlw"}, {"name": "Borders Egypt Center Heliopolis", "formatted_address": "34 Ahmed Wasfi, Almazah, Heliopolis, Cairo Governorate, Egypt", "lat": 30.0846602, "lng": 31.3471003, "types": ["point_of_interest", "establishment"], "place_id": "ChIJRW71pjQ_WBQRVdO6jwWX-tY"}, {"name": "Aya & Radwa & Azza", "formatted_address": "31 ش العشماوى، العتبة، Heliopolis, Cairo Governorate, Egypt", "lat": 30.083485, "lng": 31.3455929, "types": ["point_of_interest", "establishment"], "place_id": "ChIJIygetb1AWBQRfTHQAgdY3Mc"}, {"name": "Said & Nino", "formatted_address": "27 ش العشماوى، العتبة، Heliopolis, Cairo Governorate, Egypt", "lat": 30.083485, "lng": 31.3455929, "types": ["point_of_interest", "establishment"], "place_id": "ChIJ9RbVnwM-WBQRq1WF1xcB-pw"}, {"name": "Mazen", "formatted_address": "20 ش العشماوى، العتبة، Heliopolis, Cairo Governorate, Egypt", "lat": 30.083485, "lng": 31.3455929, "types": ["point_of_interest", "establishment"], "place_id": "ChIJ9RbVnwM-WBQRft7g91IRIlo"}, {"name": "El Aseel", "formatted_address": "20 ش العشماوى، العتبة، Heliopolis, Cairo Governorate, Egypt", "lat": 30.083485, "lng": 31.3455929, "types": ["point_of_interest", "establishment"], "place_id": "ChIJ9RbVnwM-WBQRAbxvj1hDKyQ"}, {"name": "Abdu Mostafa Mosque", "formatted_address": "Almazah, Heliopolis, Cairo Governorate, Egypt", "lat": 30.08489329999999, "lng": 31.3464631, "types": ["mosque", "place_of_worship", "point_of_interest", "establishment"], "place_id": "ChIJD2zCSAI-WBQRbTz2SaZh_zo"}, {"name": "First Power", "formatted_address": "40 ش العشماوى، العتبة، Heliopolis, Cairo Governorate, Egypt", "lat": 30.083485, "lng": 31.3455929, "types": ["point_of_interest", "establishment"], "place_id": "ChIJ9RbVnwM-WBQRTmtGktbULeA"}, {"name": "Falcon East", "formatted_address": "9 ش العشماوى، العتبة، Heliopolis, Cairo Governorate, Egypt", "lat": 30.083485, "lng": 31.3455929, "types": ["point_of_interest", "establishment"], "place_id": "ChIJ9RbVnwM-WBQRN6T3x5uhmf8"}, {"name": "Christal Light", "formatted_address": "26 ش العشماوى، العتبة، Heliopolis, Cairo Governorate, Egypt", "lat": 30.083485, "lng": 31.3455929, "types": ["point_of_interest", "establishment"], "place_id": "ChIJ9RbVnwM-WBQRyAl9ni6wLoo"}, {"name": "Monkeys", "formatted_address": "23 Ahmed Wasfi, Almazah, Heliopolis, Cairo Governorate, Egypt", "lat": 30.0841629, "lng": 31.3461882, "types": ["point_of_interest", "establishment"], "place_id": "ChIJj4GOrwM-WBQRa4CQKTkkGEI"}, {"name": "Cubes Nursery", "formatted_address": "30 ش الشهيد احمد وصفى، مصر الجديدة، القاهرة، Cairo Governorate, Egypt", "lat": 30.084526, "lng": 31.346439, "types": ["school", "point_of_interest", "establishment"], "place_id": "ChIJuY1QsgM-WBQR5syuKOIEVbI"}, {"name": "French Egyptian For Covering Cables Wire", "formatted_address": "25 ش العشماوى، العتبة، Heliopolis, Cairo Governorate, Egypt", "lat": 30.083485, "lng": 31.3455929, "types": ["point_of_interest", "establishment"], "place_id": "ChIJ9RbVnwM-WBQROaHRFBJpEJ0"}, {"name": "Porto Heliopolis", "formatted_address": "Almazah, Heliopolis, Cairo Governorate, Egypt", "lat": 30.0827031, "lng": 31.348709, "types": ["lodging", "point_of_interest", "establishment"], "place_id": "ChIJR5FCXgE-WBQR471eyuZuvGw"}, {"name": "The Learning Center", "formatted_address": "34 ش الشهيد احمد وصفى، Almazah, Heliopolis, Cairo Governorate, Egypt", "lat": 30.084798, "lng": 31.346784, "types": ["point_of_interest", "establishment"], "place_id": "ChIJLU2mSwI-WBQR_sz-_1W0B8o"}, {"name": "El Adl Wires & Cables", "formatted_address": "10 متفرع من ش العشماوى، العتبة، Heliopolis, Cairo Governorate, Egypt", "lat": 30.083485, "lng": 31.3455929, "types": ["point_of_interest", "establishment"], "place_id": "ChIJox9ovL1AWBQRFenc3wv_Tbs"}, {"name": "Top Clean", "formatted_address": "Almazah, Heliopolis, Cairo Governorate, Egypt", "lat": 30.0839653, "lng": 31.3450638, "types": ["point_of_interest", "establishment"], "place_id": "ChIJNY9TDAM-WBQRYsuxPZ3cTMo"}, {"name": "Mihy Designs", "formatted_address": "35 Almazah, Heliopolis, Cairo Governorate, Egypt", "lat": 30.0843609, "lng": 31.3444219, "types": ["point_of_interest", "establishment"], "place_id": "ChIJoaPqFgM-WBQR4UcRCNUmXbY"}, {"name": "Magar", "formatted_address": "9 ش العشماوى، العتبة، Heliopolis, Cairo Governorate, Egypt", "lat": 30.083485, "lng": 31.3455929, "types": ["point_of_interest", "establishment"], "place_id": "ChIJ9RbVnwM-WBQRqSfVmsq3rjg"}, {"name": "Electro Power", "formatted_address": "40 ش العشماوى، العتبة، Heliopolis, Cairo Governorate, Egypt", "lat": 30.083485, "lng": 31.3455929, "types": ["point_of_interest", "establishment"], "place_id": "ChIJ9RbVnwM-WBQRWBblgTCWJp4"}, {"name": "High Light", "formatted_address": "15 Gamal Nouh, Almazah, Heliopolis, Cairo Governorate, Egypt", "lat": 30.0828153, "lng": 31.3448037, "types": ["point_of_interest", "establishment"], "place_id": "ChIJFZMaYwM-WBQRw9jVJgWXPR0"}, {"name": "Flame Egypt", "formatted_address": "28 متفرع من ش عمر بن الخطاب - ميدان الماظة، Almazah, Heliopolis, Cairo Governorate, Egypt", "lat": 30.0858974, "lng": 31.346888, "types": ["point_of_interest", "establishment"], "place_id": "ChIJGXSBOQI-WBQRAdd6UyddQuY"}, {"name": "El Ashry", "formatted_address": "31 ش العشماوى، العتبة، Heliopolis, Cairo Governorate, Egypt", "lat": 30.083485, "lng": 31.3455929, "types": ["point_of_interest", "establishment"], "place_id": "ChIJ9RbVnwM-WBQR4vflTKDm0Ns"}, {"name": "KidZania Cairo", "formatted_address": "Plot 10A05, Cairo Festival City, 5th Settlement New Cairo, Cairo Governorate 11341, Egypt", "lat": 30.0313825, "lng": 31.4050606, "types": ["tourist_attraction", "amusement_park", "point_of_interest", "establishment"], "place_id": "ChIJpfnKHwI9WBQRma2yF3wwR8g"}, {"name": "Object Studio", "formatted_address": "26 Gamal Nouh St.، Almazah, Heliopolis, Cairo Governorate, Egypt", "lat": 30.0825287, "lng": 31.3451582, "types": ["point_of_interest", "establishment"], "place_id": "ChIJW83rfQM-WBQRQK_Zqpj_y2Y"}, {"name": "دكتور حسين زهدى الشافعى", "formatted_address": "Ahmed Wasfi, Almazah, Heliopolis, Cairo Governorate, Egypt", "lat": 30.083974, "lng": 31.3452853, "types": ["doctor", "health", "point_of_interest", "establishment"], "place_id": "ChIJrfzsCwM-WBQRJijbWnetLpE"}, {"name": "Abdou Sholah", "formatted_address": "36 ش العشماوى، العتبة، Heliopolis, Cairo Governorate, Egypt", "lat": 30.083485, "lng": 31.3455929, "types": ["point_of_interest", "establishment"], "place_id": "ChIJ9RbVnwM-WBQRI8z0bk33EqY"}, {"name": "Sanabel Forage", "formatted_address": "133 Omar Ibn El-Khattab, Almazah, Heliopolis, Cairo Governorate, Egypt", "lat": 30.0834957, "lng": 31.3475521, "types": ["point_of_interest", "establishment"], "place_id": "ChIJJZlixAM-WBQR4MQzRFDnw7c"}, {"name": "Golden Home", "formatted_address": "137 Omar Ibn El-Khattab, Almazah, Heliopolis, Cairo Governorate, Egypt", "lat": 30.082972, "lng": 31.3474488, "types": ["point_of_interest", "establishment"], "place_id": "ChIJUWR06QM-WBQRvlQ8bSBcKzY"}, {"name": "المجموعة المصرية للتجارة", "formatted_address": "احمد وصفى, 36 ش الشهيد, خلف مستشفى جوهر, Heliopolis, Cairo Governorate, Egypt", "lat": 30.0847915, "lng": 31.3470288, "types": ["point_of_interest", "store", "establishment"], "place_id": "ChIJiVLUsjk_WBQRnUwaeNxnUyA"}, {"name": "Carlain center", "formatted_address": "14 Ahmed Wasfi, Almazah, Heliopolis, Cairo Governorate, Egypt", "lat": 30.0837831, "lng": 31.3444535, "types": ["hospital", "health", "point_of_interest", "establishment"], "place_id": "ChIJR5Rp-w4_WBQRDEpLaHi5bvs"}, {"name": "Speed", "formatted_address": "Almazah, Heliopolis, Cairo Governorate, Egypt", "lat": 30.0847465, "lng": 31.3468341, "types": ["point_of_interest", "establishment"], "place_id": "ChIJmXoCSwI-WBQRZbJ8tlxrTdA"}, {"name": "El Ehraa", "formatted_address": "14 Ahmed Wasfi, Almazah, Heliopolis, Cairo Governorate, Egypt", "lat": 30.083317, "lng": 31.3441336, "types": ["clothing_store", "point_of_interest", "store", "establishment"], "place_id": "ChIJrcRSXQM-WBQRKolnpnwKBZw"}, {"name": "Dars mama", "formatted_address": "23 Ahmed Wasfi, Almazah, Heliopolis, Cairo Governorate, Egypt", "lat": 30.0840578, "lng": 31.3462254, "types": ["school", "point_of_interest", "establishment"], "place_id": "ChIJ1_GWoa8_WBQRl8f3rtuoDsU"}, {"name": "شعر وذقن", "formatted_address": "34 ش الشهيد, Ahmed Wasfi, Almazah, Heliopolis, Cairo Governorate, Egypt", "lat": 30.0847649, "lng": 31.3467823, "types": ["beauty_salon", "hair_care", "point_of_interest", "establishment"], "place_id": "ChIJURA2S_s_WBQRy_Wb14qZLzs"}, {"name": "Physiotherapist Marwa", "formatted_address": "23 Ahmed Wasfi, Almazah, Heliopolis, Cairo Governorate, Egypt", "lat": 30.0841585, "lng": 31.3460373, "types": ["doctor", "health", "point_of_interest", "establishment"], "place_id": "ChIJv8BIrwM-WBQRwQXOYjc-KJk"}, {"name": "دار مريم للرعاية", "formatted_address": "20 شارع محمود فؤاد, متفرع من جمال نوح ,ألماظة, Heliopolis, Cairo, Cairo Governorate 11341, Egypt", "lat": 30.082801, "lng": 31.347116, "types": ["lodging", "point_of_interest", "establishment"], "place_id": "ChIJxehFh34_WBQRJUW53CQK3-E"}, {"name": "ايديال للورق", "formatted_address": "34 ش الشهيد، Ahmed Wasfi, Heliopolis, Cairo Governorate, Egypt", "lat": 30.0847405, "lng": 31.3468062, "types": ["point_of_interest", "establishment"], "place_id": "ChIJMd4jDwM_WBQRugF1fbbQf1o"}, {"name": "Dr Emile Hanna Dental Clinic", "formatted_address": "1 Ahmed Wasfi, Almazah, Heliopolis, Cairo Governorate, Egypt", "lat": 30.08363649999999, "lng": 31.3445425, "types": ["dentist", "health", "point_of_interest", "establishment"], "place_id": "ChIJ28v5SNg_WBQR5eQgYv7ond0"}, {"name": "Ra Sport", "formatted_address": "25 Gamal Nouh, Almazah, Heliopolis, Cairo Governorate, Egypt", "lat": 30.0822839, "lng": 31.3455483, "types": ["point_of_interest", "establishment"], "place_id": "ChIJuWHagQM-WBQRLyEjsgHrGa8"}, {"name": "M Square Studio", "formatted_address": "32 Ahmed Wasfi, Almazah, Heliopolis, Cairo Governorate 11775, Egypt", "lat": 30.0846612, "lng": 31.3465748, "types": ["point_of_interest", "establishment"], "place_id": "ChIJN4zO6gs_WBQRjn5jjXOVB_0"}]