[{"name": "Ittihadia Palace", "formatted_address": "Al Nadi، El-Montaza, Heliopolis, Cairo Governorate, Egypt", "lat": 30.0888643, "lng": 31.3193929, "types": ["tourist_attraction", "premise", "point_of_interest", "establishment"], "place_id": "ChIJuftqUS8-WBQRtM7fDk0QcPk"}, {"name": "Baron Empain Palace", "formatted_address": "El-Orouba, El-Montaza, Heliopolis, Cairo Governorate 11757, Egypt", "lat": 30.0866701, "lng": 31.3303332, "types": ["point_of_interest", "establishment"], "place_id": "ChIJ1_GM8iE-WBQRLNVi-RT7vDA"}, {"name": "Our Lady of Heliopolis Co-Cathedral", "formatted_address": "Nazih Khalifa crossroad، Al Ahram, Heliopolis, Cairo Governorate, Egypt", "lat": 30.0935707, "lng": 31.3251828, "types": ["church", "place_of_worship", "point_of_interest", "establishment"], "place_id": "ChIJJdgh-okVWBQR5TqTmKuQ0IM"}, {"name": "مسجد العاشر من رمضان", "formatted_address": "Gesr Al Suez, El-Montaza, Heliopolis, Cairo Governorate, Egypt", "lat": 30.095681, "lng": 31.3116517, "types": ["mosque", "place_of_worship", "point_of_interest", "establishment"], "place_id": "ChIJK8V9ZCo-WBQROpX0_Q2MGjs"}, {"name": "New Hamdy", "formatted_address": "Al Montazah, Heliopolis, Cairo Governorate, Egypt", "lat": 30.096692, "lng": 31.3129225, "types": ["point_of_interest", "establishment"], "place_id": "ChIJFQ4oo4AVWBQRoaWnjrHY5WQ"}, {"name": "Abdeen Palace Museum", "formatted_address": "شارع جمعه عابدين،، El-Gomhoreya Square, Rahbet Abdin, Abdeen, Cairo Governorate, Egypt", "lat": 30.0422696, "lng": 31.248544, "types": ["tourist_attraction", "museum", "point_of_interest", "establishment"], "place_id": "ChIJF_ZR9bpAWBQR_WeDJloU-7o"}, {"name": "كاير زون", "formatted_address": "7 شارع المعالي الدور الأرضي شقة 1 - روكسي - هليوبوليس، 7 Al Maali, El-Montaza, Heliopolis, Cairo Governorate, Egypt", "lat": 30.0952873, "lng": 31.3123313, "types": ["point_of_interest", "establishment"], "place_id": "ChIJ90D8ayo-WBQRrihjq_ehlnc"}, {"name": "مسجد العاشر من رمضان", "formatted_address": "٦٦ ش جسر السويس/ حي، Saraya Al Koba, قسم الزيتون، Cairo Governorate, Egypt", "lat": 30.0964207, "lng": 31.3114743, "types": ["mosque", "place_of_worship", "point_of_interest", "establishment"], "place_id": "ChIJ4esFfyo-WBQR3b35fHyIm-Y"}, {"name": "Nails Boutique", "formatted_address": "٢ شارع المعالى متفرع من جسر السويس محطة روكسي قسم،, Gesr Al Suez, Cairo Governorate, Egypt", "lat": 30.0958342, "lng": 31.3118646, "types": ["beauty_salon", "point_of_interest", "establishment"], "place_id": "ChIJaeg1cCo-WBQRuZkMUlSaRKo"}, {"name": "El Maleka & El Amir Juice", "formatted_address": "القاهرة, سراى القبة، Egypt", "lat": 30.094221, "lng": 31.31239, "types": ["point_of_interest", "establishment"], "place_id": "ChIJIWzaSCo-WBQRDKXbTu0IazM"}, {"name": "Loux", "formatted_address": "Mansheyat Al Bakri, Heliopolis, Cairo Governorate, Egypt", "lat": 30.0947024, "lng": 31.3110171, "types": ["point_of_interest", "establishment"], "place_id": "ChIJb5be-So-WBQRRS2PH1VMBn4"}, {"name": "Intelligent For Trade & Agents", "formatted_address": "14 El Qobba St.، El-Montaza, Heliopolis, Cairo Governorate, Egypt", "lat": 30.0945343, "lng": 31.3131012, "types": ["point_of_interest", "establishment"], "place_id": "ChIJFSjme4AVWBQRb27cxvnclQo"}, {"name": "Rama For Building Systems", "formatted_address": "2 El-Qobba, El-Montaza, Heliopolis, Cairo Governorate, Egypt", "lat": 30.095586, "lng": 31.31199, "types": ["point_of_interest", "establishment"], "place_id": "ChIJ30d-byo-WBQRzyt3-IGRdQA"}, {"name": "Coiffure Maher", "formatted_address": "شارع المعالى متفرع من جسر السويس محطة روكسي قسم، Zeitoun, Cairo Governorate, Egypt", "lat": 30.0954481, "lng": 31.3121445, "types": ["beauty_salon", "point_of_interest", "establishment"], "place_id": "ChIJhY4mbyo-WBQRFG9F8agGE9U"}, {"name": "Multi Gates For Industrial Development", "formatted_address": "77 Gesr El Suez St.، GESR EL SUEZ، Heliopolis, Cairo Governorate, Egypt", "lat": 30.09638, "lng": 31.312177, "types": ["point_of_interest", "establishment"], "place_id": "ChIJfdLreZEWWBQRp7mGAbDR58I"}, {"name": "Go Heliopolis - Khozam The First Compound In Heliopolis", "formatted_address": "شارع النزهة، مصر الجديدة،، Egypt", "lat": 30.0732268, "lng": 31.3397646, "types": ["lodging", "point_of_interest", "establishment"], "place_id": "ChIJZ7ZHBKs_WBQRJD3Ntp2Q_ww"}, {"name": "Cynna", "formatted_address": "13 القبه، Mansheya El-Bakry, Heliopolis, Cairo Governorate, Egypt", "lat": 30.0943894, "lng": 31.3120818, "types": ["point_of_interest", "establishment"], "place_id": "ChIJ0_qSTyo-WBQRi_W4gVJiYos"}, {"name": "Captain Tours", "formatted_address": "81 Gesr Al Suez, El-Montaza, Heliopolis, Cairo Governorate, Egypt", "lat": 30.0966055, "lng": 31.3128003, "types": ["travel_agency", "point_of_interest", "establishment"], "place_id": "ChIJGcL8uTUXWBQRp5DojJHzLA0"}, {"name": "Heliopolis Seventh-day Adventist Church", "formatted_address": "القبه، El-Montaza, Heliopolis, Cairo Governorate, Egypt", "lat": 30.0941495, "lng": 31.3136432, "types": ["church", "place_of_worship", "point_of_interest", "establishment"], "place_id": "ChIJY011KCo-WBQRaeY8phOmL6s"}, {"name": "Salone", "formatted_address": "٢ شارع المعالى متفرع من جسر السويس محطة روكسي قسم، Zeitoun, Cairo Governorate, Egypt", "lat": 30.0959418, "lng": 31.3119229, "types": ["hair_care", "health", "point_of_interest", "establishment"], "place_id": "ChIJ33Rieio-WBQR7WkVJK_GtwA"}, {"name": "The Egyptian Museum", "formatted_address": "شارع ماريت باشا، ميدان التحرير، Egypt", "lat": 30.0475781, "lng": 31.23361389999999, "types": ["museum", "tourist_attraction", "point_of_interest", "establishment"], "place_id": "ChIJw741VYhBWBQRD2Z6OiulDVI"}, {"name": "The Child Museum", "formatted_address": "34 Abou Bakr El-Sedeek, El-Bostan, Heliopolis, Cairo Governorate, Egypt", "lat": 30.1022381, "lng": 31.33694599999999, "types": ["tourist_attraction", "museum", "point_of_interest", "establishment"], "place_id": "ChIJz-2ngvIVWBQR0usMZT-HkR8"}, {"name": "الكنيسة الانجيلية بسراي القبة", "formatted_address": "Gesr Al Suez, El-Montaza, Heliopolis, Cairo Governorate, Egypt", "lat": 30.0967138, "lng": 31.3128667, "types": ["church", "place_of_worship", "point_of_interest", "establishment"], "place_id": "ChIJZVAfvYAVWBQRquE4rhJPeXI"}, {"name": "Baraaem El Eman", "formatted_address": "AZ Zaytoun Ash Sharqeyah, AZ Zaytoun, Cairo Governorate, Egypt", "lat": 30.0968055, "lng": 31.3119946, "types": ["point_of_interest", "establishment"], "place_id": "ChIJr_9Km4AVWBQRcCdnk8SddNk"}, {"name": "مؤسسة الأستاذ للتجارة", "formatted_address": "2 Al Maali, El-Montaza, Heliopolis, Cairo Governorate, Egypt", "lat": 30.0959491, "lng": 31.3119608, "types": ["car_repair", "point_of_interest", "store", "establishment"], "place_id": "ChIJCcHCeio-WBQR7oUNg6cI_j0"}, {"name": "Alfred & Mina Beauty Salon Roxy", "formatted_address": "6 El-Magd St, Off EL-Koba St behind Samir William , Heliopolis, Cairo Governorate 11757, Egypt", "lat": 30.0952341, "lng": 31.3128344, "types": ["beauty_salon", "point_of_interest", "establishment"], "place_id": "ChIJ9f6FFCo-WBQRu79FLCvUCHM"}, {"name": "Porto Heliopolis", "formatted_address": "Almazah, Heliopolis, Cairo Governorate, Egypt", "lat": 30.0827031, "lng": 31.348709, "types": ["lodging", "point_of_interest", "establishment"], "place_id": "ChIJR5FCXgE-WBQR471eyuZuvGw"}, {"name": "Safety", "formatted_address": "55 تقاطع ش القبة، جسر السويس، القاهرة، Cairo Governorate, Egypt", "lat": 30.094224, "lng": 31.310482, "types": ["point_of_interest", "establishment"], "place_id": "ChIJHT2h4io-WBQRwcfPDI4Qlro"}, {"name": "Cairo Zone", "formatted_address": "7 Al Maali, El-Montaza, Heliopolis, Cairo Governorate, Egypt", "lat": 30.0952143, "lng": 31.3122143, "types": ["point_of_interest", "establishment"], "place_id": "ChIJeWC6bio-WBQRDOt-0jKTRoI"}, {"name": "MEED - Middle East Economic Development", "formatted_address": "6 El Saada St.، El-Montaza, Heliopolis, Cairo Governorate, Egypt", "lat": 30.0963, "lng": 31.3134, "types": ["point_of_interest", "establishment"], "place_id": "ChIJXZAhqYAVWBQRKjdkfjpCalk"}, {"name": "El Maaly Group For Recruitment", "formatted_address": "21 Roxi، Mansheya El-Bakry, Heliopolis, Cairo Governorate, Egypt", "lat": 30.0905494, "lng": 31.3110389, "types": ["point_of_interest", "establishment"], "place_id": "ChIJLYF_iCw-WBQRCeeSp78sdyo"}, {"name": "Heliopolis Towers Hotel", "formatted_address": "El Shaheed Sayed Zakaria, Sheraton Al Matar, El Nozha, Cairo Governorate 11736, Egypt", "lat": 30.1074763, "lng": 31.3661798, "types": ["lodging", "point_of_interest", "establishment"], "place_id": "ChIJZ9p3820WWBQRmZh2M_MSzOQ"}, {"name": "مسجد عباد الرحمن", "formatted_address": "El-Saada, El-Montaza, Heliopolis, Cairo Governorate, Egypt", "lat": 30.0963107, "lng": 31.3124535, "types": ["mosque", "place_of_worship", "point_of_interest", "establishment"], "place_id": "ChIJN6JHnoAVWBQRnUXfCccuVy4"}, {"name": "مكتب جمال توفيق سليمان", "formatted_address": "شارع جسر السويس محطة روكسي قسم، Zeitoun, Cairo Governorate, Egypt", "lat": 30.0957656, "lng": 31.3117875, "types": ["lawyer", "point_of_interest", "establishment"], "place_id": "ChIJkespZSo-WBQREmdOV9BL5Q4"}, {"name": "مسجد الخير", "formatted_address": "حي، ش جسر السويس، Saraya Al Koba, قسم الزيتون، Egypt", "lat": 30.0970215, "lng": 31.3122384, "types": ["mosque", "place_of_worship", "point_of_interest", "establishment"], "place_id": "ChIJYxqZkIAVWBQR4bq1t_iB2yk"}, {"name": "Heliopolis Sporting Club (HSC)", "formatted_address": "17 El-Sayed El-Marghany, Mansheya El-Bakry, Heliopolis, Cairo Governorate, Egypt", "lat": 30.0883155, "lng": 31.3164398, "types": ["point_of_interest", "establishment"], "place_id": "ChIJB9zy8B4-WBQRz_zRpJte8sA"}, {"name": "فرست براق للسياحة", "formatted_address": "شارع جسر السويس،مصر الجديدة،قسم مصر الجديدة،، Egypt", "lat": 30.0963185, "lng": 31.3124425, "types": ["travel_agency", "point_of_interest", "establishment"], "place_id": "ChIJWx70dSo-WBQRytlmHTiLoeI"}, {"name": "Maadi Island", "formatted_address": "Dar Al Salam, Giza Governorate, Egypt", "lat": 29.965527, "lng": 31.239237, "types": ["restaurant", "tourist_attraction", "park", "food", "point_of_interest", "establishment"], "place_id": "ChIJwY7d5MFHWBQRl1nMXlW_tUY"}, {"name": "Radisson Blu Hotel, Cairo Heliopolis", "formatted_address": "Abdel Hamid Badawi St Heliopolis, Cairo Governorate 11787, Egypt", "lat": 30.1065093, "lng": 31.3753121, "types": ["lodging", "point_of_interest", "establishment"], "place_id": "ChIJQZJ8fWUWWBQRAUPO9I6SxPg"}, {"name": "Baron Hotel Heliopolis", "formatted_address": "14 Al Baroon, El-Montaza, Heliopolis, Cairo Governorate, Egypt", "lat": 30.0860748, "lng": 31.3314609, "types": ["lodging", "point_of_interest", "establishment"], "place_id": "ChIJUbVOACI-WBQRWsi5B7gYfxs"}, {"name": "Nataly Tours Malaysia", "formatted_address": "81 Gesr Al Suez, El-Montaza, Heliopolis, Cairo Governorate, Egypt", "lat": 30.0966718, "lng": 31.3127384, "types": ["travel_agency", "point_of_interest", "establishment"], "place_id": "ChIJK6vxsmkVWBQRSCGZ7OWXavI"}, {"name": "Post Office - West Heliopolis", "formatted_address": "El-Nozha, El Nozha, Cairo Governorate, Egypt", "lat": 30.1036179, "lng": 31.33018539999999, "types": ["post_office", "finance", "point_of_interest", "establishment"], "place_id": "ChIJ-1tRxpIVWBQR8pyCMmqAgXM"}, {"name": "St. Mark Coptic Orthodox Church Cleopatra", "formatted_address": "35 كيلوباترا، الماظة، قسم مصر الجديدة،، Cairo Governorate, Egypt", "lat": 30.0924011, "lng": 31.3296246, "types": ["church", "place_of_worship", "point_of_interest", "establishment"], "place_id": "ChIJH3kNmooVWBQRfL4z5mf-KXU"}, {"name": "PRISM Entertainment - Roxy", "formatted_address": "7 Al Ashgar, Mansheya El-Bakry, Heliopolis, Cairo Governorate, Egypt", "lat": 30.0932862, "lng": 31.3136319, "types": ["electronics_store", "home_goods_store", "point_of_interest", "store", "establishment"], "place_id": "ChIJ2bcZ0ys-WBQRX4ODYHi2jeQ"}, {"name": "The Great Pyramid of Giza", "formatted_address": "Al Haram, Nazlet El-Semman, Al Giza Desert, Giza Governorate, Egypt", "lat": 29.9792345, "lng": 31.1342019, "types": ["tourist_attraction", "premise", "point_of_interest", "establishment"], "place_id": "ChIJGymPrIdFWBQRJCSloj8vDIE"}, {"name": "كشك بيبسي", "formatted_address": "El-Montaza, Heliopolis, Cairo Governorate, Egypt", "lat": 30.0960631, "lng": 31.3117822, "types": ["point_of_interest", "establishment"], "place_id": "ChIJg25uBLw_WBQRD2fUd6JyJ9I"}, {"name": "أيمن المفتى", "formatted_address": "٧أ شارع القبة محطة روكسي قسم، Zeitoun, Cairo Governorate, Egypt", "lat": 30.0947235, "lng": 31.31147159999999, "types": ["lawyer", "point_of_interest", "establishment"], "place_id": "ChIJUQ-uWSo-WBQRM5Rmoy7nA0c"}, {"name": "مكتب المستشار القانونى والمحكم الدولى أحمد محمد أحمد المعلوف", "formatted_address": "شارع جسر السويس محطة روكسي قسم، Zeitoun, Cairo Governorate, Egypt", "lat": 30.0959929, "lng": 31.3108588, "types": ["lawyer", "point_of_interest", "establishment"], "place_id": "ChIJGUNGjyo-WBQR1icsLgwf4cY"}, {"name": "محلات فؤاد عازر", "formatted_address": "محطة روكسي، ٢ شارع القبة متفرع من، Gesr Al Suez, Cairo Governorate, Egypt", "lat": 30.0955563, "lng": 31.3114673, "types": ["grocery_or_supermarket", "food", "point_of_interest", "store", "establishment"], "place_id": "ChIJ4a9-YSo-WBQRw4IWDZeHyj0"}, {"name": "Heliopolis Company For Housing & Development", "formatted_address": "28 Ibrahim Al Lakani, El-Montaza, Heliopolis, Cairo Governorate, Egypt", "lat": 30.089427, "lng": 31.32091599999999, "types": ["general_contractor", "point_of_interest", "establishment"], "place_id": "ChIJeUp1DiY-WBQRkHRQbiaGSrA"}, {"name": "Golden Park Hotel", "formatted_address": "شارع الحجاز ، مصر الجديده، 221 شارع الحجاز ، هيليوبوليس ،، El Nozha, Cairo Governorate, Egypt", "lat": 30.1153686, "lng": 31.3525102, "types": ["lodging", "point_of_interest", "establishment"], "place_id": "ChIJsQQdRNgVWBQRss6fVxNFk_8"}, {"name": "Dr. Mohamed A Baky Fahmy, Pediatricsurgeon", "formatted_address": "Gesr Al Suez, روكسي، Heliopolis, Cairo Governorate, Egypt", "lat": 30.0957096, "lng": 31.3110583, "types": ["doctor", "health", "point_of_interest", "establishment"], "place_id": "ChIJ7YAZfSo-WBQRY-gcs9ecBxg"}, {"name": "Mansour Magic", "formatted_address": "شارع المجد متفرع من جسر السويس محطة روكسي قسم، Zeitoun, Cairo Governorate, Egypt", "lat": 30.0954272, "lng": 31.3129636, "types": ["hair_care", "health", "point_of_interest", "establishment"], "place_id": "ChIJCblqEio-WBQRKs3v0n79sPw"}, {"name": "الأستاذ", "formatted_address": "Gesr Al Suez, El-Montaza, Heliopolis, Cairo Governorate, Egypt", "lat": 30.0959169, "lng": 31.3119129, "types": ["point_of_interest", "establishment"], "place_id": "ChIJjY8reio-WBQRCSnKueoW_9E"}, {"name": "السراج للمقاولات والتطوير العقاري", "formatted_address": "شارع Gesr Al Suez, روكس،مصر الجديدة ،قسم، Heliopolis, Cairo Governorate, Egypt", "lat": 30.0962783, "lng": 31.3124231, "types": ["real_estate_agency", "general_contractor", "point_of_interest", "establishment"], "place_id": "ChIJhZr0dSo-WBQRo_TJSq1WsSI"}, {"name": "Ribe Heliopolis", "formatted_address": "Gesr Al Suez, El-Montaza, Heliopolis, Cairo Governorate, Egypt", "lat": 30.0964034, "lng": 31.3124078, "types": ["grocery_or_supermarket", "food", "point_of_interest", "store", "establishment"], "place_id": "ChIJHddEnIAVWBQRQXKp1ZqG2PM"}, {"name": "St Michael's Church الكنيسة الأسقفية بالكوربة", "formatted_address": "Baghdad St, El-Montaza, Heliopolis, Cairo Governorate, Egypt", "lat": 30.0884753, "lng": 31.3229984, "types": ["church", "place_of_worship", "point_of_interest", "establishment"], "place_id": "ChIJfaLreiY-WBQRlouIfsEe-o8"}, {"name": "Areej For Printing machines", "formatted_address": "70 Gesr Al Suez, El-Montaza, Heliopolis, Cairo Governorate, Egypt", "lat": 30.0963929, "lng": 31.3116219, "types": ["point_of_interest", "establishment"], "place_id": "ChIJra1D6EsUWBQReH3wwByVFqA"}, {"name": "مكتبة دريم", "formatted_address": "8 القبه، El-Montaza, Heliopolis, Cairo Governorate, Egypt", "lat": 30.0946211, "lng": 31.3123173, "types": ["point_of_interest", "store", "establishment"], "place_id": "ChIJe0OwXfY_WBQRABVdyhYzbec"}, {"name": "Citystars Heliopolis", "formatted_address": "Citystars, Cairo Governorate 11771, Egypt", "lat": 30.0728734, "lng": 31.3458082, "types": ["shopping_mall", "point_of_interest", "establishment"], "place_id": "ChIJo0ecE_gVWBQRGGrouhZFdME"}]