[{"name": "Edifice of The Martyrs Museum", "formatted_address": "شارع صرح الشهيد, Amman, Jordan", "lat": 35.9065501, "types": ["tourist_attraction", "museum", "point_of_interest", "establishment"], "place_id": "ChIJ9-sjcwOgHBURDerRVl5YmZs"}, {"name": "Temple of Hercules", "formatted_address": "Museum St 132, Amman, Jordan", "lat": 35.9348071, "types": ["tourist_attraction", "point_of_interest", "establishment"], "place_id": "ChIJeSQIrZdfGxURStKMBmdLMhQ"}, {"name": "Timishwara For Housing Co", "formatted_address": "Complex No 160, Al Shaheed St 160, Amman, Jordan", "lat": 35.92079, "types": ["point_of_interest", "establishment"], "place_id": "ChIJf0ZSgARgGxURIhPFNRSzKTs"}, {"name": "King Abdullah I Mosque", "formatted_address": "Amman, Jordan", "lat": 35.9128528, "types": ["mosque", "tourist_attraction", "place_of_worship", "point_of_interest", "establishment"], "place_id": "ChIJQ_hdU3agHBUREe5n5PtgZnk"}, {"name": "Jamal Al Saheb & Partners Co Al Areej", "formatted_address": "Jamal Al Saheb & Partners Co Al Areej, Al Shaheed St 156, Amman, Jordan", "lat": 35.9203291, "types": ["point_of_interest", "establishment"], "place_id": "ChIJYelUgQNgGxUR5qd4i-pwQ2U"}, {"name": "Al Rammouni Cars Showroom", "formatted_address": "Complex No 160, Al Shaheed St 160, Amman, Jordan", "lat": 35.92079, "types": ["point_of_interest", "establishment"], "place_id": "ChIJf0ZSgARgGxURZMmfOkuNvhY"}, {"name": "Haya Cultural Center", "formatted_address": "الشميساني-شارع الأمير شاكر بن زيد-بجانب، Amman, Jordan", "lat": 35.8967368, "types": ["tourist_attraction", "park", "point_of_interest", "establishment"], "place_id": "ChIJIbiSHGmgHBUROAn4DQoK3yM"}, {"name": "Abu Darwish Mosque", "formatted_address": "Jabal Ashrafieh, Abu Darwish St., Amman, Jordan", "lat": 35.9374917, "types": ["mosque", "tourist_attraction", "place_of_worship", "point_of_interest", "establishment"], "place_id": "ChIJG7G1G6BfGxURhc1jlkTC7uo"}, {"name": "Dr amro altarawneh", "formatted_address": "An-Nowayry St., Amman, Jordan", "lat": 35.9187717, "types": ["point_of_interest", "establishment"], "place_id": "ChIJh2It8xdhGxURchnRSoFgd00"}, {"name": "مسجد التسابيح", "formatted_address": "At-Tasabeeh St., Amman, Jordan", "lat": 35.9201974, "types": ["mosque", "place_of_worship", "point_of_interest", "establishment"], "place_id": "ChIJK3cpRgFgGxURDCyVeI9iXG0"}, {"name": "جمعيه علار", "formatted_address": "Amman, Jordan", "lat": 35.91840639999999, "types": ["point_of_interest", "establishment"], "place_id": "ChIJdbpnegFgGxUR01ePAHbsumk"}, {"name": "United Transport Co", "formatted_address": "Al Shamal Travel Complex, Al Urdon St 400, Amman, Jordan", "lat": 35.91922, "types": ["point_of_interest", "establishment"], "place_id": "ChIJf3O_FANgGxURzGuE17F9BSI"}, {"name": "جمعية علار الخيرية", "formatted_address": "An-Nowayry St., Amman, Jordan", "lat": 35.9187511, "types": ["point_of_interest", "establishment"], "place_id": "ChIJ1-eOuhlhGxURGwahvJqEwzI"}, {"name": "Nairoukh Pharma", "formatted_address": "An-Nowayry St., Amman, Jordan", "lat": 35.9198785, "types": ["health", "point_of_interest", "establishment"], "place_id": "ChIJA-5X8rdhGxUR5sFxZXhpUHo"}, {"name": "جمعية أهالي حلحول Society of Halhoul", "formatted_address": "Amman, Jordan", "lat": 35.919951, "types": ["point_of_interest", "establishment"], "place_id": "ChIJdSTc7wNgGxURUtMxoh5BTCs"}, {"name": "The Housing Bank - ATM", "formatted_address": "Manaseer Oil & Gas, Al-Shahid St. 239, Amman, Jordan", "lat": 35.93621, "types": ["point_of_interest", "establishment"], "place_id": "ChIJ-S7fxRJgGxUR_xzpv3CaCUw"}, {"name": "مواقف سيارات جسر الشيخ حسين", "formatted_address": "Tabarbour BUS Station, عمّان،، Jordan", "lat": 35.9194223, "types": ["travel_agency", "point_of_interest", "establishment"], "place_id": "ChIJzUcgJsxhGxURItZeJjVepUE"}, {"name": "خضر الجبالي للادوات المنزلية", "formatted_address": "ش. النويري،، Amman, Jordan", "lat": 35.9203939, "types": ["shopping_mall", "point_of_interest", "establishment"], "place_id": "ChIJHRpiGTxhGxURu7bFQCw4cl4"}, {"name": "Jordan Archaeological Museum", "formatted_address": "Amman, Jordan", "lat": 35.9343535, "types": ["museum", "point_of_interest", "establishment"], "place_id": "ChIJM_3P8mRfGxURO3rvAQjTBHQ"}, {"name": "Damascus Gate", "formatted_address": "Jerusalem", "lat": 35.2304079, "types": ["tourist_attraction", "point_of_interest", "establishment"], "place_id": "ChIJd8BCwsUpAxUR7Lq1wlBqqdg"}, {"name": "عيادات للإيجار", "formatted_address": "77 Abd El-Hameed Badawi, Sheraton Al Matar, El Nozha, Cairo Governorate, Egypt", "lat": 31.3497379, "types": ["point_of_interest", "establishment"], "place_id": "ChIJSU-jQdcVWBQRSNg9H8DNxKY"}, {"name": "Post Office - El Horreya Heliopolis", "formatted_address": "Intersection Of Salah Salem rd، El-Nozha, Heliopolis, Cairo Governorate 11736, Egypt", "lat": 31.3428047, "types": ["post_office", "finance", "point_of_interest", "establishment"], "place_id": "ChIJbYuIf_AVWBQRLjDEKpIcTg0"}, {"name": "La Vera Outlet", "formatted_address": "13 Al Nwiri, Al Matar, El Nozha, Cairo Governorate 11311, Egypt", "lat": 31.3334603, "types": ["point_of_interest", "store", "establishment"], "place_id": "ChIJXYfGqUE_WBQRdPjKoE2PZfw"}, {"name": "Property Finder", "formatted_address": "3 Abou El Feda, Abu Al Feda, Zamalek, Cairo Governorate, Egypt", "lat": 31.2160691, "types": ["point_of_interest", "establishment"], "place_id": "ChIJx4rzER5BWBQR_Mx9QqNMqbA"}, {"name": "مكتب بريد - الجلاء", "formatted_address": "Mansoura Qism 2, Al Mansoura First, Dakahlia Governorate, Egypt", "lat": 31.3726833, "types": ["post_office", "finance", "point_of_interest", "establishment"], "place_id": "ChIJt1rXQ8md9xQRyPqhjbVdQGU"}, {"name": "Things to do in Marmaris", "formatted_address": "Armutalan, Durmazlar Cd. No:27, 48706 Marmaris/Muğla, Turkey", "lat": 28.2433591, "types": ["travel_agency", "point_of_interest", "establishment"], "place_id": "ChIJtfhqpDC_vxQRorw54pQ5_CQ"}, {"name": "Duomo di Milano", "formatted_address": "P.za del Duomo, 20122 Milano MI, Italy", "lat": 9.1919265, "types": ["tourist_attraction", "church", "place_of_worship", "point_of_interest", "establishment"], "place_id": "ChIJoTZGw67GhkcREy4aECdOf6s"}, {"name": "Mojave National Preserve", "formatted_address": "90942 Kelso Cima Rd, Kelso, CA 92309, United States", "lat": -115.4483414, "types": ["tourist_attraction", "park", "point_of_interest", "establishment"], "place_id": "ChIJ0abUxAeCz4AReorhmt9tbRo"}, {"name": "Visit Rapid City", "formatted_address": "512 Main St #240, Rapid City, SD 57701, United States", "lat": -103.2258736, "types": ["travel_agency", "local_government_office", "point_of_interest", "establishment"], "place_id": "ChIJBd-eO9dcfYcRHpPUdMfD8Vg"}]