[{"name": "Ittihadia Palace", "formatted_address": "Al Nadi، El-Montaza, Heliopolis, Cairo Governorate, Egypt", "lat": 30.0888643, "lng": 31.3193929, "types": ["tourist_attraction", "premise", "point_of_interest", "establishment"], "place_id": "ChIJuftqUS8-WBQRtM7fDk0QcPk"}, {"name": "El Tawhid", "formatted_address": "15 ش السلحدار، El-Montaza, Heliopolis, Cairo Governorate, Egypt", "lat": 30.0917762, "lng": 31.3161816, "types": ["point_of_interest", "establishment"], "place_id": "ChIJDxGxECk-WBQR9ALHbvFwagI"}, {"name": "برج السلحدار", "formatted_address": "روكسى، 13 حارة السلحدار،مصر الجديدة محافظة القاهرة‬، مصر، السلحدار،، Egypt", "lat": 30.09141, "lng": 31.3169635, "types": ["shopping_mall", "point_of_interest", "establishment"], "place_id": "ChIJX_msz4I_WBQRocYVe2_OHgM"}, {"name": "مسجد سليمان أغا السلحدار", "formatted_address": "Haret Beregwan, El-Gamaleya, El Gamaliya, Cairo Governorate, Egypt", "lat": 30.0524938, "lng": 31.2618766, "types": ["mosque", "tourist_attraction", "place_of_worship", "point_of_interest", "establishment"], "place_id": "ChIJQbWk4p1AWBQRTenwSdcACTk"}, {"name": "Our Lady of Heliopolis Co-Cathedral", "formatted_address": "Nazih Khalifa crossroad، Al Ahram, Heliopolis, Cairo Governorate, Egypt", "lat": 30.0935707, "lng": 31.3251828, "types": ["church", "place_of_worship", "point_of_interest", "establishment"], "place_id": "ChIJJdgh-okVWBQR5TqTmKuQ0IM"}, {"name": "Baron Empain Palace", "formatted_address": "El-Orouba, El-Montaza, Heliopolis, Cairo Governorate 11757, Egypt", "lat": 30.0866701, "lng": 31.3303332, "types": ["point_of_interest", "establishment"], "place_id": "ChIJ1_GM8iE-WBQRLNVi-RT7vDA"}, {"name": "Mohamed Ali", "formatted_address": "Al Montazah, Heliopolis, Cairo Governorate, Egypt", "lat": 30.09167729999999, "lng": 31.31642, "types": ["point_of_interest", "establishment"], "place_id": "ChIJmT8EGik-WBQR2fCUtNMTidk"}, {"name": "Abd El Salam]", "formatted_address": "Al Montazah, Heliopolis, Cairo Governorate, Egypt", "lat": 30.0912984, "lng": 31.3165199, "types": ["point_of_interest", "establishment"], "place_id": "ChIJTQx5Iik-WBQRZLP_gJks_88"}, {"name": "شعراوى للملابس", "formatted_address": "17 Al Selhdar, El-Montaza, Heliopolis, Cairo Governorate, Egypt", "lat": 30.0914043, "lng": 31.3164619, "types": ["point_of_interest", "establishment"], "place_id": "ChIJPziKGCk-WBQR0uhBAqQkaJI"}, {"name": "TV Light", "formatted_address": "15 Al Selhdar, El-Montaza, Heliopolis, Cairo Governorate, Egypt", "lat": 30.09134779999999, "lng": 31.3167902, "types": ["point_of_interest", "establishment"], "place_id": "ChIJjfwLHyk-WBQRvGbbzdiU5uc"}, {"name": "Hassen Nasser", "formatted_address": "Al Montazah, Heliopolis, Cairo Governorate, Egypt", "lat": 30.0909105, "lng": 31.3170286, "types": ["point_of_interest", "establishment"], "place_id": "ChIJdSBb3yg-WBQRfG3Pq5S87og"}, {"name": "Falfala", "formatted_address": "Al Montazah, Heliopolis, Cairo Governorate, Egypt", "lat": 30.0912034, "lng": 31.3177087, "types": ["point_of_interest", "establishment"], "place_id": "ChIJ9b6C6Cg-WBQRWlA3wFyNkx4"}, {"name": "Topuz", "formatted_address": "Al Montazah, Heliopolis, Cairo Governorate, Egypt", "lat": 30.0908233, "lng": 31.31578249999999, "types": ["point_of_interest", "establishment"], "place_id": "ChIJFXzDNyk-WBQRpDh12RCd-8U"}, {"name": "El Abhar", "formatted_address": "Al Montazah, Heliopolis, Cairo Governorate, Egypt", "lat": 30.090863, "lng": 31.3156197, "types": ["point_of_interest", "establishment"], "place_id": "ChIJUTzuNyk-WBQR0S_9yxhuAh4"}, {"name": "Rashid", "formatted_address": "Al Montazah, Heliopolis, Cairo Governorate, Egypt", "lat": 30.0908753, "lng": 31.3171232, "types": ["point_of_interest", "establishment"], "place_id": "ChIJ7UNQ3yg-WBQRAV0-TYQj8s4"}, {"name": "Heliopolis Evangelical Church", "formatted_address": "18 Cleopatra, Almazah, Heliopolis, Cairo Governorate, Egypt", "lat": 30.0913153, "lng": 31.3280276, "types": ["church", "place_of_worship", "point_of_interest", "establishment"], "place_id": "ChIJibHnjiA-WBQRs_geaF2cbjU"}, {"name": "Tareq El Nagar", "formatted_address": "Al Montazah, Heliopolis, Cairo Governorate, Egypt", "lat": 30.0921767, "lng": 31.3171902, "types": ["point_of_interest", "establishment"], "place_id": "ChIJ9UlR_Cg-WBQRlfYmdn606Jg"}, {"name": "Roma-Electronics Games", "formatted_address": "Al Montazah, Heliopolis, Cairo Governorate, Egypt", "lat": 30.0908263, "lng": 31.3156154, "types": ["point_of_interest", "establishment"], "place_id": "ChIJsX_CNyk-WBQR_2xWUUE-eX8"}, {"name": "Omega Co. For Engineering & Trading", "formatted_address": "3 Aly El Rouby St.، El-Montaza, Heliopolis, Cairo Governorate, Egypt", "lat": 30.091, "lng": 31.3157, "types": ["point_of_interest", "establishment"], "place_id": "ChIJpbxPOCk-WBQRFqZy2io5hr8"}, {"name": "Dido", "formatted_address": "1 shafiq ghobrial st.، El-Montaza, Heliopolis, Cairo Governorate, Egypt", "lat": 30.0907766, "lng": 31.3168977, "types": ["point_of_interest", "establishment"], "place_id": "ChIJ37YSJyk-WBQRa7EzbA_EBsc"}, {"name": "Masjid Al-Aqmar", "formatted_address": "Al Moez Ldin Allah Al Fatmi, El-Gamaleya, El Gamaliya, Cairo Governorate, Egypt", "lat": 30.0515694, "lng": 31.2619356, "types": ["mosque", "tourist_attraction", "place_of_worship", "point_of_interest", "establishment"], "place_id": "ChIJtYITGp5AWBQR9YlmJYxLAyE"}, {"name": "Gana-Flowers", "formatted_address": "Al Montazah, Heliopolis, Cairo Governorate, Egypt", "lat": 30.0923704, "lng": 31.3168932, "types": ["point_of_interest", "establishment"], "place_id": "ChIJ20NKACk-WBQReR2gK8-SoDA"}, {"name": "NBK", "formatted_address": "17 شارع الميرغنى، نادي هليوبوليس الرياضى، مصر الجديدة 17 Marghany Street, Heliopolis Club, Heliopolis, Heliopolis, Cairo Governorate, Egypt", "lat": 30.0889328, "lng": 31.31707889999999, "types": ["bank", "finance", "point_of_interest", "establishment"], "place_id": "ChIJq1IeSKo_WBQR5BI7tspeN_k"}, {"name": "Saieed Hamza", "formatted_address": "Al Montazah, Heliopolis, Cairo Governorate, Egypt", "lat": 30.0921375, "lng": 31.31762119999999, "types": ["point_of_interest", "establishment"], "place_id": "ChIJPbnJ-Sg-WBQRM-T64QH_nlY"}, {"name": "Koko", "formatted_address": "1 shafiq ghobrial st.، El-Montaza, Heliopolis, Cairo Governorate, Egypt", "lat": 30.0907766, "lng": 31.3168977, "types": ["point_of_interest", "establishment"], "place_id": "ChIJ37YSJyk-WBQRWhBg-dSu1s8"}, {"name": "BETA Studios", "formatted_address": "٤ سارع السلحدار من شارع الأهرام, روكسى، السلحدار،،, El-Montaza, Heliopolis, Cairo Governorate, Egypt", "lat": 30.09013839999999, "lng": 31.3182345, "types": ["point_of_interest", "establishment"], "place_id": "ChIJ2fHKBU0_WBQRUN5OHSiv5bU"}, {"name": "Egypt Mark", "formatted_address": "15 el selehdar st.، El-Montaza, Heliopolis, Cairo Governorate, Egypt", "lat": 30.09145669999999, "lng": 31.3167657, "types": ["point_of_interest", "establishment"], "place_id": "ChIJ1TXBHik-WBQRLv-bjJmnK_M"}, {"name": "Tarek For Silver", "formatted_address": "3 ش المماليك، El-Montaza, Heliopolis, Cairo Governorate, Egypt", "lat": 30.09022, "lng": 31.317414, "types": ["point_of_interest", "establishment"], "place_id": "ChIJw3880Sg-WBQRg4b4zjpTqz4"}, {"name": "Jon & Madona", "formatted_address": "15 El Selehdar St.، El-Montaza, Heliopolis, Cairo Governorate, Egypt", "lat": 30.0916322, "lng": 31.31640819999999, "types": ["point_of_interest", "establishment"], "place_id": "ChIJbwbgHyk-WBQRKs7IMaLShyw"}, {"name": "FAMILY FUN ZONE", "formatted_address": "١٦ شارع السلحدار، روكسي، Heliopolis, Cairo Governorate, Egypt", "lat": 30.0912899, "lng": 31.3165372, "types": ["point_of_interest", "store", "establishment"], "place_id": "ChIJeYHF1vM_WBQR5etGEqdLKTE"}, {"name": "Zamzam", "formatted_address": "شارع السلحدار روكسي, Al Matar, El Nozha, Cairo Governorate, Egypt", "lat": 30.092015, "lng": 31.3153025, "types": ["clothing_store", "point_of_interest", "store", "establishment"], "place_id": "ChIJua0QGCk-WBQRBNThrl7BchU"}, {"name": "مسجد أصلم السلحدار", "formatted_address": "حارة النبويه، الدرب الأحمر، محافظة القاهرة‬،، Egypt", "lat": 30.0408305, "lng": 31.2620606, "types": ["mosque", "place_of_worship", "point_of_interest", "establishment"], "place_id": "ChIJNzwyCNFBWBQRx8iBHY-nZiI"}, {"name": "Dravo For Shoes", "formatted_address": "1 Shafeek Ghobrial, El-Montaza, Heliopolis, Cairo Governorate, Egypt", "lat": 30.0907813, "lng": 31.3173441, "types": ["point_of_interest", "establishment"], "place_id": "ChIJ37YSJyk-WBQRXfNhBZyU0Fg"}, {"name": "Dahab For Sanitary Ware", "formatted_address": "13 shafiq ghobrial st.، El-Montaza, Heliopolis, Cairo Governorate, Egypt", "lat": 30.0916975, "lng": 31.3173913, "types": ["point_of_interest", "establishment"], "place_id": "ChIJ37YSJyk-WBQRK1o1g6QXE9Y"}, {"name": "C & Co", "formatted_address": "ش El-Sayed El-Merghany, Mansheya El-Bakry, Heliopolis, Cairo Governorate, Egypt", "lat": 30.089278, "lng": 31.316849, "types": ["point_of_interest", "establishment"], "place_id": "ChIJTUAo2C4-WBQRxX_4hyzbFbE"}, {"name": "Heliopolis House Hotel", "formatted_address": "القاهره، Cairo Governorate 11757, Egypt", "lat": 30.0904967, "lng": 31.3193882, "types": ["lodging", "point_of_interest", "establishment"], "place_id": "ChIJ_____yY-WBQRnKKY4Z5TlIA"}, {"name": "منفذ بيع الشاورما", "formatted_address": "24 El-Sayed El-Merghany, Al Matar, El Nozha, Cairo Governorate, Egypt", "lat": 30.0899523, "lng": 31.316632, "types": ["point_of_interest", "establishment"], "place_id": "ChIJNR2o1C4-WBQRNdBISRR7KDo"}, {"name": "Roxi square", "formatted_address": "46 El-Khalifa El-Maamoun, El-Montaza, Heliopolis, Cairo Governorate, Egypt", "lat": 30.092731, "lng": 31.3154457, "types": ["point_of_interest", "establishment"], "place_id": "ChIJbXzCcSk-WBQR1aMXiBFNNj4"}, {"name": "Porto Heliopolis", "formatted_address": "Almazah, Heliopolis, Cairo Governorate, Egypt", "lat": 30.0827031, "lng": 31.348709, "types": ["lodging", "point_of_interest", "establishment"], "place_id": "ChIJR5FCXgE-WBQR471eyuZuvGw"}, {"name": "Zuwayla Gate", "formatted_address": "Al Motaz Ldin Allah, El-Darb El-Ahmar, Cairo Governorate, Egypt", "lat": 30.043286, "lng": 31.2575191, "types": ["tourist_attraction", "general_contractor", "point_of_interest", "establishment"], "place_id": "ChIJN_TOs6ZAWBQR-t0c4vOwUdo"}, {"name": "Miss Body", "formatted_address": "El-Montaza, Heliopolis, Cairo Governorate, Egypt", "lat": 30.0916322, "lng": 31.31640819999999, "types": ["point_of_interest", "establishment"], "place_id": "ChIJbwbgHyk-WBQRGfzakjoIc_s"}, {"name": "Minas Hotels Management", "formatted_address": "El-Montaza, Heliopolis, Cairo Governorate, Egypt", "lat": 30.0904015, "lng": 31.3167657, "types": ["point_of_interest", "establishment"], "place_id": "ChIJb5IUKSk-WBQR087fSV6ZYUw"}, {"name": "Arms", "formatted_address": "4 Shafiq Ghobrial St.، El-Montaza, Heliopolis, Cairo Governorate, Egypt", "lat": 30.0907766, "lng": 31.3168977, "types": ["point_of_interest", "establishment"], "place_id": "ChIJb5IUKSk-WBQR9zywhDy2KZ4"}, {"name": "St Michael's Church الكنيسة الأسقفية بالكوربة", "formatted_address": "Baghdad St, El-Montaza, Heliopolis, Cairo Governorate, Egypt", "lat": 30.0884753, "lng": 31.3229984, "types": ["church", "place_of_worship", "point_of_interest", "establishment"], "place_id": "ChIJfaLreiY-WBQRlouIfsEe-o8"}, {"name": "Teachers Syndicate Heliopolis Branch", "formatted_address": "1 شارع غرناطة ، شارع ابراهيم اللقانى ، روكسى، Heliopolis, Cairo Governorate, Egypt", "lat": 30.0925119, "lng": 31.3177426, "types": ["point_of_interest", "establishment"], "place_id": "ChIJlS5HVig-WBQRk-sRVLziuKs"}, {"name": "Pelican Egypt", "formatted_address": "٤ سارع السلحدار من شارع الأهرام روكسى، السلحدار،، Egypt", "lat": 30.09027009999999, "lng": 31.3181671, "types": ["point_of_interest", "establishment"], "place_id": "ChIJX16s134_WBQR4lswdd1VnXw"}, {"name": "Heliopolis Company For Housing & Development", "formatted_address": "28 Ibrahim Al Lakani, El-Montaza, Heliopolis, Cairo Governorate, Egypt", "lat": 30.089427, "lng": 31.32091599999999, "types": ["general_contractor", "point_of_interest", "establishment"], "place_id": "ChIJeUp1DiY-WBQRkHRQbiaGSrA"}, {"name": "Cairo Diagnostic", "formatted_address": "13شارع السلحدار المتفرع من، شفيق غبريال، المنتزه، مصر الجديدة، محافظة القاهرة‬،، Egypt", "lat": 30.0913846, "lng": 31.3169293, "types": ["health", "point_of_interest", "establishment"], "place_id": "ChIJIaf_bIE_WBQRAz2-2kZc8k4"}, {"name": "مكتب زمزم للملابس الجاهزة", "formatted_address": "Al Selhdar, روكسي, Heliopolis, Cairo Governorate, Egypt", "lat": 30.0914253, "lng": 31.3162769, "types": ["clothing_store", "point_of_interest", "store", "establishment"], "place_id": "ChIJK1AdGCk-WBQRyarbnYzplLE"}, {"name": "Watches Stores", "formatted_address": "1-3 Al Selhdar, El-Montaza, Heliopolis, Cairo Governorate, Egypt", "lat": 30.0901531, "lng": 31.3187045, "types": ["shopping_mall", "point_of_interest", "establishment"], "place_id": "ChIJu1_puSg-WBQRlq2FVSyWLh4"}, {"name": "دراى كلين روكسى", "formatted_address": "9 Al Selhdar, El-Montaza, Heliopolis, Cairo Governorate, Egypt", "lat": 30.0914643, "lng": 31.3176594, "types": ["store", "point_of_interest", "establishment"], "place_id": "ChIJAQCQ5Sg-WBQRPE7jBBT3D4k"}, {"name": "Heliopolis Sporting Club (HSC)", "formatted_address": "17 El-Sayed El-Marghany, Mansheya El-Bakry, Heliopolis, Cairo Governorate, Egypt", "lat": 30.0883155, "lng": 31.3164398, "types": ["point_of_interest", "establishment"], "place_id": "ChIJB9zy8B4-WBQRz_zRpJte8sA"}, {"name": "اتراب", "formatted_address": "3 Al lokanda street - roxy - heliopolis, 3 شارع اللوكاندة - روكسي - مصر الجديدة, cairo, Cairo Governorate 11757, Egypt", "lat": 30.090859, "lng": 31.3188263, "types": ["point_of_interest", "clothing_store", "store", "establishment"], "place_id": "ChIJoxnYlSg-WBQR_hgxPr_WxUY"}, {"name": "مراكز صيام للعيون", "formatted_address": "6 El-Sayed El-Merghany, Al Matar, El Nozha, Cairo Governorate, Egypt", "lat": 30.0896868, "lng": 31.3166549, "types": ["point_of_interest", "establishment"], "place_id": "ChIJcYl-Ji8-WBQR1g_XvHNiOIk"}, {"name": "El Raey El Saleh", "formatted_address": "15 Al Selhdar, El-Montaza, Heliopolis, Cairo Governorate, Egypt", "lat": 30.0916927, "lng": 31.3163268, "types": ["clothing_store", "point_of_interest", "store", "establishment"], "place_id": "ChIJc2n_GSk-WBQReg6E5aihQaM"}, {"name": "Family Park", "formatted_address": "مدخل الرحاب 2 ) الكيلو 26،، Suez Rd, Egypt", "lat": 30.0802783, "lng": 31.5013244, "types": ["park", "tourist_attraction", "point_of_interest", "establishment"], "place_id": "ChIJ97tx7voYWBQR-q4kFfGwYYo"}, {"name": "El Shrouk", "formatted_address": "Al Montazah, Heliopolis, Cairo Governorate, Egypt", "lat": 30.0917617, "lng": 31.3162176, "types": ["clothing_store", "point_of_interest", "store", "establishment"], "place_id": "ChIJDX2wECk-WBQRtWKba93HfDk"}, {"name": "Profsir", "formatted_address": "15 ش السلحدار، El-Montaza, Heliopolis, Cairo Governorate, Egypt", "lat": 30.091326, "lng": 31.317279, "types": ["clothing_store", "point_of_interest", "store", "establishment"], "place_id": "ChIJN6A84Sg-WBQR_BIVXRQeHpY"}, {"name": "المستشار محمد سعد عبدالفتاح بسيونى", "formatted_address": "Al Montazah, Heliopolis, Cairo Governorate, Egypt", "lat": 30.0916286, "lng": 31.3152686, "types": ["point_of_interest", "establishment"], "place_id": "ChIJHw6Caik-WBQR2bhPAhyfxoU"}, {"name": "St. Mark Coptic Orthodox Church Cleopatra", "formatted_address": "35 كيلوباترا، الماظة، قسم مصر الجديدة،، Cairo Governorate, Egypt", "lat": 30.0924011, "lng": 31.3296246, "types": ["church", "place_of_worship", "point_of_interest", "establishment"], "place_id": "ChIJH3kNmooVWBQRfL4z5mf-KXU"}]