[{"name": "Ittihadia Palace", "formatted_address": "Al Nadi، El-Montaza, Heliopolis, Cairo Governorate, Egypt", "lat": 30.0888643, "lng": 31.3193929, "types": ["tourist_attraction", "premise", "point_of_interest", "establishment"], "place_id": "ChIJuftqUS8-WBQRtM7fDk0QcPk"}, {"name": "Tegra", "formatted_address": "2 Al Sobki, Mansheya El-Bakry, Heliopolis, Cairo Governorate, Egypt", "lat": 30.08872, "lng": 31.313122, "types": ["point_of_interest", "establishment"], "place_id": "ChIJ70lHMSw-WBQRMvOUPJ-ZA4k"}, {"name": "Our Lady of Heliopolis Co-Cathedral", "formatted_address": "Nazih Khalifa crossroad، Al Ahram, Heliopolis, Cairo Governorate, Egypt", "lat": 30.0935707, "lng": 31.3251828, "types": ["church", "place_of_worship", "point_of_interest", "establishment"], "place_id": "ChIJJdgh-okVWBQR5TqTmKuQ0IM"}, {"name": "Baron Empain Palace", "formatted_address": "El-Orouba, El-Montaza, Heliopolis, Cairo Governorate 11757, Egypt", "lat": 30.0866701, "lng": 31.3303332, "types": ["point_of_interest", "establishment"], "place_id": "ChIJ1_GM8iE-WBQRLNVi-RT7vDA"}, {"name": "الشركة المصرية الامريكية للاستثمار والتنمية الزراعية", "formatted_address": "2 Al Sobki, Mansheya El-Bakry, Heliopolis, Cairo Governorate, Egypt", "lat": 30.0887013, "lng": 31.3130961, "types": ["point_of_interest", "establishment"], "place_id": "ChIJY3VPMSw-WBQRqqo-W0N9N1Y"}, {"name": "مسجد", "formatted_address": "Youssef Al Sobki, مصر الجديدة،، قسم مصر جديدة، Cairo Governorate, Egypt", "lat": 30.0881115, "lng": 31.3145347, "types": ["mosque", "place_of_worship", "point_of_interest", "establishment"], "place_id": "ChIJSxDYhi4-WBQRjV6mIYUNPo8"}, {"name": "كمبيو مول Compu Mall", "formatted_address": "2 Al Sobki, Mansheya El-Bakry, Heliopolis, Cairo Governorate, Egypt", "lat": 30.0887013, "lng": 31.3130961, "types": ["point_of_interest", "establishment"], "place_id": "ChIJY3VPMSw-WBQRHrMYynRukSM"}, {"name": "مسجد محمد عبد العزيز", "formatted_address": "12 Al Sobki, Mansheya El-Bakry, Heliopolis, Cairo Governorate, Egypt", "lat": 30.0882022, "lng": 31.3146036, "types": ["mosque", "place_of_worship", "point_of_interest", "establishment"], "place_id": "ChIJW7OWhi4-WBQR72UfwNUmYQg"}, {"name": "AFA Mina", "formatted_address": "Mansheyat Al Bakri, Heliopolis, Cairo Governorate, Egypt", "lat": 30.0871685, "lng": 31.3122521, "types": ["point_of_interest", "establishment"], "place_id": "ChIJZTaNli0-WBQRjOH2OG7TuGw"}, {"name": "Media Solutions Group", "formatted_address": "2 Al Sobki, Mansheya El-Bakry, Heliopolis, Cairo Governorate, Egypt", "lat": 30.088725, "lng": 31.313148, "types": ["point_of_interest", "establishment"], "place_id": "ChIJVWQVMSw-WBQR1wqE2FU-Gwo"}, {"name": "Abd Elah", "formatted_address": "Mansheyat Al Bakri, Heliopolis, Cairo Governorate, Egypt", "lat": 30.088526, "lng": 31.3120876, "types": ["point_of_interest", "establishment"], "place_id": "ChIJ4xfBsi0-WBQR21k6bDEijdo"}, {"name": "C.N.R For Import & World Trade", "formatted_address": "7 ش السبكى، مصر الجديدة، القاهرة، Cairo Governorate, Egypt", "lat": 30.0878154, "lng": 31.31448099999999, "types": ["point_of_interest", "establishment"], "place_id": "ChIJdzh_fi4-WBQR3gYKlcr1_64"}, {"name": "I T C", "formatted_address": "2 El Sobky St.، Mansheya El-Bakry, Heliopolis, Cairo Governorate, Egypt", "lat": 30.0882767, "lng": 31.3138181, "types": ["point_of_interest", "establishment"], "place_id": "ChIJWaxwKyw-WBQRoacjnC9H4S0"}, {"name": "Nile Foreign Trade", "formatted_address": "7 Al Idrisi, Mansheya El-Bakry, Heliopolis, Cairo Governorate, Egypt", "lat": 30.0877944, "lng": 31.3138614, "types": ["point_of_interest", "establishment"], "place_id": "ChIJPfWf1i0-WBQRPH-iBvLJMHs"}, {"name": "Rouaa", "formatted_address": "7 ش ادريس، Mansheya El-Bakry, Heliopolis, Cairo Governorate, Egypt", "lat": 30.088302, "lng": 31.31426309999999, "types": ["point_of_interest", "establishment"], "place_id": "ChIJVW08gi4-WBQR-fuc3S--EgI"}, {"name": "Samy Nabil", "formatted_address": "ش Ibn Manzoor, Mansheya El-Bakry, Heliopolis, Cairo Governorate, Egypt", "lat": 30.0877944, "lng": 31.3138614, "types": ["point_of_interest", "establishment"], "place_id": "ChIJPfWf1i0-WBQRJ8TQyhtqdBs"}, {"name": "Advanced Control Systems", "formatted_address": "3 ش ابن منظور، Mansheya El-Bakry, Heliopolis, Cairo Governorate, Egypt", "lat": 30.0877944, "lng": 31.3138614, "types": ["point_of_interest", "establishment"], "place_id": "ChIJPfWf1i0-WBQRrgXiAF7eHhY"}, {"name": "Center For Planning & Architectural Studies", "formatted_address": "14, El-Sobky St., behind Heliopolis Club Cairo, 11712, Egypt", "lat": 30.0879748, "lng": 31.3149896, "types": ["point_of_interest", "establishment"], "place_id": "ChIJv25_q-0_WBQRm_YtIGsu7dM"}, {"name": "مركز الدراسات التخطيطية والمعمارية", "formatted_address": "14 el-sobky street، Mansheya El-Bakry, Heliopolis, Cairo Governorate 11712, Egypt", "lat": 30.0880106, "lng": 31.3150114, "types": ["local_government_office", "point_of_interest", "establishment"], "place_id": "ChIJWaxwKyw-WBQRJoXO_Y3BD8g"}, {"name": "المستشار سيد قناوي / المكتب الدولي للأستشارات القانونية واعمال المحاماه", "formatted_address": "امام الفا ماركت, 2 شارع السبكي, Al Zahabi, Heliopolis, Egypt", "lat": 30.0889731, "lng": 31.3125365, "types": ["point_of_interest", "establishment"], "place_id": "ChIJd6LFABQ_WBQR35QW90H5lMs"}, {"name": "دار الرحمه", "formatted_address": "5شارع Al Sobki, Mansheya El-Bakry, Heliopolis, Cairo Governorate, Egypt", "lat": 30.0880245, "lng": 31.3140844, "types": ["health", "point_of_interest", "establishment"], "place_id": "ChIJPfNkZYU_WBQRX885dy-NK9E"}, {"name": "Modern Management Technology", "formatted_address": "7 ش الادريسى، Mansheya El-Bakry, Heliopolis, Cairo Governorate, Egypt", "lat": 30.0884292, "lng": 31.3142129, "types": ["point_of_interest", "establishment"], "place_id": "ChIJPfWf1i0-WBQR8D3IOHV6RzQ"}, {"name": "Bosta Furniture", "formatted_address": "7 Al Idrisi, Mansheya El-Bakry, Heliopolis, Cairo Governorate, Egypt", "lat": 30.0877944, "lng": 31.3138614, "types": ["point_of_interest", "establishment"], "place_id": "ChIJPfWf1i0-WBQR8mvR9gXHaYI"}, {"name": "Energya", "formatted_address": "7 Al Idrisi, Mansheya El-Bakry, Heliopolis, Cairo Governorate, Egypt", "lat": 30.0877944, "lng": 31.3138614, "types": ["point_of_interest", "establishment"], "place_id": "ChIJPfWf1i0-WBQROSnvmbUy90s"}, {"name": "Heliopolis Sporting Club (HSC)", "formatted_address": "17 El-Sayed El-Marghany, Mansheya El-Bakry, Heliopolis, Cairo Governorate, Egypt", "lat": 30.0883155, "lng": 31.3164398, "types": ["point_of_interest", "establishment"], "place_id": "ChIJB9zy8B4-WBQRz_zRpJte8sA"}, {"name": "ازياء المايسترو", "formatted_address": "شارع السبكي ،مصر الجديدة،قسم مصر جديدة ،، Cairo Governorate, Egypt", "lat": 30.0888686, "lng": 31.3132349, "types": ["point_of_interest", "establishment"], "place_id": "ChIJP3-KMCw-WBQRjLFvB_LsIqk"}, {"name": "Al Sobki", "formatted_address": "11 Al Sobki, Mansheya El-Bakry, Heliopolis, Cairo Governorate, Egypt", "lat": 30.0887864, "lng": 31.3130256, "types": ["school", "point_of_interest", "establishment"], "place_id": "ChIJefZuNiw-WBQRDNhpmOLRXsg"}, {"name": "11 السبكي، منشية البكري، قسم مصر الجديدة، محافظة القاهرة‬", "formatted_address": "11 السبكي، منشية البكري، قسم مصر الجديدة، محافظة القاهرة‬. أسلحةوذخائر، Cairo Governorate, Egypt", "lat": 30.0888809, "lng": 31.3131459, "types": ["point_of_interest", "establishment"], "place_id": "ChIJgdbYa3E_WBQRRGktQZX1VKk"}, {"name": "Korba Posta Office", "formatted_address": "البوسطة، المنتزه، مصر الجديدة،، Cairo Governorate, Egypt", "lat": 30.0894726, "lng": 31.3216349, "types": ["post_office", "finance", "point_of_interest", "establishment"], "place_id": "ChIJX8nHbSY-WBQRDrUhlxkHb-M"}, {"name": "Mr helmy", "formatted_address": "1 Al Sobki, Mansheya El-Bakry, Heliopolis, Cairo Governorate, Egypt", "lat": 30.088406, "lng": 31.313111, "types": ["lodging", "point_of_interest", "establishment"], "place_id": "ChIJ2xs6TJo_WBQRbRIZqL3TLJY"}, {"name": "Paradise Travel", "formatted_address": "7 Ibn Manzoor, Mansheya El-Bakry, Heliopolis, Cairo Governorate, Egypt", "lat": 30.0878835, "lng": 31.3132084, "types": ["travel_agency", "point_of_interest", "establishment"], "place_id": "ChIJiWAizy0-WBQR3ttghW6AWkQ"}, {"name": "حدايد وبويات (مكه)", "formatted_address": "5-13 السبكي، منشية البكري، قسم مصر الجديدة، مصر الجديده، Cairo Governorate, Egypt", "lat": 30.0880245, "lng": 31.3140844, "types": ["general_contractor", "point_of_interest", "establishment"], "place_id": "ChIJ79XknH8_WBQRRgfig7RqPIs"}, {"name": "Fighters Arena", "formatted_address": "El Sobky st, 2 Al Zahabi, Cairo Governorate, Egypt", "lat": 30.0886915, "lng": 31.3130557, "types": ["health", "point_of_interest", "establishment"], "place_id": "ChIJhdWsNiw-WBQRYZ7zQZJtBtI"}, {"name": "Stop & Stock", "formatted_address": "12 ش منشية الطيران، Mansheya El-Bakry, Heliopolis, Cairo Governorate, Egypt", "lat": 30.0869859, "lng": 31.3129864, "types": ["point_of_interest", "establishment"], "place_id": "ChIJvZL66S0-WBQRhENdyEj3hI0"}, {"name": "Travel Experts", "formatted_address": "7 ش الادريسى، مصر الجديدة، القاهرة، Cairo Governorate, Egypt", "lat": 30.0883679, "lng": 31.3142873, "types": ["travel_agency", "point_of_interest", "establishment"], "place_id": "ChIJuRfv1S0-WBQR3iYtHmlq1Pk"}, {"name": "St Michael's Church الكنيسة الأسقفية بالكوربة", "formatted_address": "Baghdad St, El-Montaza, Heliopolis, Cairo Governorate, Egypt", "lat": 30.0884753, "lng": 31.3229984, "types": ["church", "place_of_worship", "point_of_interest", "establishment"], "place_id": "ChIJfaLreiY-WBQRlouIfsEe-o8"}, {"name": "Amr Gift Shop", "formatted_address": "Youssef Al Sobki, ،مصر الجديدة،قسم، مصر جديدة، Cairo Governorate, Egypt", "lat": 30.08833779999999, "lng": 31.314358, "types": ["point_of_interest", "store", "establishment"], "place_id": "ChIJV_XZgy4-WBQRWMMC9LWL4rQ"}, {"name": "Toky", "formatted_address": "Youssef Al Sobki, مصر الجديدة،قسم، مصر جديدة، Cairo Governorate, Egypt", "lat": 30.0878449, "lng": 31.31460849999999, "types": ["home_goods_store", "point_of_interest", "store", "establishment"], "place_id": "ChIJH4G9fS4-WBQR-1GLcpgUN24"}, {"name": "Heliopolis House", "formatted_address": "13 أبو المحاسن، منشية البكري، قسم مصر الجديدة، محافظة القاهرة‬،، Egypt", "lat": 30.0884148, "lng": 31.3144963, "types": ["restaurant", "food", "point_of_interest", "establishment"], "place_id": "ChIJCV8ofuo_WBQRrZLq-kueHhw"}, {"name": "El Fergani Bookshop", "formatted_address": "9 ميدان الذهبى، Mansheya El-Bakry, Heliopolis, Cairo Governorate, Egypt", "lat": 30.0886609, "lng": 31.3125134, "types": ["book_store", "point_of_interest", "store", "establishment"], "place_id": "ChIJNYxpSiw-WBQRvIx4FFYvAto"}, {"name": "Paradise Travel", "formatted_address": "Al Idrisi, مصر الجديدة،قسم، Heliopolis, Cairo Governorate, Egypt", "lat": 30.0876491, "lng": 31.3137697, "types": ["travel_agency", "point_of_interest", "establishment"], "place_id": "ChIJu-Xe1i0-WBQRUrgTZmKKtjw"}, {"name": "ترزى جولى", "formatted_address": "Al Idrisi, مصر الجديدة،قسم، Heliopolis, Cairo Governorate, Egypt", "lat": 30.0883328, "lng": 31.3143879, "types": ["point_of_interest", "establishment"], "place_id": "ChIJOc7dgy4-WBQRr0RFJl0Mx88"}, {"name": "Heliopolis Center Government Services", "formatted_address": "17 El-Sayed El-Marghany, Mansheya El-Bakry, Heliopolis, Cairo Governorate, Egypt", "lat": 30.0889328, "lng": 31.31707889999999, "types": ["point_of_interest", "establishment"], "place_id": "ChIJhVshJy8-WBQRYP8KfS5OkCM"}, {"name": "الشركة العربية الفرنسية للاستثمار والتعمير", "formatted_address": "2 ميدان الذهبى، Mansheya El-Bakry, Heliopolis, Cairo Governorate, Egypt", "lat": 30.0886609, "lng": 31.3125134, "types": ["store", "point_of_interest", "establishment"], "place_id": "ChIJD-dqNyw-WBQRa7WjZj73PqY"}, {"name": "Bahrawy Investment", "formatted_address": "20 Mansheyet El Tayaran St.، Mansheya El-Bakry, Heliopolis, Cairo Governorate, Egypt", "lat": 30.0872626, "lng": 31.31328, "types": ["travel_agency", "point_of_interest", "establishment"], "place_id": "ChIJvZL66S0-WBQRhvNQye5bA3w"}, {"name": "The Restaurant- Heliopolis Club", "formatted_address": "16 السبكي، منشية البكري، قسم مصر الجديدة، محافظة القاهرة‬،،, Mansheya El-Bakry, Heliopolis, Cairo Governorate, Egypt", "lat": 30.0875048, "lng": 31.3154975, "types": ["restaurant", "food", "point_of_interest", "establishment"], "place_id": "ChIJWeZXTA0_WBQRYnTvOgvB8wg"}, {"name": "ماركت أولاد على", "formatted_address": "Al Sobki, Mansheya El-Bakry, Heliopolis, Cairo Governorate, Egypt", "lat": 30.0884906, "lng": 31.3139299, "types": ["grocery_or_supermarket", "food", "point_of_interest", "store", "establishment"], "place_id": "ChIJK6_qcuI_WBQR3tiyq-2DpY0"}, {"name": "Dr. Ahmed Ramy", "formatted_address": "1-3 Al Sobki, Mansheya El-Bakry, Heliopolis, Cairo Governorate, Egypt", "lat": 30.0887027, "lng": 31.313031, "types": ["doctor", "health", "point_of_interest", "establishment"], "place_id": "ChIJi9SS1N8_WBQRfFMWZf8tXyg"}, {"name": "Borg roxy", "formatted_address": "7 el edrisy, Mansheya El-Bakry, Heliopolis, Cairo Governorate, Egypt", "lat": 30.0880659, "lng": 31.3139008, "types": ["point_of_interest", "establishment"], "place_id": "ChIJ12V6lNI_WBQRVfEuT0YAevo"}, {"name": "L/ Hisham Karem mahmoud", "formatted_address": "شارع Manshiet Al Tairan, Mansheya El-Bakry, Heliopolis, Cairo Governorate, Egypt", "lat": 30.0872626, "lng": 31.31328, "types": ["finance", "point_of_interest", "establishment"], "place_id": "ChIJ4VlWUuhHWBQRxUbHeu_BmCs"}, {"name": "Roxi Center", "formatted_address": "9 Al Zahabi, Mansheya El-Bakry, Heliopolis, Cairo Governorate, Egypt", "lat": 30.0888489, "lng": 31.3132818, "types": ["point_of_interest", "establishment"], "place_id": "ChIJMYEDNyw-WBQR2UDsCEA2rbE"}, {"name": "The Great Pyramid of Giza", "formatted_address": "Al Haram, Nazlet El-Semman, Al Giza Desert, Giza Governorate, Egypt", "lat": 29.9792345, "lng": 31.1342019, "types": ["tourist_attraction", "premise", "point_of_interest", "establishment"], "place_id": "ChIJGymPrIdFWBQRJCSloj8vDIE"}, {"name": "مكتب المستشار يحي عبد المجيد", "formatted_address": "16 Al Sobki, Mansheya El-Bakry, Heliopolis, Cairo Governorate, Egypt", "lat": 30.0878267, "lng": 31.3152517, "types": ["point_of_interest", "establishment"], "place_id": "ChIJEeAhii4-WBQRAa8jRLnRR5w"}, {"name": "Golden Print XEROX", "formatted_address": "2 السبكي , ميدان الذهبي، El-Khalifa El-Maamoun, Heliopolis, Cairo Governorate, Egypt", "lat": 30.0886578, "lng": 31.3125034, "types": ["point_of_interest", "establishment"], "place_id": "ChIJaWRuatc_WBQRwOjvciaqnPU"}, {"name": "شركة المجلس للمقاولات", "formatted_address": "11 Al Sobki, Mansheya El-Bakry, Heliopolis, Cairo Governorate, Egypt", "lat": 30.0888809, "lng": 31.3131459, "types": ["general_contractor", "point_of_interest", "establishment"], "place_id": "ChIJx-DQO1U_WBQRPxNPzV4J5-4"}, {"name": "مركز هليوبوليس لعلاج الأورام - Heliopolis Oncology Clinic", "formatted_address": "10-23 Al Yaajoubi, Mansheya El-Bakry, Heliopolis, Cairo Governorate, Egypt", "lat": 30.0890044, "lng": 31.3115662, "types": ["gym", "health", "point_of_interest", "establishment"], "place_id": "ChIJaeEQVCw-WBQRK04d4IJg-Qs"}, {"name": "أولاد عزت", "formatted_address": "Al Sobki, مصر الجديدة،، Heliopolis, Cairo Governorate, Egypt", "lat": 30.0880215, "lng": 31.3145807, "types": ["supermarket", "grocery_or_supermarket", "food", "point_of_interest", "store", "establishment"], "place_id": "ChIJhWsVhy4-WBQRQJQCZ63feDU"}, {"name": "دكتور احمد رامي محمد رامي", "formatted_address": "1 السبكي، منشية البكري، قسم مصر الجديدة، محافظة القاهرة‬،، Egypt", "lat": 30.088558, "lng": 31.3131293, "types": ["doctor", "health", "point_of_interest", "establishment"], "place_id": "ChIJs8xDD8w_WBQR8x7aizM53NQ"}, {"name": "(Heliopolis Public library)", "formatted_address": "Beirut, Almazah, Heliopolis, Cairo Governorate, Egypt", "lat": 30.090914, "lng": 31.3328428, "types": ["library", "point_of_interest", "establishment"], "place_id": "ChIJd3h9YvUVWBQR2Oi9DLQTI8E"}, {"name": "Modern for waterproofing material", "formatted_address": "11 Al Sobki, Mansheya El-Bakry, Heliopolis, Cairo Governorate, Egypt", "lat": 30.0888842, "lng": 31.3132068, "types": ["point_of_interest", "establishment"], "place_id": "ChIJozRJVU4_WBQRZcrQLNiqReU"}]