[{"name": "Ittihadia Palace", "formatted_address": "Al Nadi، El-Montaza, Heliopolis, Cairo Governorate, Egypt", "lat": 30.0888643, "lng": 31.3193929, "types": ["tourist_attraction", "premise", "point_of_interest", "establishment"], "place_id": "ChIJuftqUS8-WBQRtM7fDk0QcPk"}, {"name": "Our Lady of Heliopolis Co-Cathedral", "formatted_address": "Nazih Khalifa crossroad، Al Ahram, Heliopolis, Cairo Governorate, Egypt", "lat": 30.0935707, "lng": 31.3251828, "types": ["church", "place_of_worship", "point_of_interest", "establishment"], "place_id": "ChIJJdgh-okVWBQR5TqTmKuQ0IM"}, {"name": "Baron Empain Palace", "formatted_address": "El-Orouba, El-Montaza, Heliopolis, Cairo Governorate 11757, Egypt", "lat": 30.0866701, "lng": 31.3303332, "types": ["point_of_interest", "establishment"], "place_id": "ChIJ1_GM8iE-WBQRLNVi-RT7vDA"}, {"name": "Masreya", "formatted_address": "138 El Hegaz St, El-Bostan, Heliopolis, Cairo Governorate, Egypt", "lat": 30.102937, "lng": 31.3267752, "types": ["point_of_interest", "establishment"], "place_id": "ChIJUZSGCpIVWBQRTgHtrw5lz_c"}, {"name": "El Sherok", "formatted_address": "Al Bustan, Heliopolis, Cairo Governorate, Egypt", "lat": 30.1009981, "lng": 31.3278088, "types": ["point_of_interest", "establishment"], "place_id": "ChIJb92fpI0VWBQRDYu58s7Xw8A"}, {"name": "Anwar", "formatted_address": "138 El Hegaz St, El-Bostan, Heliopolis, Cairo Governorate, Egypt", "lat": 30.102937, "lng": 31.3267752, "types": ["point_of_interest", "establishment"], "place_id": "ChIJNSSOCpIVWBQRxALpvcLQIPg"}, {"name": "Ramez Kamal", "formatted_address": "Al Bustan, Heliopolis, Cairo Governorate, Egypt", "lat": 30.102096, "lng": 31.3281157, "types": ["point_of_interest", "establishment"], "place_id": "ChIJYTIhhI0VWBQRDm1X7wQ2T98"}, {"name": "El Ghounimi Center", "formatted_address": "138 El Hegaz St, El-Bostan, Heliopolis, Cairo Governorate, Egypt", "lat": 30.1031908, "lng": 31.3270433, "types": ["point_of_interest", "establishment"], "place_id": "ChIJTd-fc5IVWBQRdIV9jghyJ8U"}, {"name": "El Etehad", "formatted_address": "Al Bustan, Heliopolis, Cairo Governorate, Egypt", "lat": 30.1024053, "lng": 31.3281157, "types": ["point_of_interest", "establishment"], "place_id": "ChIJB6DQgI0VWBQRnLOiEmWTFyo"}, {"name": "Mohamed Abd El Akher", "formatted_address": "Al Bustan, Heliopolis, Cairo Governorate, Egypt", "lat": 30.1014579, "lng": 31.3263061, "types": ["point_of_interest", "establishment"], "place_id": "ChIJHSTZ3I0VWBQRPz5xCmR5Urw"}, {"name": "El Shafaey", "formatted_address": "34 ش الظواهرى، El-Bostan, Heliopolis, Cairo Governorate, Egypt", "lat": 30.1027142, "lng": 31.3284843, "types": ["point_of_interest", "establishment"], "place_id": "ChIJnwq7gJIVWBQRajESasAwzsg"}, {"name": "Fathy Kashk", "formatted_address": "Al Bustan, Heliopolis, Cairo Governorate, Egypt", "lat": 30.1008338, "lng": 31.3274902, "types": ["point_of_interest", "establishment"], "place_id": "ChIJedhnuo0VWBQRrcO1AnBri2s"}, {"name": "M", "formatted_address": "Al Bustan, Heliopolis, Cairo Governorate, Egypt", "lat": 30.1015365, "lng": 31.3293892, "types": ["point_of_interest", "establishment"], "place_id": "ChIJzf6Zb40VWBQRYhW7gMUlMWQ"}, {"name": "Hansaton Egypt", "formatted_address": "55 El Hegaz St, Al Matar, El Nozha, Cairo Governorate, Egypt", "lat": 30.1025278, "lng": 31.3275817, "types": ["point_of_interest", "establishment"], "place_id": "ChIJ9SRYiI0VWBQRbbzoqfUMMvY"}, {"name": "سكاى تك", "formatted_address": "12 ب El Hegaz St, Al Matar, El Nozha, Cairo Governorate, Egypt", "lat": 30.102781, "lng": 31.326536, "types": ["point_of_interest", "establishment"], "place_id": "ChIJkWv09o0VWBQRKwUhspZ9SB4"}, {"name": "Abou El Naby6", "formatted_address": "Al Bustan, Heliopolis, Cairo Governorate, Egypt", "lat": 30.1007756, "lng": 31.3282516, "types": ["point_of_interest", "establishment"], "place_id": "ChIJI4wdp40VWBQRS-z2tLrAPSc"}, {"name": "مسجد التحرير", "formatted_address": "شارع الحجاز،مصر الجديده،، El Nozha, Cairo Governorate, Egypt", "lat": 30.1044926, "lng": 31.3288453, "types": ["mosque", "place_of_worship", "point_of_interest", "establishment"], "place_id": "ChIJiRrP-5IVWBQRAjWjSDf4GIA"}, {"name": "Samer Abd Elazez Atya", "formatted_address": "138 El Hegaz St, El-Bostan, Heliopolis, Cairo Governorate, Egypt", "lat": 30.1031908, "lng": 31.3270433, "types": ["point_of_interest", "establishment"], "place_id": "ChIJe62YdJIVWBQR39GU9cp3y7Q"}, {"name": "Om Ali We Saber", "formatted_address": "Al Bustan, Heliopolis, Cairo Governorate, Egypt", "lat": 30.1025622, "lng": 31.3275795, "types": ["point_of_interest", "establishment"], "place_id": "ChIJJ0oBiY0VWBQRY_frP4pzp3Y"}, {"name": "Ashraf Esmaiel Maky", "formatted_address": "Al Bustan, Heliopolis, Cairo Governorate, Egypt", "lat": 30.1013736, "lng": 31.326012, "types": ["point_of_interest", "establishment"], "place_id": "ChIJI7PA240VWBQR5ZP7r9z41gc"}, {"name": "Technology Center", "formatted_address": "63 El Hegaz St, El-Bostan, Heliopolis, Cairo Governorate, Egypt", "lat": 30.102242, "lng": 31.327055, "types": ["point_of_interest", "establishment"], "place_id": "ChIJ06TYwusVWBQRHtIjmXu3624"}, {"name": "هانزاتون ايجيبت", "formatted_address": "55 El Hegaz St, Al Matar, El Nozha, Cairo Governorate, Egypt", "lat": 30.1025278, "lng": 31.3275817, "types": ["point_of_interest", "establishment"], "place_id": "ChIJ9SRYiI0VWBQRfBCsWduRINA"}, {"name": "Mohamed Ali Omran", "formatted_address": "Al Bustan, Heliopolis, Cairo Governorate, Egypt", "lat": 30.1006002, "lng": 31.3272553, "types": ["point_of_interest", "establishment"], "place_id": "ChIJlXjpto0VWBQR2BI8vUSKGno"}, {"name": "Abdeen Palace Museum", "formatted_address": "شارع جمعه عابدين،، El-Gomhoreya Square, Rahbet Abdin, Abdeen, Cairo Governorate, Egypt", "lat": 30.0422696, "lng": 31.248544, "types": ["tourist_attraction", "museum", "point_of_interest", "establishment"], "place_id": "ChIJF_ZR9bpAWBQR_WeDJloU-7o"}, {"name": "Ever Best", "formatted_address": "Al Bustan, Heliopolis, Cairo Governorate, Egypt", "lat": 30.1007433, "lng": 31.3275005, "types": ["point_of_interest", "establishment"], "place_id": "ChIJ9-qfsI0VWBQRjqFTBsUu1i0"}, {"name": "Tanweer Publishing Mass Media", "formatted_address": "8 ش الوالى، El-Bostan, Heliopolis, Cairo Governorate, Egypt", "lat": 30.1020918, "lng": 31.3278621, "types": ["point_of_interest", "establishment"], "place_id": "ChIJUbLFgo0VWBQR8uyZIkp3fC8"}, {"name": "Dama", "formatted_address": "Al Bustan, Heliopolis, Cairo Governorate, Egypt", "lat": 30.1009784, "lng": 31.3278354, "types": ["point_of_interest", "establishment"], "place_id": "ChIJaV6cpI0VWBQRUj3j8rHSgxI"}, {"name": "El Mahkama Square (The Court Square) - ميدان المحكمة مصر الجديدة", "formatted_address": "Heliopolis Courts Complex, El-Nozha, El Nozha, Cairo Governorate, Egypt", "lat": 30.1038978, "lng": 31.3288561, "types": ["point_of_interest", "establishment"], "place_id": "ChIJE6pBqDgVWBQRj2En3-tEGGU"}, {"name": "The General Association For Aged Care", "formatted_address": "21 ش ابو بكر الصديق، El-Bostan, Heliopolis, Cairo Governorate, Egypt", "lat": 30.1030342, "lng": 31.3289424, "types": ["point_of_interest", "establishment"], "place_id": "ChIJn8sJXJIVWBQRK4e0DuQK_sg"}, {"name": "IT Evolution", "formatted_address": "8 ش مخازن الشركة، El-Bostan, Heliopolis, Cairo Governorate, Egypt", "lat": 30.101697, "lng": 31.3284132, "types": ["point_of_interest", "establishment"], "place_id": "ChIJJzxjnY0VWBQR1sh97wT_Dms"}, {"name": "El Rahman", "formatted_address": "Al Bustan, Heliopolis, Cairo Governorate, Egypt", "lat": 30.1026401, "lng": 31.3282051, "types": ["mosque", "place_of_worship", "point_of_interest", "establishment"], "place_id": "ChIJP82kf5IVWBQRRcEuhpKlTww"}, {"name": "Ahbab Al El Beit", "formatted_address": "5 El Ashlaa St.، El-Bostan, Heliopolis, Cairo Governorate, Egypt", "lat": 30.1007058, "lng": 31.3293375, "types": ["point_of_interest", "establishment"], "place_id": "ChIJtbCzE40VWBQRTXLsPFWthVI"}, {"name": "Porto Heliopolis", "formatted_address": "Almazah, Heliopolis, Cairo Governorate, Egypt", "lat": 30.0827031, "lng": 31.348709, "types": ["lodging", "point_of_interest", "establishment"], "place_id": "ChIJR5FCXgE-WBQR471eyuZuvGw"}, {"name": "مسجد الشريف", "formatted_address": "Al Bustan, Heliopolis, Cairo Governorate, Egypt", "lat": 30.1012713, "lng": 31.327062, "types": ["mosque", "place_of_worship", "point_of_interest", "establishment"], "place_id": "ChIJSwFCv40VWBQR00LwaNalTPA"}, {"name": "Abd El Alem Ibrahim", "formatted_address": "94 القصر العيني، El-Bostan, Heliopolis, Cairo Governorate, Egypt", "lat": 30.101594, "lng": 31.3293506, "types": ["point_of_interest", "establishment"], "place_id": "ChIJRUKEZY0VWBQRU0VxJS9eags"}, {"name": "Maadi Island", "formatted_address": "Dar Al Salam, Giza Governorate, Egypt", "lat": 29.965527, "lng": 31.239237, "types": ["restaurant", "tourist_attraction", "park", "food", "point_of_interest", "establishment"], "place_id": "ChIJwY7d5MFHWBQRl1nMXlW_tUY"}, {"name": "هوليداي هوم", "formatted_address": "قسم مصر الجديدة, 63 El Hegaz St, El-Bostan, Heliopolis, Cairo Governorate 11351, Egypt", "lat": 30.1025281, "lng": 31.3275635, "types": ["lodging", "point_of_interest", "establishment"], "place_id": "ChIJD__keZIVWBQRaRwfB2gBVVo"}, {"name": "St. Mark Coptic Orthodox Church Cleopatra", "formatted_address": "35 كيلوباترا، الماظة، قسم مصر الجديدة،، Cairo Governorate, Egypt", "lat": 30.0924011, "lng": 31.3296246, "types": ["church", "place_of_worship", "point_of_interest", "establishment"], "place_id": "ChIJH3kNmooVWBQRfL4z5mf-KXU"}, {"name": "Post Office - West Heliopolis", "formatted_address": "El-Nozha, El Nozha, Cairo Governorate, Egypt", "lat": 30.1036179, "lng": 31.33018539999999, "types": ["post_office", "finance", "point_of_interest", "establishment"], "place_id": "ChIJ-1tRxpIVWBQR8pyCMmqAgXM"}, {"name": "Go Heliopolis - Khozam The First Compound In Heliopolis", "formatted_address": "شارع النزهة، مصر الجديدة،، Egypt", "lat": 30.0732268, "lng": 31.3397646, "types": ["lodging", "point_of_interest", "establishment"], "place_id": "ChIJZ7ZHBKs_WBQRJD3Ntp2Q_ww"}, {"name": "مركز خدمة هوفر الشريف", "formatted_address": "Al Bustan, Heliopolis, Cairo Governorate, Egypt", "lat": 30.100565, "lng": 31.3279619, "types": ["point_of_interest", "establishment"], "place_id": "ChIJlQ8Xr40VWBQRN573xWQwS_0"}, {"name": "Moahemd El Ashraf El Rafaai", "formatted_address": "Al Bustan, Heliopolis, Cairo Governorate, Egypt", "lat": 30.1002914, "lng": 31.3276626, "types": ["point_of_interest", "establishment"], "place_id": "ChIJrcNtso0VWBQRa1O8RXaWAeg"}, {"name": "D\\Farok Gorab", "formatted_address": "Al Bustan, Heliopolis, Cairo Governorate, Egypt", "lat": 30.1004521, "lng": 31.3275795, "types": ["point_of_interest", "establishment"], "place_id": "ChIJOZAxso0VWBQRlCr3yqo9SHk"}, {"name": "El Sayad El Maher", "formatted_address": "Al Bustan, Heliopolis, Cairo Governorate, Egypt", "lat": 30.1009658, "lng": 31.3278522, "types": ["point_of_interest", "establishment"], "place_id": "ChIJybyEpI0VWBQRWEtqi9RAUjI"}, {"name": "Smart For Trading", "formatted_address": "5 ش اسوان، El-Bostan, Heliopolis, Cairo Governorate, Egypt", "lat": 30.1001404, "lng": 31.3277941, "types": ["point_of_interest", "establishment"], "place_id": "ChIJZftsrY0VWBQRdN08L5QqKQE"}, {"name": "Heliopolis Family Court", "formatted_address": "58 El Hegaz St, El-Nozha, Heliopolis, Cairo Governorate, Egypt", "lat": 30.10326, "lng": 31.3297672, "types": ["courthouse", "local_government_office", "point_of_interest", "establishment"], "place_id": "ChIJNxzB6pIVWBQRQx6kT15XA74"}, {"name": "دكتور وليد الظواهري", "formatted_address": "Aswan, El-Bostan, Heliopolis, Cairo Governorate, Egypt", "lat": 30.1000953, "lng": 31.3274884, "types": ["health", "point_of_interest", "establishment"], "place_id": "ChIJwd1UrI0VWBQR7w_Iz8cnRfA"}, {"name": "Radisson Blu Hotel, Cairo Heliopolis", "formatted_address": "Abdel Hamid Badawi St Heliopolis, Cairo Governorate 11787, Egypt", "lat": 30.1065093, "lng": 31.3753121, "types": ["lodging", "point_of_interest", "establishment"], "place_id": "ChIJQZJ8fWUWWBQRAUPO9I6SxPg"}, {"name": "امارات مصر", "formatted_address": "5 عمارات الشريف، شارع اسوان، مصر الجديدة، محافظة القاهرة‬،، Egypt", "lat": 30.1009058, "lng": 31.3280873, "types": ["car_repair", "point_of_interest", "establishment"], "place_id": "ChIJZ5IW-XUVWBQRZVFrixsO79Y"}, {"name": "La Vida Hotels And Resorts", "formatted_address": "EL Hegaz St, El-Bostan Heliopolis Cairo Governorate 30°06'10.2\"N 31°19'37.1\"E 30°06'10.5\"N 31°19'37.8\"E, Cairo Governorate 11771, Egypt", "lat": 30.10295979999999, "lng": 31.32684769999999, "types": ["travel_agency", "point_of_interest", "establishment"], "place_id": "ChIJH4CObJIVWBQR0MM2p5qpBJE"}, {"name": "Heliopolis Towers Hotel", "formatted_address": "El Shaheed Sayed Zakaria, Sheraton Al Matar, El Nozha, Cairo Governorate 11736, Egypt", "lat": 30.1074763, "lng": 31.3661798, "types": ["lodging", "point_of_interest", "establishment"], "place_id": "ChIJZ9p3820WWBQRmZh2M_MSzOQ"}, {"name": "Real Estate Registration Mission - Heliopolis", "formatted_address": "3 Al Mahkma, El-Nozha, El Nozha, Cairo Governorate, Egypt", "lat": 30.10399, "lng": 31.3300372, "types": ["finance", "local_government_office", "point_of_interest", "establishment"], "place_id": "ChIJF5c73ZIVWBQRdDNAmiyChGA"}, {"name": "First Dream Travel", "formatted_address": "33 Abaza, El-Bostan, Heliopolis, Cairo Governorate, Egypt", "lat": 30.1035128, "lng": 31.3260203, "types": ["travel_agency", "point_of_interest", "establishment"], "place_id": "ChIJsarDBJIVWBQRuJ--R6tgQLE"}, {"name": "Golden Park Hotel", "formatted_address": "شارع الحجاز ، مصر الجديده، 221 شارع الحجاز ، هيليوبوليس ،، El Nozha, Cairo Governorate, Egypt", "lat": 30.1153686, "lng": 31.3525102, "types": ["lodging", "point_of_interest", "establishment"], "place_id": "ChIJsQQdRNgVWBQRss6fVxNFk_8"}, {"name": "MA Dido", "formatted_address": "Al Bustan, Heliopolis, Cairo Governorate, Egypt", "lat": 30.1026405, "lng": 31.3282051, "types": ["school", "point_of_interest", "establishment"], "place_id": "ChIJx8yKfpIVWBQR3haI3lddfTo"}, {"name": "Hassaton egypt", "formatted_address": "55 El Hegaz St, El-Bostan, Heliopolis, Cairo Governorate, Egypt", "lat": 30.1025278, "lng": 31.3275817, "types": ["point_of_interest", "establishment"], "place_id": "ChIJ9zA9C9IVWBQRNxwIE5VqfIg"}, {"name": "Baron Hotel Heliopolis", "formatted_address": "14 Al Baroon, El-Montaza, Heliopolis, Cairo Governorate, Egypt", "lat": 30.0860748, "lng": 31.3314609, "types": ["lodging", "point_of_interest", "establishment"], "place_id": "ChIJUbVOACI-WBQRWsi5B7gYfxs"}, {"name": "Elmahkama bridge", "formatted_address": "El Hegaz St, El-Bostan, Heliopolis, Cairo Governorate, Egypt", "lat": 30.10363169999999, "lng": 31.328594, "types": ["point_of_interest", "establishment"], "place_id": "ChIJ8y3_cwEVWBQR8kC0f_GfIM8"}, {"name": "Church of the Great Martyr Saint George and Anba Ebram - كنيسة الشهيد العظيم مارجرجس و الأنبا ابرآم", "formatted_address": "54 Abd El-Aziz Fahmy, Al Matar, El Nozha, Cairo Governorate, Egypt", "lat": 30.1080494, "lng": 31.3392792, "types": ["church", "place_of_worship", "point_of_interest", "establishment"], "place_id": "ChIJvzrXsekVWBQRye4OpOsJnNM"}, {"name": "Heliopolis Law Firm", "formatted_address": "El-Nozha, القاهرة، Cairo Governorate 11771, Egypt", "lat": 30.1030348, "lng": 31.3305482, "types": ["point_of_interest", "establishment"], "place_id": "ChIJ0ZF2G-kVWBQRerV2aTKGSZ8"}]