[{"name": "Our Lady of Heliopolis Co-Cathedral", "formatted_address": "Nazih Khalifa crossroad، Al Ahram, Heliopolis, Cairo Governorate, Egypt", "lat": 31.3251828, "types": ["church", "place_of_worship", "point_of_interest", "establishment"], "place_id": "ChIJJdgh-okVWBQR5TqTmKuQ0IM"}, {"name": "Education Management Consultations", "formatted_address": "29 Al Badeya, Almazah, Heliopolis, Cairo Governorate, Egypt", "lat": 31.3378915, "types": ["point_of_interest", "establishment"], "place_id": "ChIJIY4pbR4-WBQRcanRLGHGp28"}, {"name": "Global Trading Services - GTS", "formatted_address": "46 ش البادية، Almazah, Heliopolis, Cairo Governorate, Egypt", "lat": 31.3378915, "types": ["point_of_interest", "establishment"], "place_id": "ChIJIY4pbR4-WBQRiVeBtBbw5gU"}, {"name": "The Egyptian Museum", "formatted_address": "شارع ماريت باشا، ميدان التحرير، Egypt", "lat": 31.23361389999999, "types": ["museum", "tourist_attraction", "point_of_interest", "establishment"], "place_id": "ChIJw741VYhBWBQRD2Z6OiulDVI"}, {"name": "International Co. For Marketing & Real Estate Investment", "formatted_address": "27 El Badeya St.، Almazah, Heliopolis, Cairo Governorate, Egypt", "lat": 31.33774459999999, "types": ["point_of_interest", "establishment"], "place_id": "ChIJIY4pbR4-WBQRCuzkb7fA_Qk"}, {"name": "Porto Heliopolis", "formatted_address": "Almazah, Heliopolis, Cairo Governorate, Egypt", "lat": 31.348709, "types": ["lodging", "point_of_interest", "establishment"], "place_id": "ChIJR5FCXgE-WBQR471eyuZuvGw"}, {"name": "Style Travel International", "formatted_address": "Al Badeya, Almazah, Heliopolis, Cairo Governorate, Egypt", "lat": 31.3378915, "types": ["point_of_interest", "establishment"], "place_id": "ChIJIY4pbR4-WBQRwjjwKWbnIh4"}, {"name": "Blossoms", "formatted_address": "4 Al Hasbaa, Almazah, Heliopolis, Cairo Governorate, Egypt", "lat": 31.33774459999999, "types": ["school", "point_of_interest", "establishment"], "place_id": "ChIJZdPPCPYVWBQRjCeV19yrAA4"}, {"name": "M T S", "formatted_address": "٢٩ عبد السلام فريد، الماظة، قسم مصر الجديدة،، عبد السلام فريد، محافظة القاهرة‬،، Egypt", "lat": 31.3371013, "types": ["point_of_interest", "establishment"], "place_id": "ChIJHYi-zcIVWBQRS-L94GBsrA8"}, {"name": "Shawermer", "formatted_address": "128 ش الميرغنى، Almazah, Heliopolis, Cairo Governorate, Egypt", "lat": 31.3372729, "types": ["restaurant", "food", "point_of_interest", "establishment"], "place_id": "ChIJlzIL5B0-WBQRdvqTQ-uiMeE"}, {"name": "Heliopolis Towers Hotel", "formatted_address": "El Shaheed Sayed Zakaria, Sheraton Al Matar, El Nozha, Cairo Governorate 11736, Egypt", "lat": 31.3661798, "types": ["lodging", "point_of_interest", "establishment"], "place_id": "ChIJZ9p3820WWBQRmZh2M_MSzOQ"}, {"name": "Caliber Plus For Integrated Solutions", "formatted_address": "10 Off El Merghany st.، Almazah, Heliopolis, Cairo Governorate, Egypt", "lat": 31.33700899999999, "types": ["point_of_interest", "establishment"], "place_id": "ChIJ-UqC8x4-WBQR-LlYi3KZc20"}, {"name": "Citystars Heliopolis", "formatted_address": "Citystars, Cairo Governorate 11771, Egypt", "lat": 31.3458082, "types": ["shopping_mall", "point_of_interest", "establishment"], "place_id": "ChIJo0ecE_gVWBQRGGrouhZFdME"}, {"name": "Hedeya Heliopolis Branch", "formatted_address": "25 El-Horreya St. - off, El-Nozha, Cairo Governorate 11757, Egypt", "lat": 31.3394971, "types": ["point_of_interest", "clothing_store", "store", "establishment"], "place_id": "ChIJzXYzCrE_WBQRFRjWzFCKNaE"}, {"name": "بيل جيلاتو القاهرة", "formatted_address": "128 El Merghany Street, beside Shawermer, the same street of Mcdonald, Heliopolis, Cairo Governorate, Egypt", "lat": 31.337426, "types": ["grocery_or_supermarket", "food", "point_of_interest", "store", "establishment"], "place_id": "ChIJcZeT5B0-WBQRhOXTd_tc3Uw"}, {"name": "Khattab Paper Point", "formatted_address": "4 ش صلاح الدين، Almazah, Heliopolis, Cairo Governorate, Egypt", "lat": 31.3341, "types": ["point_of_interest", "establishment"], "place_id": "ChIJx9lCdfUVWBQRkBpdq15VFcs"}, {"name": "Baron Hotel Heliopolis", "formatted_address": "14 Al Baroon, El-Montaza, Heliopolis, Cairo Governorate, Egypt", "lat": 31.3314609, "types": ["lodging", "point_of_interest", "establishment"], "place_id": "ChIJUbVOACI-WBQRWsi5B7gYfxs"}, {"name": "Cleopatra Hospital", "formatted_address": "39 Cleopatra Street, Opposite Maidan Salahuddin Square، Almazah, Heliopolis, Egypt", "lat": 31.3298159, "types": ["hospital", "health", "point_of_interest", "establishment"], "place_id": "ChIJhdsOk4oVWBQR9Ar3ET-SLGQ"}, {"name": "InterContinental Citystars Cairo, an IHG Hotel", "formatted_address": "Omar Ibn El Khattab، Street، Cairo Governorate 11737, Egypt", "lat": 31.3478955, "types": ["lodging", "point_of_interest", "establishment"], "place_id": "ChIJJYCniw4-WBQRDaNySSZ_iuI"}, {"name": "Rotary Egypt Office", "formatted_address": "30°05'22. 31°20'09., 4 No. 5, Al Golf, Nasr City, Cairo Governorate, Egypt", "lat": 31.335977, "types": ["point_of_interest", "establishment"], "place_id": "ChIJA_gvGh4-WBQRJqgwdP0KfcQ"}, {"name": "Mansour", "formatted_address": "33 ش البادية، Almazah, Heliopolis, Cairo Governorate, Egypt", "lat": 31.3378915, "types": ["point_of_interest", "establishment"], "place_id": "ChIJIY4pbR4-WBQRrtQrlKcuq8U"}, {"name": "البارون سنتر ميلسا", "formatted_address": "29 Abd El-Salam Farid, Almazah, Heliopolis, Cairo Governorate, Egypt", "lat": 31.3372993, "types": ["point_of_interest", "establishment"], "place_id": "ChIJ3Zc-BvYVWBQRKsQY_Yf-gi4"}, {"name": "International Office For Stationery", "formatted_address": "5 El Zahra St.، Almazah, Heliopolis, Cairo Governorate, Egypt", "lat": 31.3374, "types": ["point_of_interest", "establishment"], "place_id": "ChIJmVGa3_UVWBQRyuh-CHCwVng"}, {"name": "Baron Empain Palace", "formatted_address": "El-Orouba, El-Montaza, Heliopolis, Cairo Governorate 11757, Egypt", "lat": 31.3303332, "types": ["point_of_interest", "establishment"], "place_id": "ChIJ1_GM8iE-WBQRLNVi-RT7vDA"}, {"name": "El Borg For Metal Shaping & Machining", "formatted_address": "132 El Marghany St.، Almazah, Heliopolis, Cairo Governorate, Egypt", "lat": 31.338023, "types": ["point_of_interest", "establishment"], "place_id": "ChIJXceDxxg-WBQRcRZfKMM6UVc"}, {"name": "Muse", "formatted_address": "103 Al Marghni, Almazah, Heliopolis, Cairo Governorate, Egypt", "lat": 31.3378339, "types": ["point_of_interest", "establishment"], "place_id": "ChIJGw60wh0-WBQRZPMw-H51PJ4"}, {"name": "Al Nasr For Trading & Distribution", "formatted_address": "29 ش عبد الواحد فهمى، Almazah, Heliopolis, Cairo Governorate, Egypt", "lat": 31.3375736, "types": ["point_of_interest", "establishment"], "place_id": "ChIJfbCDevYVWBQRofq1HiQoa8E"}, {"name": "German Egyptian Trading Co. For Export & Import - GETCO", "formatted_address": "105 ش المرغنى، Almazah, Heliopolis, Cairo Governorate, Egypt", "lat": 31.3383, "types": ["point_of_interest", "establishment"], "place_id": "ChIJPcUP7R0-WBQR-joLWCOFves"}, {"name": "Magdy Salon", "formatted_address": "27 ش عبد الواحد فهمى، Almazah, Heliopolis, Cairo Governorate, Egypt", "lat": 31.3375736, "types": ["point_of_interest", "establishment"], "place_id": "ChIJfbCDevYVWBQRg5xZXNsGAao"}, {"name": "Hesham Riad Mohamed El Fouly", "formatted_address": "96 ش الزهراء، عين شمس، القاهرة، Cairo Governorate, Egypt", "lat": 31.3372128, "types": ["point_of_interest", "establishment"], "place_id": "ChIJcWGuC_YVWBQRL5mkZNtWL6c"}, {"name": "Nile Aster International", "formatted_address": "41 ش فريد، مصر الجديدة، القاهرة، Cairo Governorate, Egypt", "lat": 31.338499, "types": ["point_of_interest", "establishment"], "place_id": "ChIJp-wTQvYVWBQRyMPt1jPwCBE"}, {"name": "El Deshnawy Co. For Trade", "formatted_address": "22 Lomomba, Almazah, Heliopolis, Cairo Governorate, Egypt", "lat": 31.3382212, "types": ["point_of_interest", "establishment"], "place_id": "ChIJRcR66h0-WBQReR1VEALK92I"}, {"name": "Karrar Group", "formatted_address": "25 ش عبد السلام فريد، Almazah, Heliopolis, Cairo Governorate, Egypt", "lat": 31.338646, "types": ["point_of_interest", "establishment"], "place_id": "ChIJ_f5-Ax4-WBQRY0_vGHzDRfk"}, {"name": "El Romany Group", "formatted_address": "99 ش الميرغنى، Almazah, Heliopolis, Cairo Governorate, Egypt", "lat": 31.3373425, "types": ["point_of_interest", "establishment"], "place_id": "ChIJXcxt2R0-WBQR6GaEDWw3nDs"}, {"name": "Spicy", "formatted_address": "97 ش الميرغنى، Almazah, Heliopolis, Cairo Governorate, Egypt", "lat": 31.337073, "types": ["point_of_interest", "establishment"], "place_id": "ChIJXceDxxg-WBQR9DB4G8BW3tM"}, {"name": "Go & Ly Silver", "formatted_address": "4 ش د. سيد عبد الواحد، Almazah, Heliopolis, Cairo Governorate, Egypt", "lat": 31.3375736, "types": ["point_of_interest", "establishment"], "place_id": "ChIJFWJ8zyc-WBQR1QnRk8GL_jg"}, {"name": "Sun Flower-Flowers", "formatted_address": "10 Lomomba, Almazah, Heliopolis, Cairo Governorate, Egypt", "lat": 31.33718339999999, "types": ["point_of_interest", "establishment"], "place_id": "ChIJ_we0WBs-WBQRCParm91Bu9U"}, {"name": "Bondok", "formatted_address": "27-29 البادية، الماظة، قسم مصر الجديدة،، Cairo Governorate, Egypt", "lat": 31.33729, "types": ["restaurant", "food", "point_of_interest", "establishment"], "place_id": "ChIJy2WIppc_WBQRW3mEJ3b12hM"}, {"name": "AM creative studio", "formatted_address": "35 Abd El-Salam Farid, Almazah, Heliopolis, Cairo Governorate, Egypt", "lat": 31.3377862, "types": ["point_of_interest", "establishment"], "place_id": "ChIJa8avNn4VWBQRypGc1PEogJg"}, {"name": "International Shipping & Transport", "formatted_address": "5 ش عبد السلام فريد، Almazah, Heliopolis, Cairo Governorate, Egypt", "lat": 31.338646, "types": ["point_of_interest", "establishment"], "place_id": "ChIJqQosavYVWBQRTa7X3Ohvd7A"}, {"name": "أسك للسياحة - (Aviation service center ) ASC Tours", "formatted_address": "132 El Marghani st, Heliopolis، Almazah, مصرالجديدة، Cairo Governorate 11757, Egypt", "lat": 31.3379401, "types": ["travel_agency", "tourist_attraction", "point_of_interest", "establishment"], "place_id": "ChIJIyDwcSA_WBQR6wgs3qTitzQ"}, {"name": "National Foundation Co", "formatted_address": "10 Lumomba st. Marghany Heliopolis, Cairo Governorate, Egypt", "lat": 31.3370595, "types": ["point_of_interest", "establishment"], "place_id": "ChIJz27H3Qg_WBQRg8CxLdMOYKs"}, {"name": "Epic Egypt", "formatted_address": "132 El Marghani st, Heliopolis, Cairo, Cairo Governorate 11757, Egypt", "lat": 31.3379069, "types": ["home_goods_store", "point_of_interest", "store", "establishment"], "place_id": "ChIJia7X9h0-WBQRDwAbSq_oZ20"}, {"name": "InfoDynamics Research & Consulting", "formatted_address": "30 Abd El-Salam Farid, Almazah, Heliopolis, Cairo Governorate, Egypt", "lat": 31.3370163, "types": ["point_of_interest", "establishment"], "place_id": "ChIJhUZEs9oVWBQRAQ1Ms_vWmmk"}, {"name": "Amiral Group", "formatted_address": "40-36 Al Badeya, Almazah, Heliopolis, Cairo Governorate, Egypt", "lat": 31.33750899999999, "types": ["point_of_interest", "establishment"], "place_id": "ChIJC8enrZs_WBQRYYKkOrFRZGE"}, {"name": "Golden Park Hotel", "formatted_address": "شارع الحجاز ، مصر الجديده، 221 شارع الحجاز ، هيليوبوليس ،، El Nozha, Cairo Governorate, Egypt", "lat": 31.3525102, "types": ["lodging", "point_of_interest", "establishment"], "place_id": "ChIJsQQdRNgVWBQRss6fVxNFk_8"}, {"name": "Da", "formatted_address": "11 Ramsis, El-Montaza, Heliopolis, Cairo Governorate, Egypt", "lat": 31.322709, "types": ["point_of_interest", "establishment"], "place_id": "ChIJ_____yY-WBQRJeixQKRo8bc"}, {"name": "Design Studio Egypt", "formatted_address": "120-124, El-Sayed El-Merghany, Almazah, Heliopolis, Cairo Governorate, Egypt", "lat": 31.3361069, "types": ["point_of_interest", "establishment"], "place_id": "ChIJcbRXZB4-WBQRRYyUVWy59TA"}, {"name": "103الميرغينى مصر الجديدة", "formatted_address": "103 Al Marghni, الماظة، قسم مصر الجديدة،،، Cairo Governorate, Egypt", "lat": 31.3378339, "types": ["shopping_mall", "point_of_interest", "establishment"], "place_id": "ChIJzYVgBEg_WBQRQdWuXvGnUAw"}, {"name": "الفرسان لتصوير المستندات", "formatted_address": "29 Al Badeya, Almazah, Heliopolis, Cairo Governorate, Egypt", "lat": 31.3379175, "types": ["book_store", "point_of_interest", "store", "establishment"], "place_id": "ChIJ_WevHfYVWBQRprn-UjMR6_Y"}, {"name": "REMAX The Address", "formatted_address": "16 Hassan Moussa El-Akkad, El-Horreya street, Cairo Governorate, Egypt", "lat": 31.3395541, "types": ["real_estate_agency", "point_of_interest", "establishment"], "place_id": "ChIJ2bJadv8_WBQRfSfIKY_xCFk"}, {"name": "Al Tawfiq Mosque", "formatted_address": "Almazah, Heliopolis, Cairo Governorate, Egypt", "lat": 31.3376289, "types": ["mosque", "place_of_worship", "point_of_interest", "establishment"], "place_id": "ChIJq6qa-h0-WBQRc5PG7ISBebU"}, {"name": "Healthwise-Egypt", "formatted_address": "19 Sekat Mohammed Abeid, Almazah, Heliopolis, Cairo Governorate, Egypt", "lat": 31.3397229, "types": ["point_of_interest", "establishment"], "place_id": "ChIJxU2MLu8_WBQRGT4puvqrXbM"}, {"name": "Misr For Central Clearing, Depository & Registry", "formatted_address": "117 El-Thawra St, Masaken Al Mohandesin, Heliopolis, Cairo Governorate, Egypt", "lat": 31.3433521, "types": ["point_of_interest", "establishment"], "place_id": "ChIJ_we0WBs-WBQRc_YMliOZLHI"}, {"name": "The Content , DJ Kiro Adel , JanSelimStudios", "formatted_address": "35 Abd El-Salam Farid, Almazah, Heliopolis, Cairo Governorate, Egypt", "lat": 31.3378563, "types": ["point_of_interest", "establishment"], "place_id": "ChIJY2m8NvMVWBQRlQi7-J9JvH8"}, {"name": "The Panini House", "formatted_address": "Kobri Al Merghani, Almazah, Heliopolis, Cairo Governorate 11341, Egypt", "lat": 31.33732, "types": ["cafe", "restaurant", "food", "point_of_interest", "store", "establishment"], "place_id": "ChIJm4Jo4x0-WBQRDZeWsY8TiLc"}, {"name": "Orange Shop (Heliopolies)", "formatted_address": "110 Al Merghani, Almazah, Heliopolis, Cairo Governorate, Egypt", "lat": 31.33469199999999, "types": ["electronics_store", "point_of_interest", "store", "establishment"], "place_id": "ChIJ6-b2Whs_WBQR6XwmHQt9Of0"}, {"name": "Elle Nails", "formatted_address": "29 البادية، الماظة، قسم مصر الجديدة،، Cairo Governorate, Egypt", "lat": 31.3379456, "types": ["beauty_salon", "point_of_interest", "establishment"], "place_id": "ChIJY2nSh9IVWBQRERmuk1oGGsc"}, {"name": "British Council", "formatted_address": "4 Minya, El-Bostan, Heliopolis, Cairo Governorate, Egypt", "lat": 31.3236016, "types": ["point_of_interest", "establishment"], "place_id": "ChIJz8iNp4kVWBQRdB9ba3Xvh0M"}, {"name": "Burger King - Tivoli Dome Heliopolis", "formatted_address": "Tivoli Dome, Omar Ibn El Khattab St، Almazah, Heliopolis, Cairo Governorate, Egypt", "lat": 31.3478102, "types": ["restaurant", "food", "point_of_interest", "establishment"], "place_id": "ChIJ8asB1I8_WBQR-CVqCM1YprU"}]