[{"name": "El Merghany Bridge El Thawra intersection - كوبري الميرغني تقاطع الثوره", "formatted_address": "Kobri Al Merghani, Al Golf, Heliopolis, Cairo Governorate, Egypt", "lat": 31.3343962, "types": ["point_of_interest", "establishment"], "place_id": "ChIJ31q0jlY_WBQRz2ezp3FtuJ4"}, {"name": "Baron Empain Palace", "formatted_address": "El-Orouba, El-Montaza, Heliopolis, Cairo Governorate 11757, Egypt", "lat": 31.3303332, "types": ["point_of_interest", "establishment"], "place_id": "ChIJ1_GM8iE-WBQRLNVi-RT7vDA"}, {"name": "Ittihadia Palace", "formatted_address": "Al Nadi، El-Montaza, Heliopolis, Cairo Governorate, Egypt", "lat": 31.3193929, "types": ["tourist_attraction", "premise", "point_of_interest", "establishment"], "place_id": "ChIJuftqUS8-WBQRtM7fDk0QcPk"}, {"name": "شركة ميرميد للقرى السياحية", "formatted_address": "110 Al Merghani, Al Matar, El Nozha, Cairo Governorate, Egypt", "lat": 31.33469199999999, "types": ["point_of_interest", "establishment"], "place_id": "ChIJje9M-h4-WBQRyBF8BYgCoUw"}, {"name": "True Technology", "formatted_address": "95 ش الميرغنى، Almazah, Heliopolis, Cairo Governorate, Egypt", "lat": 31.336521, "types": ["point_of_interest", "establishment"], "place_id": "ChIJXceDxxg-WBQRjQxIQpVRXQI"}, {"name": "Triptanza", "formatted_address": "116 Kobri Al Merghani, Almazah, Heliopolis, Cairo Governorate, Egypt", "lat": 31.3353902, "types": ["travel_agency", "point_of_interest", "establishment"], "place_id": "ChIJpeIcXx4-WBQRxeAHELpK9lg"}, {"name": "ميزون توماس", "formatted_address": "114 El-Sayed El-Merghany, Al Matar, El Nozha, Cairo Governorate, Egypt", "lat": 31.3350996, "types": ["point_of_interest", "establishment"], "place_id": "ChIJOwVb9h4-WBQRtKOsXZnB7IQ"}, {"name": "Country Hills", "formatted_address": "24 Al Merghani, Al Matar, El Nozha, Cairo Governorate, Egypt", "lat": 31.3334603, "types": ["point_of_interest", "establishment"], "place_id": "ChIJJd1w0hg-WBQRyaCC3kpjuhc"}, {"name": "The Egyptian Museum", "formatted_address": "شارع ماريت باشا، ميدان التحرير، Egypt", "lat": 31.23361389999999, "types": ["museum", "tourist_attraction", "point_of_interest", "establishment"], "place_id": "ChIJw741VYhBWBQRD2Z6OiulDVI"}, {"name": "Wok And Walk", "formatted_address": "95b كوبري الميرغني،، الماظة،، Heliopolis, Cairo Governorate, Egypt", "lat": 31.3364273, "types": ["restaurant", "food", "point_of_interest", "establishment"], "place_id": "ChIJ036_5aw_WBQRlPqWuUtTN6g"}, {"name": "Imbaba Bridge", "formatted_address": "Embaba Bridge, Rod El Farag, Cairo Governorate, Egypt", "lat": 31.2255035, "types": ["tourist_attraction", "point_of_interest", "establishment"], "place_id": "ChIJBy1grPlAWBQRRqWNPIHVl8c"}, {"name": "Louko Mama", "formatted_address": "95 كوبري الميرغني،, Almazah, Heliopolis, Cairo Governorate, Egypt", "lat": 31.3367686, "types": ["bakery", "food", "point_of_interest", "store", "establishment"], "place_id": "ChIJYcskfh4-WBQRLT1SXanOtdY"}, {"name": "Nero Travel", "formatted_address": "100 El-Sayed El-Merghany, Almazah, Heliopolis, Cairo Governorate, Egypt", "lat": 31.334964, "types": ["travel_agency", "point_of_interest", "establishment"], "place_id": "ChIJU-t3Vko_WBQR3TbYFJ353zY"}, {"name": "كوبرى المانسترلى", "formatted_address": "كورنيش، AR Rawdah WA Al Meqyas, Old Cairo, Giza Governorate, Egypt", "lat": 31.2270643, "types": ["tourist_attraction", "museum", "point_of_interest", "establishment"], "place_id": "ChIJt-imJhpHWBQRA_HaUyty7fk"}, {"name": "Orange Shop (Heliopolies)", "formatted_address": "110 Al Merghani, Almazah, Heliopolis, Cairo Governorate, Egypt", "lat": 31.33469199999999, "types": ["electronics_store", "point_of_interest", "store", "establishment"], "place_id": "ChIJ6-b2Whs_WBQR6XwmHQt9Of0"}, {"name": "Colosseum Cafe", "formatted_address": "95 Kobri Al Merghani, Almazah, Heliopolis, Cairo Governorate, Egypt", "lat": 31.3364421, "types": ["cafe", "food", "point_of_interest", "establishment"], "place_id": "ChIJaXUsYx4-WBQRa_EaCuVxKU4"}, {"name": "New High Motors", "formatted_address": "95b Kobri Al Merghani, Almazah, Heliopolis, Cairo Governorate, Egypt", "lat": 31.3364001, "types": ["car_dealer", "point_of_interest", "store", "establishment"], "place_id": "ChIJfZR6tSw_WBQRSLGc-y2toSs"}, {"name": "Cinnabon", "formatted_address": "102 B Al Merghani, St، Heliopolis, Cairo Governorate, Egypt", "lat": 31.3313639, "types": ["bakery", "food", "point_of_interest", "store", "establishment"], "place_id": "ChIJXxaiA8c_WBQRqIBWIK3MOsk"}, {"name": "Feteerabon", "formatted_address": "95 Kobri Al Merghani, Almazah, Heliopolis, Cairo Governorate, Egypt", "lat": 31.3375926, "types": ["restaurant", "food", "point_of_interest", "establishment"], "place_id": "ChIJxT_Td38_WBQRPDWNE3piyRo"}, {"name": "Al Merghani Bridge", "formatted_address": "Almazah, Heliopolis, Cairo Governorate, Egypt", "lat": 31.33445, "types": ["transit_station", "point_of_interest", "establishment"], "place_id": "ChIJT4Di4x4-WBQRl9pWiwm76RE"}, {"name": "Beauty salon cleopatra ( كوافير كليوباترا )", "formatted_address": "103 Kobri Al Merghani, st، Heliopolis, Cairo Governorate, Egypt", "lat": 31.335437, "types": ["beauty_salon", "point_of_interest", "establishment"], "place_id": "ChIJXUaO9B4-WBQRvyKij_2G-i4"}, {"name": "مدرسه المحمديه الاعداديه بنات", "formatted_address": "12 El-Horeya, Helmeyat AZ Zaytoun, Heliopolis, Cairo Governorate, Egypt", "lat": 31.3356078, "types": ["point_of_interest", "establishment"], "place_id": "ChIJu9Q-hnUVWBQRsCOrSTvffZM"}, {"name": "hdfdsf", "formatted_address": "11721، Kobri Al Merghani, Heliopolis, Cairo Governorate, Egypt", "lat": 31.33399959999999, "types": ["point_of_interest", "establishment"], "place_id": "ChIJI-KPndw9WBQRToT46e3Qe28"}, {"name": "The Panini House", "formatted_address": "Kobri Al Merghani, Almazah, Heliopolis, Cairo Governorate 11341, Egypt", "lat": 31.33732, "types": ["cafe", "restaurant", "food", "point_of_interest", "store", "establishment"], "place_id": "ChIJm4Jo4x0-WBQRDZeWsY8TiLc"}, {"name": "Hookah", "formatted_address": "116 El-Sayed El-Merghany, Almazah, Heliopolis, Cairo Governorate, Egypt", "lat": 31.3353275, "types": ["cafe", "restaurant", "food", "point_of_interest", "establishment"], "place_id": "ChIJEfdMXh4-WBQRECAIdyGYi_8"}, {"name": "TRAFFIC store", "formatted_address": "99 Kobri Al Merghani, Almazah, قسم مصر الجديدة،، Cairo Governorate, Egypt", "lat": 31.3373543, "types": ["store", "point_of_interest", "establishment"], "place_id": "ChIJtRyBhfw_WBQR56LiAf-dRt4"}, {"name": "مركز مصر للاشعة", "formatted_address": "11 Al Merghani, Al Golf, Heliopolis, Cairo Governorate, Egypt", "lat": 31.3335701, "types": ["doctor", "health", "point_of_interest", "establishment"], "place_id": "ChIJb80eaRM_WBQR-0-p-THb8uQ"}, {"name": "Saint Mary Church - Ard El-Golf", "formatted_address": "Shams Al Din Al Zahabi, Al Golf, Nasr City, Cairo Governorate, Egypt", "lat": 31.33328239999999, "types": ["church", "place_of_worship", "point_of_interest", "establishment"], "place_id": "ChIJz961RBg-WBQR2HK25harflQ"}, {"name": "Gom3a", "formatted_address": "Kobri Al Merghani, Al Golf, Nasr City, Cairo Governorate, Egypt", "lat": 31.334524, "types": ["restaurant", "food", "point_of_interest", "establishment"], "place_id": "ChIJGcOH_k0_WBQRQTNVAlfBCjE"}, {"name": "QNB Al Ahli", "formatted_address": "95 ش الميرغنى، الماظة، قسم مصر الجديدة،، Cairo Governorate, Egypt", "lat": 31.3368527, "types": ["bank", "finance", "point_of_interest", "establishment"], "place_id": "ChIJaafsohg-WBQRN0yJxEEbo0Q"}, {"name": "McCafe", "formatted_address": "كوبري الميرغني، الماظة، قسم مصر الجديدة،، Cairo Governorate, Egypt", "lat": 31.3346721, "types": ["cafe", "food", "point_of_interest", "store", "establishment"], "place_id": "ChIJ6yubQyo_WBQRHACeBLHLkz4"}, {"name": "Value Woman", "formatted_address": "99 Kobri Al Merghani, Almazah, Heliopolis, Cairo Governorate, Egypt", "lat": 31.33737, "types": ["point_of_interest", "clothing_store", "store", "establishment"], "place_id": "ChIJ0_oyYgQ_WBQRz1KpDUKhXkQ"}, {"name": "البنك الأهلى فرع الميرغنى", "formatted_address": "36 شارع الثورة ناصية شارع الميرغني - مصر الجديدة, Cairo Governorate 11431, Egypt", "lat": 31.33416, "types": ["atm", "finance", "point_of_interest", "establishment"], "place_id": "ChIJty1e_R4-WBQR1fAojFNkNlM"}, {"name": "FaroFX", "formatted_address": "116 Kobri Al Merghani, Almazah, Heliopolis, Cairo Governorate, Egypt", "lat": 31.335346, "types": ["finance", "point_of_interest", "establishment"], "place_id": "ChIJg_APXx4-WBQRDmZF8hNMryY"}, {"name": "Amer Group Almirghani Branch", "formatted_address": "الدور الثامن، 93 Al Merghani, Heliopolis, Cairo Governorate, Egypt", "lat": 31.333732, "types": ["point_of_interest", "establishment"], "place_id": "ChIJoVyc0xg-WBQRwsAWmVOMrJ0"}, {"name": "Porto Heliopolis", "formatted_address": "Almazah, Heliopolis, Cairo Governorate, Egypt", "lat": 31.348709, "types": ["lodging", "point_of_interest", "establishment"], "place_id": "ChIJR5FCXgE-WBQR471eyuZuvGw"}, {"name": "المعاذ لتجارة الأدوات المنزلية", "formatted_address": "١ شارع الحرية، امام مستشفى المطريةالتعليمى، سوق الخمي،، Cairo Governorate, Egypt", "lat": 31.3354845, "types": ["point_of_interest", "establishment"], "place_id": "ChIJva3mfpQ_WBQRJ7WS8xd_ymU"}, {"name": "The National Museum of Egyptian Civilization", "formatted_address": "Ein as Seirah, Old Cairo, Cairo Governorate, Egypt", "lat": 31.2482604, "types": ["museum", "tourist_attraction", "point_of_interest", "establishment"], "place_id": "ChIJj57jY2hHWBQRXRSPb0RY4MI"}, {"name": "Feeterabon", "formatted_address": "99 Kobri Al Merghani, Almazah, Heliopolis, Cairo Governorate, Egypt", "lat": 31.33737, "types": ["restaurant", "food", "point_of_interest", "establishment"], "place_id": "ChIJhVW8xWI_WBQRmwzrC0eTheo"}, {"name": "Munch & Shake", "formatted_address": "Kobri Al Merghani, Almazah, Heliopolis, Cairo Governorate, Egypt", "lat": 31.3348699, "types": ["restaurant", "food", "point_of_interest", "establishment"], "place_id": "ChIJOdOT7Gs_WBQROofEx7rAqro"}, {"name": "SKILLS Interior Contractors", "formatted_address": "95 Kobri Al Merghani, Almazah, Heliopolis, Cairo Governorate, Egypt", "lat": 31.3364421, "types": ["point_of_interest", "establishment"], "place_id": "ChIJ_ZV3mjU_WBQRsqiLMfksgME"}, {"name": "Al Merghani Bridge", "formatted_address": "Al Golf, Heliopolis, Cairo Governorate, Egypt", "lat": 31.33449, "types": ["transit_station", "point_of_interest", "establishment"], "place_id": "ChIJhUR03h4-WBQRDtm4-ezfOg4"}, {"name": "Manasterly Palace", "formatted_address": "1 El-Malek El-Saleh, Old Cairo, Cairo Governorate, Egypt", "lat": 31.2248196, "types": ["museum", "tourist_attraction", "point_of_interest", "establishment"], "place_id": "ChIJGVPuNj1HWBQRE_F3N50otZk"}, {"name": "شركة باور للتكييفات", "formatted_address": "112 El-Sayed El-Merghany, Almazah, Heliopolis, Cairo Governorate, Egypt", "lat": 31.3350999, "types": ["point_of_interest", "establishment"], "place_id": "ChIJIzeSjU0_WBQRD2JVX1FMZNM"}, {"name": "الشركة العالمية للتجارة والتسويق - ITMCO", "formatted_address": "91 Kobri Al Merghani, Al Golf, Nasr City, Cairo Governorate, Egypt", "lat": 31.3332993, "types": ["point_of_interest", "store", "establishment"], "place_id": "ChIJ35PBiRs_WBQRJRYPaqxfsXE"}, {"name": "NADA Dress", "formatted_address": "103 Kobri Al Merghani, Almazah, Heliopolis, Cairo Governorate, Egypt", "lat": 31.3368077, "types": ["clothing_store", "point_of_interest", "store", "establishment"], "place_id": "ChIJgd6zeR4-WBQRa6wLrVHOFjE"}, {"name": "The buzz cafe", "formatted_address": "95b Kobri Al Merghani, Almazah, Heliopolis, Cairo Governorate, Egypt", "lat": 31.33631279999999, "types": ["cafe", "food", "point_of_interest", "establishment"], "place_id": "ChIJx1y0u0M_WBQReyr84RCPGz0"}, {"name": "El Zohour Center", "formatted_address": "Kobri Al Merghani, Al Golf, Nasr City, Cairo Governorate, Egypt", "lat": 31.3347811, "types": ["point_of_interest", "establishment"], "place_id": "ChIJkzotLRk-WBQRp1jxWTjcIGQ"}, {"name": "Sodic 46 El Thawra Street, Heliopolis", "formatted_address": "46 El-Thawra St, Almazah, Heliopolis, Cairo Governorate, Egypt", "lat": 31.3365718, "types": ["real_estate_agency", "point_of_interest", "establishment"], "place_id": "ChIJa3_JAiU_WBQRoarMzyMWRUc"}, {"name": "Sukar Rush-A", "formatted_address": "Kobri Al Merghani, Almazah, Heliopolis, Cairo Governorate, Egypt", "lat": 31.3349264, "types": ["cafe", "food", "point_of_interest", "establishment"], "place_id": "ChIJfe59HOI_WBQR0Cgq1n78Kq0"}, {"name": "Dodza Cafe and Restaurant", "formatted_address": "114 El-Sayed El-Merghany, Almazah, Heliopolis, Cairo Governorate, Egypt", "lat": 31.3350996, "types": ["cafe", "food", "point_of_interest", "establishment"], "place_id": "ChIJaRam_Ro_WBQRrIJwwOoHYps"}, {"name": "Shawermer", "formatted_address": "128 ش الميرغنى، Almazah, Heliopolis, Cairo Governorate, Egypt", "lat": 31.3372729, "types": ["restaurant", "food", "point_of_interest", "establishment"], "place_id": "ChIJlzIL5B0-WBQRdvqTQ-uiMeE"}, {"name": "Baron Hotel Heliopolis", "formatted_address": "14 Al Baroon, El-Montaza, Heliopolis, Cairo Governorate, Egypt", "lat": 31.3314609, "types": ["lodging", "point_of_interest", "establishment"], "place_id": "ChIJUbVOACI-WBQRWsi5B7gYfxs"}, {"name": "Tortina", "formatted_address": "١٠٥ الميرغني الماظة قسم النزهة مصر الجديدة، Cairo Governorate, Egypt", "lat": 31.338161, "types": ["bakery", "food", "point_of_interest", "store", "establishment"], "place_id": "ChIJ6_no6x0-WBQRqaKDvs0XakU"}, {"name": "McDonald's Merghany", "formatted_address": "110, Merghani, 110 Al Merghani, St, Heliopolis, Cairo Governorate, Egypt", "lat": 31.334673, "types": ["restaurant", "food", "point_of_interest", "establishment"], "place_id": "ChIJlZQvbyc-WBQR-Rxu40GPFq8"}, {"name": "Heliopolis Sporting Club (HSC)", "formatted_address": "17 El-Sayed El-Marghany, Mansheya El-Bakry, Heliopolis, Cairo Governorate, Egypt", "lat": 31.3164398, "types": ["point_of_interest", "establishment"], "place_id": "ChIJB9zy8B4-WBQRz_zRpJte8sA"}, {"name": "أهف للصناعات الغذائية", "formatted_address": "5 El-Horeya, Helmeyat AZ Zaytoun, Heliopolis, Cairo Governorate, Egypt", "lat": 31.3360691, "types": ["point_of_interest", "establishment"], "place_id": "ChIJ__8vjh4-WBQRKeksJMC8DxU"}, {"name": "Style Fashion", "formatted_address": "Kobri Al Merghani, Al Golf, Nasr City, Cairo Governorate, Egypt", "lat": 31.3337588, "types": ["clothing_store", "point_of_interest", "store", "establishment"], "place_id": "ChIJMdbRLh8-WBQRXWb9kKN0xnc"}, {"name": "Andrea", "formatted_address": "120-، 124 El-Sayed El-Merghany, Almazah, Heliopolis, Cairo Governorate, Egypt", "lat": 31.3359981, "types": ["restaurant", "food", "point_of_interest", "establishment"], "place_id": "ChIJORz2ZR4-WBQRihA2ru_bUis"}, {"name": "Chili's Al Merghani", "formatted_address": "Al Merghani, Al Golf, Nasr City, Cairo Governorate, Egypt", "lat": 31.3334628, "types": ["restaurant", "food", "point_of_interest", "establishment"], "place_id": "ChIJZ-QO0hg-WBQRhrYNXNA1cv0"}]