[{"name": "مسجد المنشية", "formatted_address": "ش ٦، Magra Al- Seel, حدائق حلوان، Cairo Governorate, Egypt", "lat": 29.8954655, "lng": 31.2968958, "types": ["mosque", "place_of_worship", "point_of_interest", "establishment"], "place_id": "ChIJ68aTeLI3WBQRidM9GgIj5DU"}, {"name": "مسجد الباقى", "formatted_address": "٣ Magra Al- Seel, حدايق، Helwan, Cairo Governorate, Egypt", "lat": 29.8966249, "lng": 31.2958139, "types": ["mosque", "place_of_worship", "point_of_interest", "establishment"], "place_id": "ChIJZQW1FLI3WBQRcJdI1koVzUM"}, {"name": "مسجد الإخلاص", "formatted_address": "شارع مجدي السيل حدايق، Helwan, Cairo Governorate, Egypt", "lat": 29.8971868, "lng": 31.2973532, "types": ["mosque", "place_of_worship", "point_of_interest", "establishment"], "place_id": "ChIJSZ_4-603WBQRj5ee4yd0vLI"}, {"name": "Al Azhar Park", "formatted_address": "Salah Salem St, El-Darb El-Ahmar, Cairo Governorate, Egypt", "lat": 30.040758, "lng": 31.2647327, "types": ["tourist_attraction", "park", "point_of_interest", "establishment"], "place_id": "ChIJcdNCwlg_WBQRsqBpd7z8tbQ"}, {"name": "El Hoda", "formatted_address": "94 Al Kasr Al Aini, Helwan El-Balad, Helwan, Cairo Governorate, Egypt", "lat": 29.8392338, "lng": 31.3071017, "types": ["mosque", "place_of_worship", "point_of_interest", "establishment"], "place_id": "ChIJ8we7wdI1WBQRCxkVPsPOtkE"}, {"name": "مكتب عبدالرحمن إبراهيم", "formatted_address": "Magra Al- Seel, Monshaat Nasir, حدائق حلوان، Cairo Governorate, Egypt", "lat": 29.8952873, "lng": 31.29703929999999, "types": ["lawyer", "point_of_interest", "establishment"], "place_id": "ChIJsyO3gK03WBQRwsfQa6IdosA"}, {"name": "القرىطي الأدوات الكهربائية", "formatted_address": "٤ Magra Al- Seel, حدايق، قسم حلوان،، Cairo Governorate, Egypt", "lat": 29.8958461, "lng": 31.2967081, "types": ["shopping_mall", "point_of_interest", "establishment"], "place_id": "ChIJuQkfPFM3WBQRQPdg7DllatI"}, {"name": "مول حسين درويش", "formatted_address": "شارع مجرى السيل، منشأة ناصر، قسم حلوان،، Cairo Governorate, Egypt", "lat": 29.8930544, "lng": 31.2984201, "types": ["home_goods_store", "point_of_interest", "store", "establishment"], "place_id": "ChIJc4hanfs3WBQRYmCNMk1T4WA"}, {"name": "Sniper X", "formatted_address": "شارع مجرى السيل، المنشية،، حدايق، Cairo Governorate, Egypt", "lat": 29.8966979, "lng": 31.2960181, "types": ["point_of_interest", "establishment"], "place_id": "ChIJMx0PE7I3WBQRpZcjJUkW8_s"}, {"name": "سنتر الصفوه للملابس الجاهزة", "formatted_address": "شارع مجرى السيل، حدائق، Cairo Governorate, Egypt", "lat": 29.8955187, "lng": 31.2968197, "types": ["clothing_store", "point_of_interest", "store", "establishment"], "place_id": "ChIJc9f7eLI3WBQR07gm6wYKs_w"}, {"name": "امير زهران", "formatted_address": "شارع مجرى السيل، منشأة ناصر، قسم حلوان، محافظة القاهرة‬،، منشأة ناصر، قسم حلوان، محافظة القاهرة‬،، Egypt", "lat": 29.8984105, "lng": 31.2950921, "types": ["point_of_interest", "establishment"], "place_id": "ChIJnft4fgM3WBQR7FbMqwvN8yI"}, {"name": "المصطفى", "formatted_address": "بجوار مستشفى محمد حسن، شارع مجرى السيل، قسم، Al Maasarah Al Mahattah, حدائق حلوان، Egypt", "lat": 29.8905882, "lng": 31.29855869999999, "types": ["point_of_interest", "establishment"], "place_id": "ChIJT-nx6lI2WBQRLQARXLGg1xE"}, {"name": "شركة مالك", "formatted_address": "شارع مجرى السيل، منشأة ناصر، قسم حلوان،، Cairo Governorate, Egypt", "lat": 29.897809, "lng": 31.295873, "types": ["shopping_mall", "point_of_interest", "establishment"], "place_id": "ChIJSxPmsQo3WBQRFZZ0G7tVSD0"}, {"name": "مخبوزات الصحابة الألية", "formatted_address": "Magra Al- Seel, Monshaat Nasir, حدائق حلوان، Cairo Governorate, Egypt", "lat": 29.8950274, "lng": 31.2978132, "types": ["bakery", "food", "point_of_interest", "store", "establishment"], "place_id": "ChIJDxDonK03WBQRYAwJnMlE3ks"}, {"name": "دار حضانة بيبى ود", "formatted_address": "98 شارع مجرى السيل، حدائق حلوان فيلا صلاح عبيد، قسم حلوان،، شارع مجرى السيل، محافظة القاهرة‬،، Egypt", "lat": 29.89597899999999, "lng": 31.2972772, "types": ["school", "point_of_interest", "establishment"], "place_id": "ChIJ969fbrM3WBQRPyTbdea4jt0"}, {"name": "Android", "formatted_address": "شارع مجرى السيل، حدائق، Cairo Governorate, Egypt", "lat": 29.8954611, "lng": 31.2968818, "types": ["point_of_interest", "establishment"], "place_id": "ChIJI6SUeLI3WBQRImz2egVKB08"}, {"name": "أبو ياسين للحدايد والبويات", "formatted_address": "Magra Al- Seel, Monshaat Nasir, حدائق حلوان، Cairo Governorate, Egypt", "lat": 29.8970426, "lng": 31.2958367, "types": ["home_goods_store", "point_of_interest", "store", "establishment"], "place_id": "ChIJ0zfEFrI3WBQR9rNgKVNIVIk"}, {"name": "كربيانو هيما", "formatted_address": "شارع مجرى السيل، ش Abd El-Aziz Abd Allah, منشأة ناصر،، قسم حلوان،، Cairo Governorate, Egypt", "lat": 29.8936233, "lng": 31.297985, "types": ["restaurant", "food", "point_of_interest", "establishment"], "place_id": "ChIJhb30u5I3WBQRc8W_WGuYDCM"}, {"name": "أسواق صابح ١", "formatted_address": "شارع مجرى السيل، حدائق، Cairo Governorate, Egypt", "lat": 29.8954498, "lng": 31.2967745, "types": ["supermarket", "grocery_or_supermarket", "food", "point_of_interest", "store", "establishment"], "place_id": "ChIJRc0mebI3WBQRpiZi5qO3vH4"}, {"name": "كوافير مودرن", "formatted_address": "Magra Al- Seel, Monshaat Nasir, حدائق حلوان، Cairo Governorate, Egypt", "lat": 29.89762709999999, "lng": 31.2962508, "types": ["hair_care", "health", "point_of_interest", "establishment"], "place_id": "ChIJc87UHLI3WBQRqKYfeOBZOSA"}, {"name": "تنظيفكو", "formatted_address": "Magra Al- Seel, Monshaat Nasir, حدائق حلوان، Cairo Governorate, Egypt", "lat": 29.89785, "lng": 31.2961203, "types": ["point_of_interest", "establishment"], "place_id": "ChIJYdrZ97E3WBQRYtGHjN6TLhA"}, {"name": "النادين للولادة", "formatted_address": "34, شارع مجرى السيل, حدائق حلوان، Magra Al- Seel, Helwan, Cairo Governorate, Egypt", "lat": 29.8947379, "lng": 31.2971617, "types": ["hospital", "health", "point_of_interest", "establishment"], "place_id": "ChIJwXPNeK03WBQR2usTyF_wmPg"}, {"name": "المناهري للزيوت", "formatted_address": "٤ Magra Al- Seel, حدايق، Helwan, Cairo Governorate, Egypt", "lat": 29.8960573, "lng": 31.2965304, "types": ["car_repair", "point_of_interest", "establishment"], "place_id": "ChIJwd1Dd7I3WBQRQli94zVqGaQ"}, {"name": "معرض أبو حمزة", "formatted_address": "Magra Al- Seel, Monshaat Nasir, حدائق حلوان، Cairo Governorate, Egypt", "lat": 29.8978335, "lng": 31.2960992, "types": ["plumber", "point_of_interest", "establishment"], "place_id": "ChIJ0c19HbI3WBQRM9q1qM72PZI"}, {"name": "نجمة الأصدقاء", "formatted_address": "Magra Al- Seel, Monshaat Nasir, حدائق حلوان، Cairo Governorate, Egypt", "lat": 29.8952803, "lng": 31.296874, "types": ["grocery_or_supermarket", "food", "point_of_interest", "store", "establishment"], "place_id": "ChIJ_VsVf7I3WBQRdwH_r1a4yyE"}, {"name": "غزة ماركت", "formatted_address": "Magra Al- Seel, Monshaat Nasir, حدائق حلوان، Cairo Governorate, Egypt", "lat": 29.8946379, "lng": 31.2974011, "types": ["supermarket", "grocery_or_supermarket", "food", "point_of_interest", "store", "establishment"], "place_id": "ChIJYXBBea03WBQR5nmeCmYdzR0"}, {"name": "سامى", "formatted_address": "Magra Al- Seel, Monshaat Nasir, حدائق حلوان، Cairo Governorate, Egypt", "lat": 29.8952914, "lng": 31.2971624, "types": ["point_of_interest", "store", "establishment"], "place_id": "ChIJ5cDUhq03WBQRD-EBfk1uBKY"}, {"name": "MAR Dental Center", "formatted_address": "Magra Al- Seel, Monshaat Nasir, Helwan, Cairo Governorate, Egypt", "lat": 29.8953242, "lng": 31.2969743, "types": ["dentist", "health", "point_of_interest", "establishment"], "place_id": "ChIJmVyqgK03WBQR57oBui9ge3Y"}, {"name": "Conceald Furniture", "formatted_address": "شارع مجرى السيل، منشأة ناصر، قسم حلوان، محافظة القاهرة‬،، Egypt", "lat": 29.8983857, "lng": 31.294882, "types": ["point_of_interest", "establishment"], "place_id": "ChIJNfiSCSs3WBQRNLDSgLcLiIY"}, {"name": "حضانة براعم الإيمان", "formatted_address": "١٠ Magra Al- Seel, Monshaat Nasir, حدايق حلوان، Cairo Governorate, Egypt", "lat": 29.8941764, "lng": 31.2976425, "types": ["school", "point_of_interest", "establishment"], "place_id": "ChIJl4tSZa03WBQR_aI6D-PeJfA"}, {"name": "etisalat", "formatted_address": "3، شارع مجرى السيل، حدايق، Cairo Governorate, Egypt", "lat": 29.8932672, "lng": 31.2983238, "types": ["point_of_interest", "establishment"], "place_id": "ChIJ5Q1rQK03WBQRO6xaxUthOJA"}, {"name": "كهربائى سيارات", "formatted_address": "Magra Al- Seel, Monshaat Nasir, حدائق حلوان، Cairo Governorate, Egypt", "lat": 29.8977654, "lng": 31.2953294, "types": ["car_repair", "point_of_interest", "store", "establishment"], "place_id": "ChIJS-twIbI3WBQRygTqlHD1tuI"}, {"name": "الباسل للعطاره", "formatted_address": "شارع مجرى السيل، حدائق، Cairo Governorate, Egypt", "lat": 29.8962377, "lng": 31.2963812, "types": ["grocery_or_supermarket", "food", "point_of_interest", "store", "establishment"], "place_id": "ChIJwThGcrI3WBQRckDOto1hh7E"}, {"name": "اوزى", "formatted_address": "Magra Al- Seel, Monshaat Nasir, حدائق حلوان، Cairo Governorate, Egypt", "lat": 29.8971397, "lng": 31.2956949, "types": ["supermarket", "grocery_or_supermarket", "food", "point_of_interest", "store", "establishment"], "place_id": "ChIJrV6rF7I3WBQRDS1sCzhpSqA"}, {"name": "الحمد للادوات الصحية والتركيبات", "formatted_address": "Magra Al- Seel, Monshaat Nasir, حدائق حلوان، Cairo Governorate, Egypt", "lat": 29.8970039, "lng": 31.295833, "types": ["plumber", "home_goods_store", "general_contractor", "point_of_interest", "store", "establishment"], "place_id": "ChIJtzPHFrI3WBQRC3nrUTPV3FM"}, {"name": "بابا عبده", "formatted_address": "Magra Al- Seel, Monshaat Nasir, Helwan, Cairo Governorate, Egypt", "lat": 29.8976881, "lng": 31.2962122, "types": ["convenience_store", "food", "point_of_interest", "store", "establishment"], "place_id": "ChIJlegvHbI3WBQRURT0PxOf0KE"}, {"name": "مكتبة زاهر", "formatted_address": "شارع مجرى السيل، منشأة ناصر، قسم حلوان،، Cairo Governorate, Egypt", "lat": 29.8945171, "lng": 31.2975068, "types": ["book_store", "point_of_interest", "store", "establishment"], "place_id": "ChIJYyPBDXc3WBQR7HGa4Ax1nkA"}, {"name": "دكتور عزت محمد جاد", "formatted_address": "شارع مجري السيل، حدائق حلوان، قسم، Al Maasarah Al Mahattah, Cairo Governorate, Egypt", "lat": 29.8946929, "lng": 31.297548, "types": ["doctor", "health", "point_of_interest", "establishment"], "place_id": "ChIJcWCtea03WBQRR7_MAazB8OU"}, {"name": "الغزالى للديكور وجميع أعمال الألوميتال", "formatted_address": "مدرسة حدائق الخاصة، شارع مجري السيل حدائق حلوان تقسم المعلمين - ش ترعة الخشاب بجوار، Egypt", "lat": 29.8979334, "lng": 31.29525, "types": ["home_goods_store", "general_contractor", "point_of_interest", "store", "establishment"], "place_id": "ChIJhWLcILI3WBQRg-QpGh2ghGI"}, {"name": "استكانه", "formatted_address": "شارع مجرى السيل، منشأة ناصر، قسم حلوان،، Cairo Governorate, Egypt", "lat": 29.8935832, "lng": 31.2982296, "types": ["cafe", "food", "point_of_interest", "store", "establishment"], "place_id": "ChIJraH9Poc3WBQRpeI0sV1NvX4"}, {"name": "مكتب عصام عزمى", "formatted_address": "٥١ شارع مجري السيل مع شارع ٩مصر حلوان الزراعي ، طره البلد ، نقطه شرطه طره، Cairo Governorate, Egypt", "lat": 29.949112, "lng": 31.268681, "types": ["lawyer", "point_of_interest", "establishment"], "place_id": "ChIJZ655KwQ4WBQRas8Ku-hbL9g"}, {"name": "معرض الإيمان للموبيليا", "formatted_address": "4 شارع مجرى السيل، حدايق، Cairo Governorate, Egypt", "lat": 29.8934546, "lng": 31.2981297, "types": ["furniture_store", "home_goods_store", "point_of_interest", "store", "establishment"], "place_id": "ChIJOTNtaq03WBQRz54rpAqsU7E"}, {"name": "corner furniture and decoration", "formatted_address": "50 Magra Al- Seel, Monshaat Nasir, حدائق حوان، Cairo Governorate 11731, Egypt", "lat": 29.894649, "lng": 31.29792789999999, "types": ["furniture_store", "home_goods_store", "point_of_interest", "store", "establishment"], "place_id": "ChIJV9FXf0A3WBQRvOIMT16-uZ0"}, {"name": "دودى", "formatted_address": "Magra Al- Seel, Monshaat Nasir, حدائق حلوان، Cairo Governorate, Egypt", "lat": 29.8970165, "lng": 31.2958626, "types": ["point_of_interest", "clothing_store", "store", "establishment"], "place_id": "ChIJla3JFrI3WBQRz1qCyObTu-U"}, {"name": "منزل اولاد الحاج محمد عبدالفتاح جوده", "formatted_address": "شارع مخر السيل الديسمى، مدينة الصف، El-Saf, Giza Governorate, Egypt", "lat": 29.4930943, "lng": 31.2797699, "types": ["lodging", "point_of_interest", "establishment"], "place_id": "ChIJ0QparY3BWRQRjRrCeZWEF8c"}, {"name": "طه كلين", "formatted_address": "Magra Al- Seel, Monshaat Nasir, حدائق حلوان، Cairo Governorate, Egypt", "lat": 29.8973972, "lng": 31.2955048, "types": ["laundry", "point_of_interest", "establishment"], "place_id": "ChIJ2ailIrI3WBQRKnkUmIOC8K8"}, {"name": "مكتب الأستاذة رشا عبد المنعم أحمد المحامية", "formatted_address": "نقطه شرطه، ٥١ شارع مجرى السيل مع شارع ٩مصر، Masr_helwan Agricultural St, Tura, Cairo Governorate, Egypt", "lat": 29.9466369, "lng": 31.2704888, "types": ["lawyer", "point_of_interest", "establishment"], "place_id": "ChIJMTiDcAQ4WBQR6_xdfHmQMBU"}, {"name": "دكتور أحمد طنطاوى", "formatted_address": "٤٤ شارع مجرى السيل، حدايق، Cairo Governorate, Egypt", "lat": 29.8957119, "lng": 31.2967245, "types": ["doctor", "health", "point_of_interest", "establishment"], "place_id": "ChIJ5UfZebI3WBQRT_UfVhn97As"}, {"name": "سوبر ماركت الصحابه", "formatted_address": "شارع مجرى السيل، المنشية،، حدايق، Cairo Governorate, Egypt", "lat": 29.89576529999999, "lng": 31.2974743, "types": ["supermarket", "grocery_or_supermarket", "food", "point_of_interest", "store", "establishment"], "place_id": "ChIJL1_zjq03WBQRR16wrf4SIs0"}, {"name": "مطعم عم الحاج", "formatted_address": "شارع مجرى السيل، منشأة ناصر، قسم حلوان، محافظة القاهرة‬،، Egypt", "lat": 29.8945647, "lng": 31.2980752, "types": ["restaurant", "food", "point_of_interest", "establishment"], "place_id": "ChIJs7USfHw3WBQRHwT2QP17a1Y"}, {"name": "دكتور مصطفى عبدالتواب السقارى", "formatted_address": "Magra Al- Seel, Monshaat Nasir, حدائق حلوان، Cairo Governorate, Egypt", "lat": 29.8953286, "lng": 31.29701889999999, "types": ["doctor", "health", "point_of_interest", "establishment"], "place_id": "ChIJTTlNh603WBQRU2lNna4iJ6Y"}, {"name": "أبو أحمد للمنظفات", "formatted_address": "Magra Al- Seel, Monshaat Nasir, حدائق حلوان، Cairo Governorate, Egypt", "lat": 29.8969031, "lng": 31.2958974, "types": ["home_goods_store", "point_of_interest", "store", "establishment"], "place_id": "ChIJMVv_E7I3WBQRNA_sWOTOIPk"}, {"name": "كوافير جودى وريماس", "formatted_address": "Magra Al- Seel, Monshaat Nasir, حدائق حلوان، Cairo Governorate, Egypt", "lat": 29.8970144, "lng": 31.29587489999999, "types": ["beauty_salon", "point_of_interest", "establishment"], "place_id": "ChIJIyXKFrI3WBQRCNbTvwccUf4"}, {"name": "البرديسى إلكتريك", "formatted_address": "شارع مجرى السيل، منشأة ناصر، قسم حلوان،، Cairo Governorate, Egypt", "lat": 29.8948564, "lng": 31.2972817, "types": ["home_goods_store", "point_of_interest", "store", "establishment"], "place_id": "ChIJz1K0eK03WBQR9wl6ag8155E"}, {"name": "مركز خدمة سيارات", "formatted_address": "Magra Al- Seel, Monshaat Nasir, Helwan, Cairo Governorate, Egypt", "lat": 29.8952859, "lng": 31.2975899, "types": ["car_wash", "point_of_interest", "establishment"], "place_id": "ChIJEzNl2Q43WBQRpmS0RuXG2XY"}, {"name": "صيدلية الحرمين", "formatted_address": "Magra Al- Seel, Monshaat Nasir, حدائق حلوان، Cairo Governorate, Egypt", "lat": 29.8951527, "lng": 31.2973361, "types": ["pharmacy", "health", "point_of_interest", "store", "establishment"], "place_id": "ChIJrbLfg603WBQR3JRQi5XKR5w"}, {"name": "ICE WINK", "formatted_address": "شارع جمال عبد الناصر أمام حسين درويش ترعت السيل حديق، Cairo Governorate, Egypt", "lat": 29.893205, "lng": 31.2985028, "types": ["restaurant", "food", "point_of_interest", "establishment"], "place_id": "ChIJOUrt2jw3WBQRqx2NN4Bvo_s"}, {"name": "محمية الغابة المتحجرة", "formatted_address": "Industrial Area, Third New Cairo, Cairo Governorate, Egypt", "lat": 29.9851264, "lng": 31.4467613, "types": ["park", "point_of_interest", "establishment"], "place_id": "ChIJZbhHL1kjWBQRFFVKS4yyi1g"}, {"name": "مسجد نور اليقين", "formatted_address": "Lami Al Moteai, Monshaat Nasir, Helwan, Cairo Governorate, Egypt", "lat": 29.8934061, "lng": 31.2990054, "types": ["mosque", "place_of_worship", "point_of_interest", "establishment"], "place_id": "ChIJDT4UF603WBQR69XN9KhZyeY"}, {"name": "MY PHONE", "formatted_address": "Magra Al- Seel, Monshaat Nasir, Helwan, Cairo Governorate, Egypt", "lat": 29.8978253, "lng": 31.2953053, "types": ["point_of_interest", "establishment"], "place_id": "ChIJrZGi6R43WBQRT3QyENkbMHw"}]