[{"name": "Islam Ibrahim El Henaidy", "formatted_address": "الاسماعيلية, حى الزهور، Egypt", "lat": 31.3759282, "types": ["point_of_interest", "establishment"], "place_id": "ChIJ9X_59WkWWBQRySjJ_jQxB-c"}, {"name": "Vertu Trade", "formatted_address": "2 El-Zohour, Al Matar, El Nozha, Cairo Governorate, Egypt", "lat": 31.3766289, "types": ["point_of_interest", "establishment"], "place_id": "ChIJUdc8BGoWWBQRm8dbOaSI7So"}, {"name": "Essam Mohamed Raafat", "formatted_address": "الاسماعيلية, حى الزهور، Egypt", "lat": 31.3759282, "types": ["point_of_interest", "establishment"], "place_id": "ChIJ9X_59WkWWBQRo0G-CXD1oo4"}, {"name": "Universal For Shipping & Customs Clearance", "formatted_address": "29 El-Zohour, Al Matar, El Nozha, Cairo Governorate, Egypt", "lat": 31.37632279999999, "types": ["point_of_interest", "establishment"], "place_id": "ChIJR51KA2oWWBQRmFHITPUxCoo"}, {"name": "United Advanced Systems", "formatted_address": "20 El-Zohour, Sheraton Al Matar, El Nozha, Cairo Governorate, Egypt", "lat": 31.375542, "types": ["point_of_interest", "establishment"], "place_id": "ChIJ-wyUFY9AWBQRNbBq0GFI9lE"}, {"name": "Mohamed Mostafa Abdel Rahman", "formatted_address": "الاسماعيلية, حى الزهور، Egypt", "lat": 31.3759282, "types": ["point_of_interest", "establishment"], "place_id": "ChIJ9X_59WkWWBQRv7MDWHX-aj8"}, {"name": "Cool Power", "formatted_address": "الاسماعيلية, حى الزهور، Egypt", "lat": 31.3759282, "types": ["point_of_interest", "establishment"], "place_id": "ChIJ9X_59WkWWBQRM5CQsweSG_8"}, {"name": "Ittihadia Palace", "formatted_address": "Al Nadi، El-Montaza, Heliopolis, Cairo Governorate, Egypt", "lat": 31.3193929, "types": ["tourist_attraction", "premise", "point_of_interest", "establishment"], "place_id": "ChIJuftqUS8-WBQRtM7fDk0QcPk"}, {"name": "Ayman Said Younes", "formatted_address": "الاسماعيلية, حى الزهور، Egypt", "lat": 31.3759282, "types": ["point_of_interest", "establishment"], "place_id": "ChIJ9X_59WkWWBQR479V0HQY4Xs"}, {"name": "Our Lady of Heliopolis Co-Cathedral", "formatted_address": "Nazih Khalifa crossroad، Al Ahram, Heliopolis, Cairo Governorate, Egypt", "lat": 31.3251828, "types": ["church", "place_of_worship", "point_of_interest", "establishment"], "place_id": "ChIJJdgh-okVWBQR5TqTmKuQ0IM"}, {"name": "El Agaiby", "formatted_address": "القاهرة, النزهة الجديدة، Egypt", "lat": 31.3755596, "types": ["point_of_interest", "establishment"], "place_id": "ChIJO1EIH2oWWBQRXa13pJQFkSs"}, {"name": "Baron Empain Palace", "formatted_address": "El-Orouba, El-Montaza, Heliopolis, Cairo Governorate 11757, Egypt", "lat": 31.3303332, "types": ["point_of_interest", "establishment"], "place_id": "ChIJ1_GM8iE-WBQRLNVi-RT7vDA"}, {"name": "Radisson Blu Hotel, Cairo Heliopolis", "formatted_address": "Abdel Hamid Badawi St Heliopolis, Cairo Governorate 11787, Egypt", "lat": 31.3753121, "types": ["lodging", "point_of_interest", "establishment"], "place_id": "ChIJQZJ8fWUWWBQRAUPO9I6SxPg"}, {"name": "Bon Voyage", "formatted_address": "16 Adly, Al Fawalah, Abdeen, Cairo Governorate, Egypt", "lat": 31.244439, "types": ["tourist_attraction", "point_of_interest", "establishment"], "place_id": "ChIJJZ3TEL5AWBQRc-PhG_sO-S0"}, {"name": "Orman Botanical Garden", "formatted_address": "ميدان, Giza St, Oula, Giza District, Giza Governorate, Egypt", "lat": 31.2129736, "types": ["tourist_attraction", "park", "point_of_interest", "establishment"], "place_id": "ChIJF3XGeddGWBQRijAtgtlQKbM"}, {"name": "Misr Association For Family & Environment Care", "formatted_address": "16 El-Zohour, Sheraton Al Matar, El Nozha, Cairo Governorate, Egypt", "lat": 31.374976, "types": ["point_of_interest", "establishment"], "place_id": "ChIJ-wyUFY9AWBQR9CdFDUkEY8w"}, {"name": "عمارة سلام قيس الزهيري", "formatted_address": "8 شارع الزهور، شيراتون المطار، قسم النزهة، محافظة القاهرة‬،، Egypt", "lat": 31.3757471, "types": ["point_of_interest", "establishment"], "place_id": "ChIJ43TAM6UXWBQRNumV1LdQM58"}, {"name": "Sheraton Residences", "formatted_address": "El-Zohour, Sheraton Al Matar, El Nozha, Cairo Governorate, Egypt", "lat": 31.3761385, "types": ["point_of_interest", "establishment"], "place_id": "ChIJFXOqHWoWWBQRDrA9m7nh1Gc"}, {"name": "مسجد الرحمن", "formatted_address": "شيراتون، شيراتون المطار، قسم النزهة،، Cairo Governorate, Egypt", "lat": 31.3763811, "types": ["mosque", "place_of_worship", "point_of_interest", "establishment"], "place_id": "ChIJ_aO2EjgXWBQRKusTfJrZNw8"}, {"name": "Manhstyr Import & Export", "formatted_address": "23 ش الزهراء، مصر الجديدة، القاهرة، Cairo Governorate, Egypt", "lat": 31.375813, "types": ["point_of_interest", "establishment"], "place_id": "ChIJf8bJGWoWWBQRoKjdgihLUdw"}, {"name": "ارابيا للتعمير والاسكان", "formatted_address": "2 El-Zohour, Al Matar, El Nozha, Cairo Governorate, Egypt", "lat": 31.3766289, "types": ["general_contractor", "point_of_interest", "establishment"], "place_id": "ChIJUdc8BGoWWBQRvr18CdLjDK0"}, {"name": "Abdeen Palace Museum", "formatted_address": "شارع جمعه عابدين،، El-Gomhoreya Square, Rahbet Abdin, Abdeen, Cairo Governorate, Egypt", "lat": 31.248544, "types": ["tourist_attraction", "museum", "point_of_interest", "establishment"], "place_id": "ChIJF_ZR9bpAWBQR_WeDJloU-7o"}, {"name": "Bravo Tours", "formatted_address": "Abd El-Hameed Badawi, Sheraton Al Matar, El Nozha, Cairo Governorate, Egypt", "lat": 31.3762594, "types": ["travel_agency", "lodging", "point_of_interest", "establishment"], "place_id": "ChIJSW-g90EWWBQRGulbWav1LXY"}, {"name": "HiPower GYM", "formatted_address": "9 شارع الزهور، Sheraton Al Matar, El Nozha, Cairo Governorate, Egypt", "lat": 31.3559789, "types": ["point_of_interest", "establishment"], "place_id": "ChIJ_07qPAoWWBQRVwQ47xA7gyA"}, {"name": "Family Park", "formatted_address": "مدخل الرحاب 2 ) الكيلو 26،، Suez Rd, Egypt", "lat": 31.5013244, "types": ["park", "tourist_attraction", "point_of_interest", "establishment"], "place_id": "ChIJ97tx7voYWBQR-q4kFfGwYYo"}, {"name": "Like New", "formatted_address": "5 El-Zohour, Sheraton Al Matar, El Nozha, Cairo Governorate, Egypt", "lat": 31.37645779999999, "types": ["point_of_interest", "establishment"], "place_id": "ChIJH87kQxsXWBQRr0hSbYYJ5xw"}, {"name": "Heliopolis Towers Hotel", "formatted_address": "El Shaheed Sayed Zakaria, Sheraton Al Matar, El Nozha, Cairo Governorate 11736, Egypt", "lat": 31.3661798, "types": ["lodging", "point_of_interest", "establishment"], "place_id": "ChIJZ9p3820WWBQRmZh2M_MSzOQ"}, {"name": "Car wash", "formatted_address": "El-Zohour, Sheraton Al Matar, El Nozha, Cairo Governorate, Egypt", "lat": 31.3778147, "types": ["car_wash", "point_of_interest", "establishment"], "place_id": "ChIJ8Xhu70EWWBQR1mWIeCSSrJ0"}, {"name": "almalek petroleum service", "formatted_address": "14 شارع الزهور، شيراتون المطار، قسم النزهة، محافظة القاهرة‬،، Egypt", "lat": 31.3745974, "types": ["car_rental", "point_of_interest", "establishment"], "place_id": "ChIJ9Sm_HCQXWBQRRr6hsjaAX-0"}, {"name": "Alaa Elfeky Clinic", "formatted_address": "4 El-Zohour, Sheraton Al Matar, El Nozha, Cairo Governorate, Egypt", "lat": 31.3768327, "types": ["doctor", "health", "point_of_interest", "establishment"], "place_id": "ChIJo4ADAWoWWBQRMnyFlcXt6mY"}, {"name": "Koshri Cairo", "formatted_address": "4 El-Zohour, Sheraton Al Matar, El Nozha, Cairo Governorate, Egypt", "lat": 31.3769856, "types": ["restaurant", "food", "point_of_interest", "establishment"], "place_id": "ChIJ1TTy_UEWWBQRgOUiRHWb17c"}, {"name": "town t life", "formatted_address": "El-Zohour, Sheraton Al Matar, El Nozha, Cairo Governorate, Egypt", "lat": 31.3771676, "types": ["point_of_interest", "establishment"], "place_id": "ChIJq50dzScXWBQRm7wnYCaO8Xw"}, {"name": "Marzouk Egyptian Souvlaki", "formatted_address": "Al Mathaf Al Zerai, Ad Doqi, Dokki, Giza Governorate 12611, Egypt", "lat": 31.2112372, "types": ["museum", "tourist_attraction", "restaurant", "food", "point_of_interest", "establishment"], "place_id": "ChIJkzHLRS5BWBQRSv_g2_cCueY"}, {"name": "Uber", "formatted_address": "El-Zohour, Sheraton Al Matar, El Nozha, Cairo Governorate, Egypt", "lat": 31.3776551, "types": ["car_rental", "point_of_interest", "establishment"], "place_id": "ChIJiVzK8UEWWBQR0wHCB0VUunc"}, {"name": "Alzohour street", "formatted_address": "تقاطع شارع السلام معا شارع، El-Zohour, Nasr City, Cairo Governorate, Egypt", "lat": 31.37069349999999, "types": ["point_of_interest", "establishment"], "place_id": "ChIJiTV8qLk9WBQR3mi3GkwKx2s"}, {"name": "Crew Tours", "formatted_address": "117. Buildings,, Mosteshfa Heleobles, Cairo Governorate 11361, Egypt", "lat": 31.37626209999999, "types": ["travel_agency", "point_of_interest", "establishment"], "place_id": "ChIJZcyz-2kWWBQRbjdJsusvFz8"}, {"name": "iTime Solutions", "formatted_address": "20 شارع الزهور، شيراتون المطار، قسم النزهة، محافظة القاهرة‬،، Egypt", "lat": 31.3761552, "types": ["point_of_interest", "establishment"], "place_id": "ChIJkcXBgMkXWBQRcDfyb4MoNxA"}, {"name": "Agent Tours", "formatted_address": "20 Altawniat St, Behind Radisson Blu Hotel , Sheraton, Heliopolis, Cairo Governorate 11799, Egypt", "lat": 31.375645, "types": ["travel_agency", "point_of_interest", "establishment"], "place_id": "ChIJb5qseNQXWBQRPMnBlG43tQ8"}, {"name": "دكتور إصلاح كسور وشروخ زجاج السيارات", "formatted_address": "16-18 شارع الزهور، شيراتون المطار، قسم النزهة،، Cairo Governorate, Egypt", "lat": 31.3751128, "types": ["point_of_interest", "establishment"], "place_id": "ChIJ2Rf3P3gXWBQRxI81gyBVQXA"}, {"name": "كشري كايرو", "formatted_address": "4 El-Zohour, Sheraton Al Matar, El Nozha, Cairo Governorate, Egypt", "lat": 31.3770404, "types": ["restaurant", "food", "point_of_interest", "establishment"], "place_id": "ChIJ8VV8a2IXWBQRJGH7IO4D8_M"}, {"name": "كريزي كار لتعليم قيادة السيارات", "formatted_address": "24 شارع الزهور، شيراتون المطار، قسم النزهة، محافظة القاهرة‬،، Cairo Governorate, Egypt", "lat": 31.3762073, "types": ["point_of_interest", "establishment"], "place_id": "ChIJxy4L1kAXWBQRaOlhfMVt_MI"}, {"name": "Hilton Cairo Heliopolis", "formatted_address": "El-Orouba, Sheraton Al Matar, El Nozha, Cairo Governorate, Egypt", "lat": 31.3646213, "types": ["lodging", "point_of_interest", "establishment"], "place_id": "ChIJUYFpLCELRRQRzCxbUHFt6Vs"}, {"name": "Go Heliopolis - Khozam The First Compound In Heliopolis", "formatted_address": "شارع النزهة، مصر الجديدة،، Egypt", "lat": 31.3397646, "types": ["lodging", "point_of_interest", "establishment"], "place_id": "ChIJZ7ZHBKs_WBQRJD3Ntp2Q_ww"}, {"name": "Mix Restaurant", "formatted_address": "Abd El-Hameed Badawi, St, Heliopolis, Cairo Governorate 11787, Egypt", "lat": 31.3752979, "types": ["restaurant", "food", "point_of_interest", "establishment"], "place_id": "ChIJ06jFW6wXWBQRmyFxacXvhWw"}, {"name": "Atlantis", "formatted_address": "Abd El-Hameed Badawi, مساكن الشيراتون، El Nozha, Cairo Governorate, Egypt", "lat": 31.3784367, "types": ["cafe", "food", "point_of_interest", "establishment"], "place_id": "ChIJb26QlEEWWBQR6i1t3unQqTM"}, {"name": "Water Express company - WATEX", "formatted_address": "8 El-Zohour, Sheraton Al Matar, El Nozha, Cairo Governorate, Egypt", "lat": 31.3761355, "types": ["point_of_interest", "establishment"], "place_id": "ChIJdRKA92kWWBQRA9Cb5axq8NU"}, {"name": "Golden Park Hotel", "formatted_address": "شارع الحجاز ، مصر الجديده، 221 شارع الحجاز ، هيليوبوليس ،، El Nozha, Cairo Governorate, Egypt", "lat": 31.3525102, "types": ["lodging", "point_of_interest", "establishment"], "place_id": "ChIJsQQdRNgVWBQRss6fVxNFk_8"}, {"name": "زهور الصديق", "formatted_address": "Abd El-Hameed Badawi, Sheraton Al Matar, El Nozha, Cairo Governorate, Egypt", "lat": 31.3769005, "types": ["point_of_interest", "establishment"], "place_id": "ChIJZYAbL5gXWBQRKyP5ypsuT-0"}, {"name": "يونيفرسال للشحن والتخليص الجمركى", "formatted_address": "مساكن شيراتون، 29 El-Zohour, Sheraton Al Matar, El Nozha, Cairo Governorate, Egypt", "lat": 31.3757356, "types": ["point_of_interest", "establishment"], "place_id": "ChIJmVGa3_UVWBQRdGcj2G7c29Y"}, {"name": "Extra for Real Estate Marketing", "formatted_address": "مبني ٣بلوك 1164 مساكن, Egypt", "lat": 31.3761385, "types": ["real_estate_agency", "point_of_interest", "establishment"], "place_id": "ChIJLSePBB4XWBQRmGqyobOQGbM"}, {"name": "Alex Bank", "formatted_address": "امتداد ش عبد الحميد بدوى، مصر الجديدة، القاهرة، Cairo Governorate, Egypt", "lat": 31.376142, "types": ["bank", "finance", "point_of_interest", "establishment"], "place_id": "ChIJOVrf8GkWWBQRMeAa4MQPQEM"}, {"name": "سنترال شيراتون", "formatted_address": "شيراتون، شيراتون المطار، قسم النزهة،، Cairo Governorate, Egypt", "lat": 31.3761642, "types": ["point_of_interest", "establishment"], "place_id": "ChIJ6RGGsa0XWBQRa7CjPUGnoGw"}, {"name": "منزلى بالشيراتون", "formatted_address": "مساكن, Egypt", "lat": 31.3761385, "types": ["point_of_interest", "establishment"], "place_id": "ChIJr0WOXyMXWBQRTX1Fr4axYsk"}, {"name": "Lemon Spaces sheraton Heliopolis", "formatted_address": "Building # 19، El-Safa, Sheraton Al Matar, El Nozha, Cairo Governorate, Egypt", "lat": 31.3667492, "types": ["lodging", "point_of_interest", "establishment"], "place_id": "ChIJ0dUH_3oXWBQRT1ZYgsJShvE"}, {"name": "Fine Fabric", "formatted_address": "11 ش الزهور، Sheraton Al Matar, El Nozha, Cairo Governorate, Egypt", "lat": 31.3759282, "types": ["store", "point_of_interest", "establishment"], "place_id": "ChIJaYJOjmkWWBQR2QDugHvX9FI"}, {"name": "Gamers", "formatted_address": "Abd El-Hameed Badawi, Sheraton Al Matar, El Nozha, Cairo Governorate, Egypt", "lat": 31.3761055, "types": ["cafe", "food", "point_of_interest", "establishment"], "place_id": "ChIJ-TVI9mkWWBQRyHXHaAdLsXk"}, {"name": "Elrahman Mosque - مسجد الرحمن", "formatted_address": "El-Zahraa, Sheraton Al Matar, El Nozha, Cairo Governorate, Egypt", "lat": 31.3759532, "types": ["doctor", "health", "point_of_interest", "establishment"], "place_id": "ChIJK3DNFmoWWBQRY9D23WGV9b8"}, {"name": "بنك Qnb شارع حسن المامون", "formatted_address": "Sheraton Al Matar, El Nozha, Cairo Governorate, Egypt", "lat": 31.3757008, "types": ["bank", "finance", "point_of_interest", "establishment"], "place_id": "ChIJ3xxMi2kWWBQRcSX1fNjGgvY"}, {"name": "شركة هاي سكيلز لأعمال الهندسة والمقاولات", "formatted_address": "٥ أ شارع الحسن عمارات مصر الجديدة مساكن، Egypt", "lat": 31.3761385, "types": ["point_of_interest", "establishment"], "place_id": "ChIJUVVPcvoXWBQRS-IDmxYS6Yo"}, {"name": "أ.د محمد الشناوى استاذ واستشاري الجراحة العامة", "formatted_address": "شارع Omar Ibn El-Khattab, مساكن شيراتون، El Nozha, Cairo Governorate, Egypt", "lat": 31.3761385, "types": ["doctor", "health", "point_of_interest", "establishment"], "place_id": "ChIJ3wfTv00XWBQRZrKX-VunKgc"}]