[{"name": "Alexandria National Museum", "formatted_address": "131 El-Shaheed Galal El-Desouky, Bab Sharqi WA Wabour Al Meyah, Qism Bab Sharqi, Alexandria Governorate, Egypt", "lat": 31.2007415, "lng": 29.9131977, "types": ["museum", "tourist_attraction", "point_of_interest", "establishment"], "place_id": "ChIJXQFL_Y7D9RQRmwOz6ziv66I"}, {"name": "Royal Jewellery Museum", "formatted_address": "27 أحمد يحيى، San Stifano, First Al Raml, Alexandria Governorate, Egypt", "lat": 31.2406096, "lng": 29.9632848, "types": ["museum", "tourist_attraction", "point_of_interest", "establishment"], "place_id": "ChIJy_MpOynF9RQRd0iVR1mVkPc"}, {"name": "Stanley Bridge", "formatted_address": "Fleming، Sidi Gaber, Alexandria Governorate, Egypt", "lat": 31.235185, "lng": 29.9488414, "types": ["tourist_attraction", "point_of_interest", "establishment"], "place_id": "ChIJDwmzM-fE9RQR6L_NbI1RJMs"}, {"name": "Bibliotheca Alexandrina", "formatted_address": "Al Azaritah WA Ash Shatebi, Qism Bab Sharqi, Alexandria Governorate 21526, Egypt", "lat": 31.2088705, "lng": 29.9092012, "types": ["library", "tourist_attraction", "point_of_interest", "establishment"], "place_id": "ChIJhf5iBYrD9RQR5yPsMsZMowA"}, {"name": "Al Shalalat Park", "formatted_address": "Bab Sharqi WA Wabour Al Meyah, Qism Bab Sharqi, Alexandria Governorate, Egypt", "lat": 31.2026889, "lng": 29.91454299999999, "types": ["park", "tourist_attraction", "point_of_interest", "establishment"], "place_id": "ChIJS8_9OY_D9RQREXjY-t_7ecQ"}, {"name": "Eliahu Hanavi Synagogue", "formatted_address": "Al Naby Danyal, Al Mesallah Sharq, Al Attarin, Alexandria Governorate, Egypt", "lat": 31.1989125, "lng": 29.8999367, "types": ["synagogue", "tourist_attraction", "place_of_worship", "point_of_interest", "establishment"], "place_id": "ChIJy0xez-3D9RQRZ9YCqRrLGBQ"}, {"name": "Baron Palace Menasha", "formatted_address": "26 El-Mohandes Ahmed Ismail, Emberouz WA Moharram Beik, Moharam Bek, Alexandria Governorate, Egypt", "lat": 31.1942037, "lng": 29.9124251, "types": ["lodging", "tourist_attraction", "point_of_interest", "establishment"], "place_id": "ChIJE2xCFJHD9RQRx0c0VQ9FZto"}, {"name": "Catacombs of Kom el Shoqafa", "formatted_address": "12 متفرع من ش رأس التين، الانفوشى، Karmouz, Alexandria Governorate, Egypt", "lat": 31.178959, "lng": 29.8930766, "types": ["tourist_attraction", "point_of_interest", "establishment"], "place_id": "ChIJl6MZKprD9RQRkXHrajGfwGw"}, {"name": "El Nabi Daniel Mosque", "formatted_address": "21 Al Naby Danyal, Kom Ad Dakah Gharb, Al Attarin, Alexandria Governorate, Egypt", "lat": 31.1948616, "lng": 29.9024396, "types": ["mosque", "tourist_attraction", "place_of_worship", "point_of_interest", "establishment"], "place_id": "ChIJzckDBO7D9RQRAPX8W8-bgNU"}, {"name": "مسجد نور الاسلام", "formatted_address": "شارع Al Shahid Moafaq Abbas Hatata, Al Ibrahimeyah Qebli WA Al Hadrah Bahri, Qism Bab Sharqi, Alexandria Governorate, Egypt", "lat": 31.2125014, "lng": 29.9254419, "types": ["mosque", "place_of_worship", "point_of_interest", "establishment"], "place_id": "ChIJdT8qqX3E9RQRerFD5Zi3csg"}, {"name": "Dar El Ibrahimeya", "formatted_address": "48 Youssef Fahmy Othman, Al Ibrahimeyah Qebli WA Al Hadrah Bahri, Qism Bab Sharqi, Alexandria Governorate, Egypt", "lat": 31.2119435, "lng": 29.9252326, "types": ["point_of_interest", "establishment"], "place_id": "ChIJ3esVyYDE9RQRRE24YDbEBlc"}, {"name": "مسجد عباد الرحمن", "formatted_address": "شارع ادفو الإبراهيمية، Alexandria Governorate, Egypt", "lat": 31.2106542, "lng": 29.9234174, "types": ["mosque", "place_of_worship", "point_of_interest", "establishment"], "place_id": "ChIJRT8YoH7E9RQRafqBmKK_sJA"}, {"name": "مسجد النور والإيمان", "formatted_address": "شارع Youssef Fahmy Othman, Al Ibrahimeyah Qebli WA Al Hadrah Bahri, Qism Bab Sharqi, Alexandria Governorate, Egypt", "lat": 31.21149639999999, "lng": 29.9242308, "types": ["mosque", "place_of_worship", "point_of_interest", "establishment"], "place_id": "ChIJjbWyMHzE9RQRyLCU78owY58"}, {"name": "مسجد اليوسف", "formatted_address": "عمارة رقم 15، شارع محمد فؤاد جلال متفرع من شارع دكتور أحمد المحروقي متفرع من شارع عمر زعفان متفرع من شارع ابو فير بجوار نادي سبورتنج الرياضي، Alexandria Governorate, Egypt", "lat": 31.2118164, "lng": 29.9280271, "types": ["mosque", "place_of_worship", "point_of_interest", "establishment"], "place_id": "ChIJMUYmfIfE9RQRMFSVVub8EmA"}, {"name": "مسجد التوبة", "formatted_address": "شارع احمد فؤاد نور، Al Ibrahimeyah Qebli WA Al Hadrah Bahri, Qism Bab Sharqi, Alexandria Governorate, Egypt", "lat": 31.2105777, "lng": 29.9242191, "types": ["mosque", "place_of_worship", "point_of_interest", "establishment"], "place_id": "ChIJT0gOKHzE9RQRB7xilatE8mg"}, {"name": "مسجد ابو القاسم", "formatted_address": "شارع يوسف فتحي عثمان، Al Ibrahimeyah Qebli WA Al Hadrah Bahri, Qism Bab Sharqi, Alexandria Governorate, Egypt", "lat": 31.21249599999999, "lng": 29.9259035, "types": ["mosque", "place_of_worship", "point_of_interest", "establishment"], "place_id": "ChIJsTndpn3E9RQRHdHXKdQ4JBU"}, {"name": "حزب النور", "formatted_address": "شارع أحمد فؤاد نور كامب شيزار، Alexandria Governorate, Egypt", "lat": 31.2111274, "lng": 29.925248, "types": ["point_of_interest", "establishment"], "place_id": "ChIJZfMmzH3E9RQRW2tV4m0FfZE"}, {"name": "المؤسسة المصرية لمحاربة الغلاء", "formatted_address": "48 Youssef Fahmy Othman, Al Ibrahimeyah Qebli WA Al Hadrah Bahri, Qism Bab Sharqi, Alexandria Governorate, Egypt", "lat": 31.2112722, "lng": 29.9255558, "types": ["point_of_interest", "establishment"], "place_id": "ChIJ0w9xJpHE9RQR9Qq596vuiIY"}, {"name": "اطفال قد الحياه - جمعية رسالة", "formatted_address": "36 شارع أدفو, متفرع من شارع نور الاسلام - كامب شيزار, Alexandria Governorate 21525, Egypt", "lat": 31.211308, "lng": 29.92480999999999, "types": ["point_of_interest", "establishment"], "place_id": "ChIJPQZoM3zE9RQRYDoPktrz04E"}, {"name": "مسجد الوعى الإسلامى", "formatted_address": "شارع الأنبا يؤنس،، Al Ibrahimeyah Qebli WA Al Hadrah Bahri, Qism Bab Sharqi, Alexandria Governorate, Egypt", "lat": 31.2116409, "lng": 29.9267571, "types": ["mosque", "place_of_worship", "point_of_interest", "establishment"], "place_id": "ChIJnfMlkX3E9RQRslCVlOwJ3a4"}, {"name": "نيو جلاكسى للسيراميك", "formatted_address": "ش مسجد رمضان يوسف، Al Ibrahimeyah Qebli WA Al Hadrah Bahri, Qism Bab Sharqi, Alexandria Governorate, Egypt", "lat": 31.2115553, "lng": 29.926117, "types": ["mosque", "place_of_worship", "point_of_interest", "establishment"], "place_id": "ChIJpRPl02LE9RQR7v1S1HltkBU"}, {"name": "The Cathedral of St. Mark", "formatted_address": "19 Al Akbat Church, محطة الرمل، Al Attarin, Alexandria Governorate, Egypt", "lat": 31.1983817, "lng": 29.8995655, "types": ["church", "place_of_worship", "point_of_interest", "establishment"], "place_id": "ChIJs38BJ-zD9RQRsSOSdTDGDQI"}, {"name": "سونستا للسياحه Sonesta Tours", "formatted_address": "69 Port Said Street, Al Ibrahimeyah Bahri WA Sidi Gaber, Qism Bab Sharqi, Alexandria Governorate 21525, Egypt", "lat": 31.2141039, "lng": 29.922543, "types": ["travel_agency", "point_of_interest", "establishment"], "place_id": "ChIJR5L5hHzE9RQRo8SDCIsZiVI"}, {"name": "Conveying Islamic Message Society - جمعية تبليغ الاسلام", "formatted_address": "37 Kanoob St., Camb Ceasar، Ahmed Foaad Nour, Alexandria Governorate 21525, Egypt", "lat": 31.2108918, "lng": 29.9249987, "types": ["point_of_interest", "establishment"], "place_id": "ChIJJafV0n3E9RQRuPlXzw9utuY"}, {"name": "أسماء السيد حسن يوسف", "formatted_address": "شارع عبد المنعم سند الإبراهيمية تم، Alexandria Governorate, Egypt", "lat": 31.2110359, "lng": 29.9244578, "types": ["lawyer", "point_of_interest", "establishment"], "place_id": "ChIJvTkVLnzE9RQRbhccBY3LH_c"}, {"name": "اكاديمية الماراكانا للالعاب الرياضية - Maracana Academy", "formatted_address": "مستشفي نور الاسلام، فيلا رقم 50 شارع إسنا متفرع من، Alexandria Governorate 21524, Egypt", "lat": 31.2121994, "lng": 29.924802, "types": ["point_of_interest", "establishment"], "place_id": "ChIJG17YF0DF9RQR0IdKaRTeMe8"}, {"name": "مسجد العطارين", "formatted_address": "110 Ismail Mahana, Al Attarin Gharb, Al Attarin, Alexandria Governorate, Egypt", "lat": 31.1925312, "lng": 29.8993783, "types": ["mosque", "place_of_worship", "point_of_interest", "establishment"], "place_id": "ChIJUcdZI-rD9RQR8Unzv9SlTRs"}, {"name": "برونتو", "formatted_address": "48 Youssef Fahmy Othman, Al Ibrahimeyah Qebli WA Al Hadrah Bahri, Qism Bab Sharqi, Alexandria Governorate, Egypt", "lat": 31.2119839, "lng": 29.9247401, "types": ["point_of_interest", "establishment"], "place_id": "ChIJP-NqZX3E9RQR4fmZrtpBpZA"}, {"name": "Farouk Abou Essa Moustafa", "formatted_address": "49 ش كانوب، كامب شيزار، Qism Bab Sharqi, Alexandria Governorate, Egypt", "lat": 31.2112837, "lng": 29.925583, "types": ["lawyer", "point_of_interest", "establishment"], "place_id": "ChIJgYmNyH3E9RQRuKo55Q3cgLg"}, {"name": "فرست مسك للسياحة", "formatted_address": "شارع عمر لطفي،، Alexandria Governorate, Egypt", "lat": 31.2141457, "lng": 29.9253318, "types": ["travel_agency", "point_of_interest", "establishment"], "place_id": "ChIJSxBvIn3E9RQRJWwrkrVUU6I"}, {"name": "سعد زغلول المحامى", "formatted_address": "شارع عبد المنعم، سند، Alexandria Governorate, Egypt", "lat": 31.2110405, "lng": 29.9241731, "types": ["lawyer", "point_of_interest", "establishment"], "place_id": "ChIJ52t-JXzE9RQR6h2Xs2i5xJg"}, {"name": "Talents Nursery حضانة مواهب", "formatted_address": "81 Ahmed Foaad Nour (Kanoub) street, Qesm Bab, Al Ibrahimeyah, Alexandria Governorate 21524, Egypt", "lat": 31.212466, "lng": 29.927751, "types": ["university", "school", "point_of_interest", "establishment"], "place_id": "ChIJ97Eifn3E9RQR2F-O-xfIQmo"}, {"name": "Caesar house", "formatted_address": "47 Mamfeis, كامب شيزار، Qism Bab Sharqi, Alexandria Governorate, Egypt", "lat": 31.2121805, "lng": 29.9241267, "types": ["lodging", "point_of_interest", "establishment"], "place_id": "ChIJW9WpSHzE9RQR-8atsIU78V4"}, {"name": "جاليرى مدام رباب للموبيليات والديكور", "formatted_address": "48 Youssef Fahmy Othman, Al Ibrahimeyah Qebli WA Al Hadrah Bahri, Qism Bab Sharqi, Alexandria Governorate, Egypt", "lat": 31.2120212, "lng": 29.9250797, "types": ["furniture_store", "home_goods_store", "point_of_interest", "store", "establishment"], "place_id": "ChIJ0w9xJpHE9RQRz9gPlXLepDE"}, {"name": "Mohamed Hanafy", "formatted_address": "56 Youssef Fahmy Othman, Al Ibrahimeyah Qebli WA Al Hadrah Bahri, Qism Bab Sharqi, Alexandria Governorate, Egypt", "lat": 31.2123461, "lng": 29.9256033, "types": ["restaurant", "food", "point_of_interest", "establishment"], "place_id": "ChIJUVvypX3E9RQRHLZrODFJ2lc"}, {"name": "د. انور هيكل", "formatted_address": "الاسكندرية, ٨٤ ش عمر لطفى محطة ترام الإبراهيمية الاسكندرية الإبراهيمية محطة الترام الابراهيمية، Egypt", "lat": 31.2120823, "lng": 29.9250643, "types": ["health", "point_of_interest", "establishment"], "place_id": "ChIJfVBqJxLF9RQRkkttZ4Z4mgU"}, {"name": "القائد", "formatted_address": "شارع احمد فؤاد نور، Al Ibrahimeyah Qebli WA Al Hadrah Bahri, Qism Bab Sharqi, Alexandria Governorate, Egypt", "lat": 31.2104268, "lng": 29.9243063, "types": ["car_repair", "point_of_interest", "establishment"], "place_id": "ChIJCQGUgn7E9RQRSeIAo2laYhU"}, {"name": "Gomla Market - Ibrahemia", "formatted_address": "العنوان : 41 Omar Zafaran Street - El Ibrahimya الإسكندرية، 11432, Egypt", "lat": 31.21353379999999, "lng": 29.9286703, "types": ["supermarket", "grocery_or_supermarket", "food", "point_of_interest", "store", "establishment"], "place_id": "ChIJC2rrd4fE9RQRR2FbEHwLACc"}, {"name": "مكتبة الامانة", "formatted_address": "48 Youssef Fahmy Othman, Al Ibrahimeyah Qebli WA Al Hadrah Bahri, Qism Bab Sharqi, Alexandria Governorate, Egypt", "lat": 31.2118167, "lng": 29.9251069, "types": ["book_store", "point_of_interest", "store", "establishment"], "place_id": "ChIJ0w9xJpHE9RQRS3QUo0yiZAc"}, {"name": "الابراهمية", "formatted_address": "246 ش الفتح - جناكليس، الاسكندرية، Alexandria Governorate 21532, Egypt", "lat": 31.211728, "lng": 29.923073, "types": ["point_of_interest", "establishment"], "place_id": "ChIJqVhJEXzE9RQR5KdECCNpITk"}, {"name": "Mena Trade Center", "formatted_address": "40 Youssef Fahmy Othman, Al Ibrahimeyah Qebli WA Al Hadrah Bahri, Qism Bab Sharqi, Alexandria Governorate, Egypt", "lat": 31.2132565, "lng": 29.9278136, "types": ["point_of_interest", "establishment"], "place_id": "ChIJs3odYH3E9RQR5wWS8_X0gT4"}, {"name": "محمد فخرى", "formatted_address": "شارع عمر لطفي،، Alexandria Governorate, Egypt", "lat": 31.2137829, "lng": 29.9256252, "types": ["lawyer", "point_of_interest", "establishment"], "place_id": "ChIJ4VT9GX3E9RQRLVR-E6FwIgM"}, {"name": "مكتب محسن تعيلب", "formatted_address": "شارع احمد فؤاد نور الإبراهيمية، Alexandria Governorate, Egypt", "lat": 31.21054809999999, "lng": 29.9241651, "types": ["lawyer", "point_of_interest", "establishment"], "place_id": "ChIJUxz_J3zE9RQR0NklZQWJYJg"}, {"name": "معرض الفضالى", "formatted_address": "48 Youssef Fahmy Othman, Al Ibrahimeyah Qebli WA Al Hadrah Bahri, Qism Bab Sharqi, Alexandria Governorate, Egypt", "lat": 31.2120063, "lng": 29.9249503, "types": ["furniture_store", "home_goods_store", "point_of_interest", "store", "establishment"], "place_id": "ChIJ0w9xJpHE9RQR53Dp34T1GNg"}, {"name": "Shedya", "formatted_address": "35 Al Shahid Moafaq Abbas Hatata, Al Ibrahimeyah Qebli WA Al Hadrah Bahri, Qism Bab Sharqi, Alexandria Governorate, Egypt", "lat": 31.21245039999999, "lng": 29.925513, "types": ["point_of_interest", "establishment"], "place_id": "ChIJzb4ur33E9RQRvbCOf6T3RAM"}, {"name": "عرفه", "formatted_address": "٣٠ شارع سوق شيديا الإبراهيمة، كامب شيزار، Egypt", "lat": 31.2120126, "lng": 29.9258049, "types": ["point_of_interest", "store", "establishment"], "place_id": "ChIJXa_Yun3E9RQR5lCWMbUMgGY"}, {"name": "الدكتور شهاب الدين أمجد دويدار", "formatted_address": "شارع لاجيتيه، Al Ibrahimeyah Qebli WA Al Hadrah Bahri, Qism Bab Sharqi, Alexandria Governorate, Egypt", "lat": 31.2139765, "lng": 29.9267836, "types": ["doctor", "health", "point_of_interest", "establishment"], "place_id": "ChIJWx_GQ33E9RQR2DSoWLcYwS4"}, {"name": "Crepecity", "formatted_address": "كاربت سيتى، 24 ش اللاجيتيه - بجوار، الإبراهيمية قبلي والحضرة بØ، قسم باب شرقي، الإسكندرية،، Egypt", "lat": 31.2120125, "lng": 29.9250375, "types": ["restaurant", "food", "point_of_interest", "establishment"], "place_id": "ChIJx8hL9uXF9RQR8-wJ-4N-nIo"}, {"name": "Abo kila", "formatted_address": "كامب شيزار تقاطع شارع ممفيس مع شارع عبد المنعم سند, 37 Abd El-Moneim Sanad, الإبراهيمية قبلي والحضرة بØ،, قسم باب شرقي،, Egypt", "lat": 31.2118563, "lng": 29.9236009, "types": ["point_of_interest", "establishment"], "place_id": "ChIJZSm26yzF9RQR2PeYZfRsA4I"}, {"name": "Dr. Mona Nawar", "formatted_address": "48 Youssef Fahmy Othman, Al Ibrahimeyah Qebli WA Al Hadrah Bahri, Qism Bab Sharqi, Alexandria Governorate, Egypt", "lat": 31.2121694, "lng": 29.9250287, "types": ["health", "point_of_interest", "establishment"], "place_id": "ChIJv4Fts33E9RQRg70or9ah9ho"}, {"name": "موسي للادوات المنزلية", "formatted_address": "الإبراهيمية قبلي والحضرة بØ،، قسم باب شرقي،، Alexandria Governorate, Egypt", "lat": 31.2120921, "lng": 29.9256206, "types": ["home_goods_store", "point_of_interest", "store", "establishment"], "place_id": "ChIJa9qefzjF9RQRQA2bjkZ1ysc"}, {"name": "El Waheed", "formatted_address": "أول شارع سينما لاجتيه بالقرب من محطة ترام الأبراهيمية، Alexandria Governorate, Egypt", "lat": 31.2139567, "lng": 29.9268164, "types": ["restaurant", "food", "point_of_interest", "establishment"], "place_id": "ChIJC2kURH3E9RQROajDcii7d1I"}, {"name": "SHAR2 STATION", "formatted_address": "شارع Al Shahid Moafaq Abbas Hatata, Al Ibrahimeyah Qebli WA Al Hadrah Bahri, Qism Bab Sharqi, Alexandria Governorate, Egypt", "lat": 31.2125815, "lng": 29.9255578, "types": ["point_of_interest", "establishment"], "place_id": "ChIJ6_-NqH3E9RQR8vfP9UBy_8U"}, {"name": "الكينج ماركت", "formatted_address": "48 Youssef Fahmy Othman, Al Ibrahimeyah Qebli WA Al Hadrah Bahri, Qism Bab Sharqi, Alexandria Governorate, Egypt", "lat": 31.2119053, "lng": 29.9251773, "types": ["point_of_interest", "establishment"], "place_id": "ChIJ0X7NN4fE9RQRTJh093cSpVI"}, {"name": "احذية فيلبس", "formatted_address": "48 Youssef Fahmy Othman, Al Ibrahimeyah Qebli WA Al Hadrah Bahri, Qism Bab Sharqi, Alexandria Governorate, Egypt", "lat": 31.2117944, "lng": 29.9250432, "types": ["shoe_store", "point_of_interest", "store", "establishment"], "place_id": "ChIJQVcfn-7D9RQR25itJZrUtGo"}, {"name": "SO cute", "formatted_address": "شارع مشير احمد اسماعيل،، Alexandria Governorate, Egypt", "lat": 31.2129703, "lng": 29.9255742, "types": ["clothing_store", "point_of_interest", "store", "establishment"], "place_id": "ChIJu7kxBn3E9RQRCdto723yaf8"}, {"name": "ورشة الحمد لسروجى السيارات", "formatted_address": "شارع صلاح زهدي، Alexandria Governorate, Egypt", "lat": 31.212217, "lng": 29.9228391, "types": ["car_repair", "point_of_interest", "store", "establishment"], "place_id": "ChIJrXY7bXzE9RQR73LuFvYU8XU"}, {"name": "أحمد مفيد عبد الكريم", "formatted_address": "شارع Youssef Fahmy Othman, Al Ibrahimeyah Qebli WA Al Hadrah Bahri, Qism Bab Sharqi, Alexandria Governorate, Egypt", "lat": 31.2109803, "lng": 29.9235032, "types": ["lawyer", "point_of_interest", "establishment"], "place_id": "ChIJO3zvIXzE9RQRV-ObdxkvSI8"}, {"name": "العالمية جعفر أمين", "formatted_address": "40 شارع سوق شيديا، كامب شيراز، Qism Bab Sharqi, Alexandria Governorate, Egypt", "lat": 31.2124003, "lng": 29.9252921, "types": ["pet_store", "point_of_interest", "store", "establishment"], "place_id": "ChIJS5ixrn3E9RQRjVetNWFJiUk"}, {"name": "Trak", "formatted_address": "شارع يوسف فتحي عثمان، Al Ibrahimeyah Qebli WA Al Hadrah Bahri, Qism Bab Sharqi, Alexandria Governorate, Egypt", "lat": 31.2124674, "lng": 29.9258401, "types": ["point_of_interest", "establishment"], "place_id": "ChIJ3dWMpn3E9RQRS3ku9JuEqb0"}]