[{"name": "Dr.Hossam Ali Saleh", "formatted_address": "El Shaheed Sayed Zakaria, Sheraton Al Matar, El Nozha, Cairo Governorate, Egypt", "lat": 30.0916344, "lng": 31.3763942, "types": ["point_of_interest", "establishment"], "place_id": "ChIJaVZA2xcWWBQRKci88b-i-b4"}, {"name": "Fit & Fix Bridgestone", "formatted_address": "Heliopolis, Total Gas station Cut Cross Demashq St. &, Nazih Khalifa, St, Cairo Governorate, Egypt", "lat": 30.09489, "lng": 31.3240831, "types": ["car_repair", "point_of_interest", "store", "establishment"], "place_id": "ChIJ12BqGrc_WBQRrEixG_sKm4o"}, {"name": "Dr. Aly Mohamed Taha", "formatted_address": "511 ميدان الجيزة، Tag Ad Dewal, Giza District, Giza Governorate, Egypt", "lat": 30.0750269, "lng": 31.2220216, "types": ["doctor", "health", "point_of_interest", "establishment"], "place_id": "ChIJWwQhz_5AWBQRdtn_0LDNTZg"}, {"name": "صالح علي عمران", "formatted_address": "شارع عبدالواحد خليفه من، El-Fath, Dar El-Salam, Egypt", "lat": 29.9775733, "lng": 31.2420762, "types": ["lawyer", "point_of_interest", "establishment"], "place_id": "ChIJpfIeIZdHWBQRz4POKzmrIAY"}, {"name": "Dr. Amir Saleh Clinic", "formatted_address": "10 شارع، الدكتور حسن إبراهيم حسن- متفرع من محمد حسين هيكل، أول عباس العقاد ،بجوار مستشفي دار الحكمه، Al Manteqah Al Oula, Nasr City, Egypt", "lat": 30.0658878, "lng": 31.3390465, "types": ["physiotherapist", "doctor", "health", "point_of_interest", "establishment"], "place_id": "ChIJs5Nq-Gw-WBQRcq8F_0AwSHI"}, {"name": "مقام و ساحة العارف بالله سيدي الشيخ السيد على صالح المسلمى", "formatted_address": "شارع مقام العارف بالله سيدي السيد على صالح المسلمى متفرع من شارع أهل الحامدية النقشبندية، البصل، Zagazig, Ash Sharqia Governorate, Egypt", "lat": 30.5030435, "lng": 31.56597739999999, "types": ["mosque", "place_of_worship", "point_of_interest", "establishment"], "place_id": "ChIJiwhpGYr59xQRIlBcosfWGGw"}, {"name": "Saleh El-Attar Sons", "formatted_address": "52 El-Nozha, Al Golf, Nasr City, Cairo Governorate, Egypt", "lat": 30.0740561, "lng": 31.3388121, "types": ["food", "point_of_interest", "store", "establishment"], "place_id": "ChIJh6cpZhE-WBQR_LxYXgd3u9E"}, {"name": "Mustafa Mahmoud Mosque", "formatted_address": "13 El-Shaikh Saleh Mousa, Ad Doqi, Dokki, Giza Governorate 11213, Egypt", "lat": 30.0526197, "lng": 31.2027883, "types": ["mosque", "place_of_worship", "point_of_interest", "establishment"], "place_id": "ChIJC5EOgTpBWBQR-BibqY_DMG8"}, {"name": "د. على محمود الاشوح", "formatted_address": "14 ش Saleh Sobhy, Helwan, Cairo Governorate, Egypt", "lat": 29.844316, "lng": 31.333976, "types": ["doctor", "health", "point_of_interest", "establishment"], "place_id": "ChIJbcT7NFI3WBQRYvkNRIyjCjg"}, {"name": "مركز جرين دنت لعلاج و تجميل و زراعة الاسنان أ.د صالح بكرى", "formatted_address": "321 شارع الملك فيصل عمارة النساجون الشرقيون امام كنتاكى-محطة, Hasan Mohammed, فيصل, Giza Governorate 12512, Egypt", "lat": 30.0025649, "lng": 31.1713326, "types": ["dentist", "health", "point_of_interest", "establishment"], "place_id": "ChIJC4-5YpFHWBQRhQDmoXeb86M"}, {"name": "دكتور محمد خالد صالح استشاري جراحة العظام والعمود الفقري وتشوهاته -الزقازيق-الشرقية", "formatted_address": "برج دار الطب, ٣ El-Glaa St, Youssef, Zakazik First, Ash Sharqia Governorate 44511, Egypt", "lat": 30.5835455, "lng": 31.5015008, "types": ["doctor", "health", "point_of_interest", "establishment"], "place_id": "ChIJJyC8suLw9xQReiMbE3t-wMw"}, {"name": "Ahmed Galal Aly Saleh", "formatted_address": "Nazlet Al Batran, El Talbia, Giza Governorate, Egypt", "lat": 29.9899721, "lng": 31.1503557, "types": ["point_of_interest", "establishment"], "place_id": "ChIJIfX3NnhGWBQRXVD2k2JI_DY"}]