[{"name": "Hessen Ellaban", "formatted_address": "11 ATA Allah Masoud, Almazah, Heliopolis, Cairo Governorate, Egypt", "lat": 31.3518959, "types": ["point_of_interest", "establishment"], "place_id": "ChIJM4arh_8VWBQRRh0OgJi3bLk"}, {"name": "Hluoplis-Home Tools", "formatted_address": "7 Moheb Kasem, Almazah, Heliopolis, Cairo Governorate, Egypt", "lat": 31.351371, "types": ["point_of_interest", "establishment"], "place_id": "ChIJ--Regv8VWBQRYpfkqhc7K6M"}, {"name": "Mohamed Mahmoud", "formatted_address": "Almazah, Heliopolis, Cairo Governorate, Egypt", "lat": 31.3523813, "types": ["point_of_interest", "establishment"], "place_id": "ChIJm_Lhjf8VWBQRP5JpB_dethk"}, {"name": "Ahmed Afifi", "formatted_address": "6 ش عبد الله محمد، Almazah, Heliopolis, Cairo Governorate, Egypt", "lat": 31.3520213, "types": ["point_of_interest", "establishment"], "place_id": "ChIJvXoKiP8VWBQRCox2dGstXx0"}, {"name": "Williams Furnture", "formatted_address": "1 ATA Allah Masoud, Almazah, Heliopolis, Cairo Governorate, Egypt", "lat": 31.351257, "types": ["shopping_mall", "point_of_interest", "establishment"], "place_id": "ChIJEZoQ1QE-WBQRfZOCgMzYBkY"}, {"name": "Abo Neaen.", "formatted_address": "11 ATA Allah Masoud, Almazah, Heliopolis, Cairo Governorate, Egypt", "lat": 31.3518959, "types": ["point_of_interest", "establishment"], "place_id": "ChIJaRith_8VWBQRoeAhPZZeYko"}, {"name": "Abo Ali-Haberdashery", "formatted_address": "Almazah, Heliopolis, Cairo Governorate, Egypt", "lat": 31.3519589, "types": ["point_of_interest", "establishment"], "place_id": "ChIJqZBOhf8VWBQR36YKL91vncs"}, {"name": "El Khawaga", "formatted_address": "11 Wahba Ghobrial, Almazah, Heliopolis, Cairo Governorate, Egypt", "lat": 31.3517843, "types": ["point_of_interest", "establishment"], "place_id": "ChIJc7xZhP8VWBQRP0BlL_tb7P8"}, {"name": "Saad Group", "formatted_address": "295 Omar Ebn El Khattab St.، EL NOZHA EL GADIDA، Heliopolis, Cairo Governorate, Egypt", "lat": 31.3511914, "types": ["point_of_interest", "establishment"], "place_id": "ChIJGbbwwvYVWBQRLHJqLVNlAAw"}, {"name": "صيانة كمبيوتر", "formatted_address": "9-11 ATA Allah Masoud, Almazah, Heliopolis, Cairo Governorate, Egypt", "lat": 31.3518896, "types": ["electronics_store", "point_of_interest", "store", "establishment"], "place_id": "ChIJLcaxh_8VWBQRmOVTg_xyA5k"}, {"name": "منزل محمد يوسف", "formatted_address": "9 وهبة غبريال، الماظة، قسم مصر الجديدة،، Cairo Governorate, Egypt", "lat": 31.3516726, "types": ["lodging", "point_of_interest", "establishment"], "place_id": "ChIJebfLHNAVWBQR8bMv6qtQpIQ"}, {"name": "لايف ماركت", "formatted_address": "1-11 عطا الله مسعود، الماظة، قسم مصر الجديدة،، Cairo Governorate, Egypt", "lat": 31.3518017, "types": ["supermarket", "grocery_or_supermarket", "food", "point_of_interest", "store", "establishment"], "place_id": "ChIJQ_mseaEVWBQRitaODYaHY8Q"}, {"name": "Shaheer", "formatted_address": "Almazah, Heliopolis, Cairo Governorate, Egypt", "lat": 31.3519299, "types": ["point_of_interest", "establishment"], "place_id": "ChIJbTXth_8VWBQR1Lu_v6p8OW4"}, {"name": "ياسين جروب - المتحدون للتجارة ومحطات الخدمة", "formatted_address": "29 Off EL Nozha St، النزهة، EL GADIDA, Heliopolis, Cairo Governorate, Egypt", "lat": 31.3515808, "types": ["point_of_interest", "establishment"], "place_id": "ChIJeQ0H6vcVWBQRpAmmaT6JACY"}, {"name": "Elfade", "formatted_address": "Almazah, Heliopolis, Cairo Governorate, Egypt", "lat": 31.3518844, "types": ["point_of_interest", "establishment"], "place_id": "ChIJtfeFh_8VWBQRhzYjWIR9Qqo"}, {"name": "El Raay", "formatted_address": "6 ATA Allah Masoud, Almazah, Heliopolis, Cairo Governorate, Egypt", "lat": 31.3515345, "types": ["store", "point_of_interest", "establishment"], "place_id": "ChIJ0wJkKAA-WBQR4YTkVpMm1G4"}, {"name": "Heliopolis Metro Depot", "formatted_address": "58 Al Ezba Al Gadida, Almazah, Heliopolis, Cairo Governorate, Egypt", "lat": 31.3515852, "types": ["local_government_office", "point_of_interest", "establishment"], "place_id": "ChIJT6McxAE-WBQR_1LJlGD05oE"}, {"name": "Cairo Tower", "formatted_address": "Zamalek, Cairo Governorate, Egypt", "lat": 31.2242898, "types": ["tourist_attraction", "premise", "museum", "point_of_interest", "establishment"], "place_id": "ChIJpVgdqJpAWBQR_tZY0ny_5mw"}, {"name": "Fine Arts", "formatted_address": "1 ش الشهيد مهيب قاسم، Al Gazirah Al Gadidah, Heliopolis, Cairo Governorate, Egypt", "lat": 31.351088, "types": ["point_of_interest", "establishment"], "place_id": "ChIJdbrRfv8VWBQRu7k6n7gD6zY"}, {"name": "Barclone", "formatted_address": "12 ATA Allah Masoud, Almazah, Heliopolis, Cairo Governorate, Egypt", "lat": 31.3518709, "types": ["point_of_interest", "establishment"], "place_id": "ChIJNWp8i_8VWBQRZWZC-zTLiLw"}, {"name": "11 Al Saudia Bldg - Al Quba Al Gadida", "formatted_address": "11 AL Saudia Bldg, Al Quba, Egypt", "lat": 31.3511851, "types": ["point_of_interest", "establishment"], "place_id": "ChIJ64__tQs_WBQRJV3Ywz3Uuck"}, {"name": "Panorama", "formatted_address": "2 Othman Hasan, Almazah, Heliopolis, Cairo Governorate, Egypt", "lat": 31.3512482, "types": ["point_of_interest", "establishment"], "place_id": "ChIJ97iSf_8VWBQRnn91S0O4Dxw"}, {"name": "Al Hassan WA Al Hossin", "formatted_address": "2 Wahba Ghobrial, Almazah, Heliopolis, Cairo Governorate, Egypt", "lat": 31.3511923, "types": ["pharmacy", "health", "point_of_interest", "store", "establishment"], "place_id": "ChIJvSEVf_8VWBQRvPYPZY1Q14E"}, {"name": "Game Valley Heliopolis", "formatted_address": "58 شارع الحجاز، Almazah, El-Gedida, Cairo Governorate 11757, Egypt", "lat": 31.3516312, "types": ["point_of_interest", "store", "establishment"], "place_id": "ChIJEXfcKwA-WBQRrWgFESrBU1g"}, {"name": "Boskalis Internatioal Misr", "formatted_address": "Almazah, Heliopolis, Cairo Governorate, Egypt", "lat": 31.3442352, "types": ["point_of_interest", "establishment"], "place_id": "ChIJbSHHt_kVWBQRjgPEG7BLnsE"}, {"name": "Citystars Heliopolis", "formatted_address": "Citystars, Cairo Governorate 11771, Egypt", "lat": 31.3458082, "types": ["shopping_mall", "point_of_interest", "establishment"], "place_id": "ChIJo0ecE_gVWBQRGGrouhZFdME"}, {"name": "ISmail Refaei", "formatted_address": "أحمد عبد العزيز، الماظة، قسم مصر الجديدة،، Cairo Governorate, Egypt", "lat": 31.3518436, "types": ["car_rental", "point_of_interest", "establishment"], "place_id": "ChIJzba63joVWBQRF2sNOaHglSs"}, {"name": "ألبان الباشا", "formatted_address": "9 Ahmed Abd El-Aziz, Almazah, Heliopolis, Cairo Governorate, Egypt", "lat": 31.3521305, "types": ["grocery_or_supermarket", "food", "point_of_interest", "store", "establishment"], "place_id": "ChIJy-tvGwA-WBQRkbc_OUV-2_0"}, {"name": "RFM Beauty Salon", "formatted_address": "مدينة ابو غزالة Helioplis, Cairo Governorate, Egypt", "lat": 31.351796, "types": ["beauty_salon", "point_of_interest", "establishment"], "place_id": "ChIJL9gHKQA-WBQRW4_Gk_c1Xf0"}, {"name": "Swvl Office", "formatted_address": "1 Hussein Kamel, Almazah, Heliopolis, Cairo Governorate, Egypt", "lat": 31.3524414, "types": ["point_of_interest", "establishment"], "place_id": "ChIJ7fM5kv8VWBQRREIDM4uvD5s"}, {"name": "Medo Car", "formatted_address": "Almazah, Heliopolis, Cairo Governorate, Egypt", "lat": 31.3519546, "types": ["point_of_interest", "establishment"], "place_id": "ChIJCYhMhf8VWBQRXEzVWqwZnFw"}, {"name": "Bolman", "formatted_address": "12 Othman Hasan, Almazah, Heliopolis, Cairo Governorate, Egypt", "lat": 31.3517284, "types": ["hair_care", "health", "point_of_interest", "establishment"], "place_id": "ChIJySkshP8VWBQRMVFKL0cA5zI"}, {"name": "Rodi Glass", "formatted_address": "7 Othman Hasan, Almazah, Heliopolis, Cairo Governorate, Egypt", "lat": 31.351627, "types": ["health", "point_of_interest", "establishment"], "place_id": "ChIJzya0mv8VWBQRup-X5neGBa4"}, {"name": "عيادة د رشا العدوي", "formatted_address": "كامل, 7 شارع حسين, Hussein kamel, Ezzat Mohammed Selim, Almazah, Cairo Governorate, Egypt", "lat": 31.3522705, "types": ["health", "point_of_interest", "establishment"], "place_id": "ChIJ-y9KsLw9WBQRoEpDnEddGP0"}, {"name": "Betlez", "formatted_address": "1 Hussein Kamel, Almazah, Heliopolis, Cairo Governorate, Egypt", "lat": 31.3523985, "types": ["car_dealer", "point_of_interest", "store", "establishment"], "place_id": "ChIJa9B0jv8VWBQRHsUNA-lpFYA"}, {"name": "St. Mark Coptic Orthodox Church Cleopatra", "formatted_address": "35 كيلوباترا، الماظة، قسم مصر الجديدة،، Cairo Governorate, Egypt", "lat": 31.3296246, "types": ["church", "place_of_worship", "point_of_interest", "establishment"], "place_id": "ChIJH3kNmooVWBQRfL4z5mf-KXU"}, {"name": "Radisson Blu Hotel, Cairo Heliopolis", "formatted_address": "Abdel Hamid Badawi St Heliopolis, Cairo Governorate 11787, Egypt", "lat": 31.3753121, "types": ["lodging", "point_of_interest", "establishment"], "place_id": "ChIJQZJ8fWUWWBQRAUPO9I6SxPg"}, {"name": "صيدليات دلمار وعطاالله", "formatted_address": "St Beside Bon Appetit Restaurant، 30 Nabil Al Wakkad, Al Golf, Nasr City, Cairo Governorate, Egypt", "lat": 31.3355488, "types": ["pharmacy", "health", "point_of_interest", "clothing_store", "store", "establishment"], "place_id": "ChIJt7arAhg-WBQRnv63IgI3U6w"}, {"name": "يلا تى فى", "formatted_address": "Al Ezba Al Gadida, Almazah, Heliopolis, Cairo Governorate 11000, Egypt", "lat": 31.3512162, "types": ["point_of_interest", "establishment"], "place_id": "ChIJrd1y1QE-WBQRyB-s-YSry_g"}, {"name": "El Asta", "formatted_address": "9 Ahmed Khalaf, Almazah, Heliopolis, Cairo Governorate, Egypt", "lat": 31.3514604, "types": ["car_repair", "point_of_interest", "establishment"], "place_id": "ChIJAR6Cnv8VWBQR-vNhqL8H-HE"}, {"name": "Al-Azhar Mosque", "formatted_address": "El-Darb El-Ahmar, Cairo Governorate, Egypt", "lat": 31.2626851, "types": ["mosque", "tourist_attraction", "place_of_worship", "point_of_interest", "establishment"], "place_id": "ChIJ9SH986JAWBQR6FIeS8dSZ2c"}, {"name": "Rana Vone", "formatted_address": "Almazah, Heliopolis, Cairo Governorate, Egypt", "lat": 31.3519216, "types": ["point_of_interest", "establishment"], "place_id": "ChIJbT1Hhv8VWBQR8t27HmVtZgo"}, {"name": "خريطة مشروعات مصر", "formatted_address": "5 El-Nozha, ،، Heliopolis, Cairo Governorate, Egypt", "lat": 31.3393083, "types": ["point_of_interest", "establishment"], "place_id": "ChIJVVUZrR0-WBQRSY8l75DZ0rA"}, {"name": "سامي و ابو زكري Wolf Service Center", "formatted_address": "30 Othman Ibn Affan, Almazah, Heliopolis, Cairo Governorate, Egypt", "lat": 31.3515568, "types": ["car_repair", "point_of_interest", "establishment"], "place_id": "ChIJ55vInP8VWBQRCLuxGwXWmVY"}, {"name": "Hussein sadat", "formatted_address": "3 Moheb Kasem, Almazah, Heliopolis, Cairo Governorate, Egypt", "lat": 31.3511923, "types": ["hair_care", "health", "point_of_interest", "establishment"], "place_id": "ChIJ6W62yQUVWBQRmZKI0LgsBXQ"}, {"name": "Mekka Bakery", "formatted_address": "ش عبد الله جاد الحق، Almazah, Heliopolis, Cairo Governorate, Egypt", "lat": 31.3520213, "types": ["bakery", "food", "point_of_interest", "store", "establishment"], "place_id": "ChIJvXoKiP8VWBQRwu-mze7d2xQ"}, {"name": "Cleopatra Hospital", "formatted_address": "39 Cleopatra Street, Opposite Maidan Salahuddin Square، Almazah, Heliopolis, Egypt", "lat": 31.3298159, "types": ["hospital", "health", "point_of_interest", "establishment"], "place_id": "ChIJhdsOk4oVWBQR9Ar3ET-SLGQ"}, {"name": "Flying Chef Egypt", "formatted_address": "Abd Allah Mohammed, Almazah, Alexandria، Cairo Governorate 11599, Egypt", "lat": 31.3519406, "types": ["point_of_interest", "establishment"], "place_id": "ChIJdTFw5SzF9RQRlofnfMQYqQM"}, {"name": "الورشة الفنية الميكانيكا و العفشة ( إدارة الأسطى نظير )", "formatted_address": "55 Al Ezba Al Gadida, Almazah, Heliopolis, Cairo Governorate, Egypt", "lat": 31.352017, "types": ["car_repair", "point_of_interest", "establishment"], "place_id": "ChIJ6_77YAI_WBQRGzb8ic8qeRY"}, {"name": "Hossam", "formatted_address": "5 Moheb Kasem, Almazah, Heliopolis, Cairo Governorate, Egypt", "lat": 31.35128169999999, "types": ["supermarket", "grocery_or_supermarket", "food", "point_of_interest", "store", "establishment"], "place_id": "ChIJpYueeP8VWBQRNvxGlu3-PJU"}, {"name": "Lemon Spaces sheraton Heliopolis", "formatted_address": "Building # 19، El-Safa, Sheraton Al Matar, El Nozha, Cairo Governorate, Egypt", "lat": 31.3667492, "types": ["lodging", "point_of_interest", "establishment"], "place_id": "ChIJ0dUH_3oXWBQRT1ZYgsJShvE"}, {"name": "Town Gas", "formatted_address": "37 شارع المفتشين – ألماظة، Ezzat Mohammed Selim, Heliopolis, Cairo Governorate, Egypt", "lat": 31.35288569999999, "types": ["point_of_interest", "establishment"], "place_id": "ChIJoVznGAA-WBQRXh64L8A1rKU"}, {"name": "Scooty Service", "formatted_address": "شارع Moheb Kasem, Almazah, Heliopolis, Cairo Governorate, Egypt", "lat": 31.3515306, "types": ["car_repair", "point_of_interest", "establishment"], "place_id": "ChIJPzGRlIo4WBQRLSQzA9CYlDQ"}, {"name": "Attalla", "formatted_address": "3 Nasr El-Islam, Al Khazendarah, Elsahel, Cairo Governorate, Egypt", "lat": 31.2544227, "types": ["electronics_store", "point_of_interest", "store", "establishment"], "place_id": "ChIJdYydrnNAWBQRKf3JnRHxH8E"}, {"name": "Mori Sushi", "formatted_address": "Tivoli Dome, 70 Almaza Square, Heliopolis, Cairo, Egypt", "lat": 31.3480622, "types": ["restaurant", "food", "point_of_interest", "establishment"], "place_id": "ChIJi39xFwI-WBQRjNDHsNFsCak"}, {"name": "Hilton Cairo Heliopolis", "formatted_address": "El-Orouba, Sheraton Al Matar, El Nozha, Cairo Governorate, Egypt", "lat": 31.3646213, "types": ["lodging", "point_of_interest", "establishment"], "place_id": "ChIJUYFpLCELRRQRzCxbUHFt6Vs"}, {"name": "اسما مارين لخدمات الشحن الدولى", "formatted_address": "شارع هاشم الأشعر، النزهة، EL GADIDA، Heliopolis, Cairo Governorate, Egypt", "lat": 31.3515808, "types": ["point_of_interest", "establishment"], "place_id": "ChIJX2aJLrcVWBQRJALiYlbfIG4"}, {"name": "Lizly Cargo & Customs Clearing", "formatted_address": "45 Dr. taha hussein st.، EL NOZHA EL GADIDA، Heliopolis, Cairo Governorate, Egypt", "lat": 31.3511608, "types": ["point_of_interest", "establishment"], "place_id": "ChIJUTEh-KcVWBQRuBeMM4J0HKo"}, {"name": "St. Mark Church Football Playground", "formatted_address": "Cleopatra, Almazah, Heliopolis, Cairo Governorate, Egypt", "lat": 31.3293669, "types": ["point_of_interest", "establishment"], "place_id": "ChIJj7eWm4oVWBQR8INAif4dNZ4"}, {"name": "Magic planet", "formatted_address": "Sheraton Al Matar, El Nozha, Cairo Governorate, Egypt", "lat": 31.3646602, "types": ["point_of_interest", "establishment"], "place_id": "ChIJmXK8yjI9WBQR1X3BzHRHL_0"}]