[{"name": "Masreya", "formatted_address": "138 El Hegaz St, El-Bostan, Heliopolis, Cairo Governorate, Egypt", "lat": 30.102937, "lng": 31.3267752, "types": ["point_of_interest", "establishment"], "place_id": "ChIJUZSGCpIVWBQRTgHtrw5lz_c"}, {"name": "eac", "formatted_address": "1 Atef Bek Barakat, El-Bostan, misr elgaida, Heliopolis 11351, Egypt", "lat": 30.1028483, "lng": 31.3258816, "types": ["point_of_interest", "establishment"], "place_id": "ChIJ-3Mg_I0VWBQR7wD0orKDvbA"}, {"name": "Baron Empain Palace", "formatted_address": "El-Orouba, El-Montaza, Heliopolis, Cairo Governorate 11757, Egypt", "lat": 30.0866701, "lng": 31.3303332, "types": ["point_of_interest", "establishment"], "place_id": "ChIJ1_GM8iE-WBQRLNVi-RT7vDA"}, {"name": "Anwar", "formatted_address": "138 El Hegaz St, El-Bostan, Heliopolis, Cairo Governorate, Egypt", "lat": 30.102937, "lng": 31.3267752, "types": ["point_of_interest", "establishment"], "place_id": "ChIJNSSOCpIVWBQRxALpvcLQIPg"}, {"name": "Abd El Aziz Seif", "formatted_address": "138 El Hegaz St, El-Bostan, Heliopolis, Cairo Governorate, Egypt", "lat": 30.1031908, "lng": 31.3270433, "types": ["point_of_interest", "establishment"], "place_id": "ChIJVc9wc5IVWBQRhHGfrWth3b0"}, {"name": "سكاى تك", "formatted_address": "12 ب El Hegaz St, Al Matar, El Nozha, Cairo Governorate, Egypt", "lat": 30.102781, "lng": 31.326536, "types": ["point_of_interest", "establishment"], "place_id": "ChIJkWv09o0VWBQRKwUhspZ9SB4"}, {"name": "Elailat", "formatted_address": "Al Bustan, Heliopolis, Cairo Governorate, Egypt", "lat": 30.1014297, "lng": 31.3260782, "types": ["point_of_interest", "establishment"], "place_id": "ChIJx2iE240VWBQRyL7-j-TLNXw"}, {"name": "Technology Center", "formatted_address": "63 El Hegaz St, El-Bostan, Heliopolis, Cairo Governorate, Egypt", "lat": 30.102242, "lng": 31.327055, "types": ["point_of_interest", "establishment"], "place_id": "ChIJ06TYwusVWBQRHtIjmXu3624"}, {"name": "اميه ترافيل سيرفيسز", "formatted_address": "9 أ Rfaah Bek Rafaa, El-Bostan, Heliopolis, Cairo Governorate, Egypt", "lat": 30.1033676, "lng": 31.3239365, "types": ["point_of_interest", "establishment"], "place_id": "ChIJMU-ZIY4VWBQRGjSyEkmMeJ0"}, {"name": "هانزاتون ايجيبت", "formatted_address": "55 El Hegaz St, Al Matar, El Nozha, Cairo Governorate, Egypt", "lat": 30.1025278, "lng": 31.3275817, "types": ["point_of_interest", "establishment"], "place_id": "ChIJ9SRYiI0VWBQRfBCsWduRINA"}, {"name": "Hansaton Egypt", "formatted_address": "55 El Hegaz St, Al Matar, El Nozha, Cairo Governorate, Egypt", "lat": 30.1025278, "lng": 31.3275817, "types": ["point_of_interest", "establishment"], "place_id": "ChIJ9SRYiI0VWBQRbbzoqfUMMvY"}, {"name": "سوبر ماركت ابا", "formatted_address": "3 ب Rfaah Bek Rafaa, Mansheya El-Bakry, Heliopolis, Cairo Governorate, Egypt", "lat": 30.1028663, "lng": 31.324024, "types": ["point_of_interest", "establishment"], "place_id": "ChIJeSZqPY4VWBQR8yh8cdtXDGs"}, {"name": "Eid Mohamed-Store", "formatted_address": "1 Al Sebaq, El-Bostan, Heliopolis, Cairo Governorate, Egypt", "lat": 30.10211619999999, "lng": 31.3237367, "types": ["point_of_interest", "establishment"], "place_id": "ChIJW8YGRI4VWBQRYyh5-QyASfA"}, {"name": "صيدلية ادهم غانم", "formatted_address": "عاطف بك بركات، البستان، قسم مصر الجديدة،، Cairo Governorate, Egypt", "lat": 30.1036675, "lng": 31.32548319999999, "types": ["pharmacy", "health", "point_of_interest", "store", "establishment"], "place_id": "ChIJJ_s6bJQVWBQRN7Nemlzs2n4"}, {"name": "M&A Beauty Salon", "formatted_address": "Atef Bek Barakat, El-Bostan, Heliopolis, Cairo Governorate, Egypt", "lat": 30.103513, "lng": 31.3256544, "types": ["hair_care", "point_of_interest", "establishment"], "place_id": "ChIJT-4HRNoVWBQRUgUaVgvDUUM"}, {"name": "اكس كرافت مصر", "formatted_address": "7 ش Abou Bakr El-Sedeek, Al Matar, El Nozha, Cairo Governorate, Egypt", "lat": 30.1049246, "lng": 31.32570279999999, "types": ["point_of_interest", "establishment"], "place_id": "ChIJAdW_QkAWWBQRPalgmUFwwk8"}, {"name": "Galal Ahmed Eissa", "formatted_address": "An Nuzhah, Qesm an Nuzhah, Cairo Governorate, Egypt", "lat": 30.1057387, "lng": 31.3256579, "types": ["point_of_interest", "establishment"], "place_id": "ChIJb3-4KpIVWBQR-0X8GFwTkMA"}, {"name": "El Mawada Establishment", "formatted_address": "27 Abaza St.، El-Bostan, Heliopolis, Cairo Governorate, Egypt", "lat": 30.103614, "lng": 31.326285, "types": ["point_of_interest", "establishment"], "place_id": "ChIJDf71D5IVWBQR4nlNs_lUBPE"}, {"name": "Ink Smith", "formatted_address": "12 Abaza St.، El-Bostan, Heliopolis, Cairo Governorate, Egypt", "lat": 30.1029884, "lng": 31.325047, "types": ["point_of_interest", "establishment"], "place_id": "ChIJYyop55EVWBQR7oWO5b-TNng"}, {"name": "Orthodox Patristic Center Cairo", "formatted_address": "8 B, إسماعيل الفلكى، ميدان المحكمة، مصر الجديدة،، Cairo Governorate, Egypt", "lat": 30.1042793, "lng": 31.3254571, "types": ["point_of_interest", "establishment"], "place_id": "ChIJJRUX9ZEVWBQRArsAcRR5N_w"}, {"name": "El Waha For Production & Assembling", "formatted_address": "7 متفرع من ش ابو بكر الصديق، El-Bostan, Heliopolis, Cairo Governorate, Egypt", "lat": 30.1041882, "lng": 31.3280145, "types": ["point_of_interest", "establishment"], "place_id": "ChIJGSmIUPIVWBQRbbdwkMr0XV4"}, {"name": "Segraph Advertising", "formatted_address": "13 El Mahkama Sq.، El-Bostan, Heliopolis, Cairo Governorate, Egypt", "lat": 30.1037, "lng": 31.3249, "types": ["point_of_interest", "establishment"], "place_id": "ChIJpczCxZIVWBQRprmOvCjVjHo"}, {"name": "مصنع المروة", "formatted_address": "3 Abou Bakr El-Sedeek, Al Matar, El Nozha, Cairo Governorate, Egypt", "lat": 30.1050975, "lng": 31.3252783, "types": ["point_of_interest", "establishment"], "place_id": "ChIJVVXZiJEVWBQR4mBM4gNFtPg"}, {"name": "King Travel", "formatted_address": "بجوار حديقة الميريلاند, 3 أ علي ابو الفتوح من, El Hegaz St, Heliopolis, Cairo Governorate 11736, Egypt", "lat": 30.1021261, "lng": 31.3253478, "types": ["travel_agency", "point_of_interest", "establishment"], "place_id": "ChIJh2OHa9cVWBQRpS3WF1PBykk"}, {"name": "Al Kholafaa Al Rashdeen Mosque", "formatted_address": "El Hegaz St, El-Bostan, Heliopolis, Cairo Governorate, Egypt", "lat": 30.1010215, "lng": 31.3243996, "types": ["mosque", "place_of_worship", "point_of_interest", "establishment"], "place_id": "ChIJufJ9io4VWBQRRErdNLAMvpM"}, {"name": "الشركة العربية لتكنولوجيا معالجة مياه الشرب", "formatted_address": "10 Abou Bakr El-Sedeek, Al Matar, El Nozha, Cairo Governorate, Egypt", "lat": 30.1056392, "lng": 31.3257534, "types": ["point_of_interest", "establishment"], "place_id": "ChIJDcgCK5IVWBQR3LuwgSE9Pdw"}, {"name": "إشراقات للتدريب والتنمية البشرية", "formatted_address": "5 Abou Bakr El-Sedeek, Al Matar, El Nozha, Cairo Governorate, Egypt", "lat": 30.1050097, "lng": 31.3254571, "types": ["point_of_interest", "establishment"], "place_id": "ChIJq6q2iZEVWBQRJC796hb0zvg"}, {"name": "Our Lady of Heliopolis Co-Cathedral", "formatted_address": "Nazih Khalifa crossroad، Al Ahram, Heliopolis, Cairo Governorate, Egypt", "lat": 30.0935707, "lng": 31.3251828, "types": ["church", "place_of_worship", "point_of_interest", "establishment"], "place_id": "ChIJJdgh-okVWBQR5TqTmKuQ0IM"}, {"name": "مسجد الصحابه", "formatted_address": "شارع اباظه،مصر الجديدة،، El Nozha, Cairo Governorate, Egypt", "lat": 30.103532, "lng": 31.3260592, "types": ["mosque", "place_of_worship", "point_of_interest", "establishment"], "place_id": "ChIJSataBJIVWBQRInJKZjGQQpM"}, {"name": "First Dream Travel", "formatted_address": "33 Abaza, El-Bostan, Heliopolis, Cairo Governorate, Egypt", "lat": 30.1035128, "lng": 31.3260203, "types": ["travel_agency", "point_of_interest", "establishment"], "place_id": "ChIJsarDBJIVWBQRuJ--R6tgQLE"}, {"name": "TTH Travel Ltd.", "formatted_address": "El-Bostan, Heliopolis, Cairo Governorate, Egypt", "lat": 30.1031288, "lng": 31.32712, "types": ["travel_agency", "point_of_interest", "establishment"], "place_id": "ChIJ0W2CjBcVWBQR45V5DqlJkhE"}, {"name": "El Nabawy", "formatted_address": "11 Abd Al Aziz Al Beshri, El-Bostan, Heliopolis, Cairo Governorate, Egypt", "lat": 30.1054698, "lng": 31.3240607, "types": ["mosque", "place_of_worship", "point_of_interest", "establishment"], "place_id": "ChIJNWRevZEVWBQR3p4bDGV9KNI"}, {"name": "مكتبة جسور للغات", "formatted_address": "شارع Ismail El Falaky, El-Bostan, Heliopolis, Cairo Governorate 11231, Egypt", "lat": 30.104461, "lng": 31.32561249999999, "types": ["library", "point_of_interest", "establishment"], "place_id": "ChIJIaVpwWcVWBQR9f8DmFQ69Gs"}, {"name": "La Vida Hotels And Resorts", "formatted_address": "EL Hegaz St, El-Bostan Heliopolis Cairo Governorate 30°06'10.2\"N 31°19'37.1\"E 30°06'10.5\"N 31°19'37.8\"E, Cairo Governorate 11771, Egypt", "lat": 30.10295979999999, "lng": 31.32684769999999, "types": ["travel_agency", "point_of_interest", "establishment"], "place_id": "ChIJH4CObJIVWBQR0MM2p5qpBJE"}, {"name": "Falkon", "formatted_address": "138 El Hegaz St, El-Bostan, Heliopolis, Cairo Governorate, Egypt", "lat": 30.1031908, "lng": 31.3270433, "types": ["post_office", "finance", "point_of_interest", "establishment"], "place_id": "ChIJgQljc5IVWBQR6gTRHZELjaU"}, {"name": "Physics World", "formatted_address": "35 Abaza, El-Bostan, Heliopolis, Cairo Governorate, Egypt", "lat": 30.1035282, "lng": 31.3263032, "types": ["point_of_interest", "establishment"], "place_id": "ChIJsShUBZIVWBQRLSVdd_b2akM"}, {"name": "مقر الحملة الإنتخابية للمشير عبد الفتاح السيسي", "formatted_address": "مصر الجديدة – 8 شارع ابو بكر الصديق –ميدان المحمكة، Abou Bakr El-Sedeek, Heliopolis, Cairo Governorate, Egypt", "lat": 30.104854, "lng": 31.3258489, "types": ["point_of_interest", "establishment"], "place_id": "ChIJX8SLJpIVWBQRsxK4Xia3sR8"}, {"name": "ECCA", "formatted_address": "Ahmed Al Sakandari, El-Bostan, Heliopolis, Cairo Governorate, Egypt", "lat": 30.1026853, "lng": 31.3244337, "types": ["point_of_interest", "establishment"], "place_id": "ChIJsVzZFo4VWBQR9BjwdePeDHE"}, {"name": "Red Sea Company", "formatted_address": "Rfaah BK Al Thtawi, El-Bostan, Heliopolis, Cairo Governorate, Egypt", "lat": 30.1020849, "lng": 31.323733, "types": ["travel_agency", "point_of_interest", "establishment"], "place_id": "ChIJdzpORI4VWBQRVkDopUtmhtY"}, {"name": "صيدلية الأمل الجديدة", "formatted_address": "شارع الحجاز،مصر الجديدة،قسم، Ali Abou El-Fotouh, El-Bostan, Heliopolis, Cairo Governorate, Egypt", "lat": 30.1023337, "lng": 31.3259686, "types": ["pharmacy", "health", "point_of_interest", "store", "establishment"], "place_id": "ChIJc9RC5I0VWBQRjAJw6WGuc58"}, {"name": "Nansy", "formatted_address": "138 El Hegaz St, El-Bostan, Heliopolis, Cairo Governorate, Egypt", "lat": 30.1028483, "lng": 31.3258816, "types": ["book_store", "point_of_interest", "store", "establishment"], "place_id": "ChIJMbkp_I0VWBQRaIRJniwpfTo"}, {"name": "DEVA", "formatted_address": "21 Ismail El Falaky, El-Bostan, Heliopolis, Cairo Governorate 11771, Egypt", "lat": 30.1041162, "lng": 31.3263952, "types": ["point_of_interest", "establishment"], "place_id": "ChIJG6aAPXEVWBQRa2vqsT_rQxA"}, {"name": "Maadi Island", "formatted_address": "Dar Al Salam, Giza Governorate, Egypt", "lat": 29.965527, "lng": 31.239237, "types": ["restaurant", "tourist_attraction", "park", "food", "point_of_interest", "establishment"], "place_id": "ChIJwY7d5MFHWBQRl1nMXlW_tUY"}, {"name": "Heliopolis Branch", "formatted_address": "17 Al Maahad Eshtraki, El-Montaza, Heliopolis, Cairo Governorate, Egypt", "lat": 30.0964245, "lng": 31.3198715, "types": ["bank", "finance", "point_of_interest", "establishment"], "place_id": "ChIJc6xhYogVWBQR3_OlRb2RY-I"}, {"name": "محمود حجازى", "formatted_address": "21 ش Ismail El Falaky, El-Bostan, Heliopolis, Cairo Governorate, Egypt", "lat": 30.1040271, "lng": 31.3269172, "types": ["lawyer", "point_of_interest", "establishment"], "place_id": "ChIJAYjEJfMVWBQRWG6qHCfLofk"}, {"name": "IRC contracting company ( Eng.Mohammed samir )", "formatted_address": "Unnamed Road، El-Bostan, Heliopolis, Cairo Governorate, Egypt", "lat": 30.1027711, "lng": 31.3267069, "types": ["point_of_interest", "establishment"], "place_id": "ChIJj4eq9o0VWBQRNo8VZ9-goVs"}, {"name": "صيدليه د/ دميانا عادل", "formatted_address": "El-Bostan, Heliopolis, Cairo Governorate, Egypt", "lat": 30.1046107, "lng": 31.3256918, "types": ["university", "point_of_interest", "establishment"], "place_id": "ChIJg7JIoAMVWBQRlrmPoxguPkI"}, {"name": "الدكتور محمد حامد", "formatted_address": "١٤ شارع الحجاز ميدان المحكمة, 11351, Egypt", "lat": 30.1030548, "lng": 31.3269584, "types": ["health", "point_of_interest", "establishment"], "place_id": "ChIJw77wOr8VWBQRAAqMZFa-13o"}, {"name": "كهربائى سيارات", "formatted_address": "12شارع الحجاز، المنتزه،،, البستان، قسم مصر الجديدة، محافظة القاهرة‬،، Egypt", "lat": 30.1026621, "lng": 31.3263634, "types": ["point_of_interest", "establishment"], "place_id": "ChIJ_8d_A4UVWBQR4w-jnJWXhLg"}, {"name": "Easy Vape", "formatted_address": "El-Bostan, Heliopolis, Cairo Governorate, Egypt", "lat": 30.1024667, "lng": 31.32615899999999, "types": ["point_of_interest", "store", "establishment"], "place_id": "ChIJBesq5Y0VWBQRDpvZbSIc4nM"}, {"name": "Elfady Cool الفادى كول لاعمال التكييف", "formatted_address": "3أ Abou Bakr El-Sedeek, El-Bostan, Heliopolis, Cairo Governorate, Egypt", "lat": 30.1051543, "lng": 31.3252569, "types": ["general_contractor", "point_of_interest", "establishment"], "place_id": "ChIJObn4rY8VWBQRdC3Fb3RU0Kg"}, {"name": "pharmacy", "formatted_address": "8ب اسماعيل الفلكي_ميدان المحكمه _ مصر الجديده، Heliopolis, Cairo Governorate, Egypt", "lat": 30.1042793, "lng": 31.3254571, "types": ["university", "point_of_interest", "establishment"], "place_id": "ChIJjZtXGFoVWBQR-LkiQGhSoJ8"}, {"name": "حمادة الأمير", "formatted_address": "1 Al Sebaq, El-Bostan, Heliopolis, Cairo Governorate, Egypt", "lat": 30.1021104, "lng": 31.3249879, "types": ["lawyer", "point_of_interest", "establishment"], "place_id": "ChIJ7RvODI4VWBQRV9dor-wisAw"}, {"name": "Eagle Car Rental", "formatted_address": "12 شارع الحجاز،، Al Mahkma, Heliopolis, Cairo Governorate 11737, Egypt", "lat": 30.102781, "lng": 31.326536, "types": ["car_rental", "point_of_interest", "establishment"], "place_id": "ChIJ2fpt8Y0VWBQR-PxLlYqgTKY"}, {"name": "(Demiana Adel pharmacy)صيدليه د / دميانه عادل", "formatted_address": "٨ب، Ismail El Falaky, El-Bostan, Heliopolis, Cairo Governorate, Egypt", "lat": 30.1042793, "lng": 31.3254571, "types": ["university", "point_of_interest", "establishment"], "place_id": "ChIJNa4eXhwVWBQRUMbR4c4KkV4"}, {"name": "El-ZoZ", "formatted_address": "33 Abaza, El-Bostan, Heliopolis, Cairo Governorate, Egypt", "lat": 30.10358699999999, "lng": 31.3259817, "types": ["lodging", "point_of_interest", "establishment"], "place_id": "ChIJZV0ffP0VWBQRnakYEwc4jmw"}, {"name": "Iris Optics Heliopolis", "formatted_address": "14 El Hegaz St, El-Montaza, Heliopolis, Cairo Governorate, Egypt", "lat": 30.102704, "lng": 31.3266072, "types": ["point_of_interest", "store", "establishment"], "place_id": "ChIJJ1uiVUMVWBQR8yf0GkBfJ18"}, {"name": "بنك المشرق", "formatted_address": "أبو بكر الصديق، البستان،، Heliopolis, Cairo Governorate, Egypt", "lat": 30.1042107, "lng": 31.3267599, "types": ["finance", "point_of_interest", "establishment"], "place_id": "ChIJ3VE0bCsVWBQRig626BT0GZE"}, {"name": "عيادة أ.د/ محمد حامد (مخ و أعصاب) Prof. Dr. Mohamed Hamed", "formatted_address": "12شارع الحجاز، المنتزه،،, El-Bostan, Heliopolis, Cairo Governorate, Egypt", "lat": 30.10265579999999, "lng": 31.3262598, "types": ["doctor", "health", "point_of_interest", "establishment"], "place_id": "ChIJiUT0SEMVWBQRK1R3TPb2uFw"}, {"name": "APCIDA Designs", "formatted_address": "8 Ismail El Falaky, El-Bostan, Heliopolis, Cairo Governorate, Egypt", "lat": 30.1042793, "lng": 31.3254571, "types": ["point_of_interest", "establishment"], "place_id": "ChIJd4B_tHwVWBQRIfRXWEicyaM"}]