[{"name": "Dar Misr Compound , Obour City", "formatted_address": "Al Obour, Al Qalyubia Governorate, Egypt", "lat": 31.4798948, "types": ["point_of_interest", "establishment"], "place_id": "ChIJt3eGXVMFWBQRwZCVVjYZA-E"}, {"name": "جيم gym", "formatted_address": "Al Obour, Al Qalyubia Governorate, Egypt", "lat": 31.4798948, "types": ["point_of_interest", "establishment"], "place_id": "ChIJcZwZjyMFWBQRvBtoOPLR_3o"}, {"name": "Uni Travel", "formatted_address": "17 أ عمارات العبور - صلاح سالم - الدور الارضى، القاهرة، Egypt", "lat": 31.479895, "types": ["travel_agency", "mosque", "place_of_worship", "point_of_interest", "establishment"], "place_id": "ChIJq6qqurhAWBQRniWvOrShdlY"}, {"name": "Heliopolis Hills Compound", "formatted_address": "Al Obour, Al Qalyubia Governorate, Egypt", "lat": 31.4629066, "types": ["point_of_interest", "establishment"], "place_id": "ChIJ0c3-M7MaWBQRP80S8IBs5us"}, {"name": "سيتى هايتس العبور", "formatted_address": "سيتى هايتس، Al Obour, Al Qalyubia Governorate, Egypt", "lat": 31.4798948, "types": ["lodging", "point_of_interest", "establishment"], "place_id": "ChIJd4B1TrgFWBQRizd1K7C8MuE"}, {"name": "مركز عباد الرحمن لصيانة السيارات - فرع العبور", "formatted_address": "العبور خلف مسجد ال نصار، اول السبعين, الشباب، Al Qalyubia Governorate, Egypt", "lat": 31.4798948, "types": ["point_of_interest", "establishment"], "place_id": "ChIJC_gwu8kFWBQRVBHGkn4psoU"}, {"name": "Bon Voyage", "formatted_address": "16 Adly, Al Fawalah, Abdeen, Cairo Governorate, Egypt", "lat": 31.244439, "types": ["tourist_attraction", "point_of_interest", "establishment"], "place_id": "ChIJJZ3TEL5AWBQRc-PhG_sO-S0"}, {"name": "مطعم باستا العبور", "formatted_address": "مطعم باستا فرع العبور خلف مكة مول، القليوبية،، Egypt", "lat": 31.4798948, "types": ["restaurant", "food", "point_of_interest", "establishment"], "place_id": "ChIJlYF4r5IFWBQRfhgJzeDYiYI"}, {"name": "New home", "formatted_address": "Al Obour, Al Qalyubia Governorate, Egypt", "lat": 31.4797696, "types": ["lodging", "point_of_interest", "establishment"], "place_id": "ChIJ-7Ce5IIFWBQRwHhdwEQ0OpM"}, {"name": "قهوه الخديوي", "formatted_address": "شارع عز العرب، مدينه العبور، 11828، مصر، Al Qalyubia Governorate, Egypt", "lat": 31.4798948, "types": ["cafe", "food", "point_of_interest", "establishment"], "place_id": "ChIJA6mNq90FWBQRTEhkFz5VNr0"}, {"name": "Golf Plus", "formatted_address": "شارع 50، Al Obour, محافظة القاهرة‬، Egypt", "lat": 31.4595541, "types": ["point_of_interest", "establishment"], "place_id": "ChIJKa3nyU0FWBQR7_YAQG7Ou5E"}, {"name": "El Obour City Youth Center", "formatted_address": "الحى الثاني،، Al Qalyubia Governorate, Egypt", "lat": 31.4756982, "types": ["point_of_interest", "establishment"], "place_id": "ChIJV7gxPA4FWBQRirM088NAOyo"}, {"name": "شقق للبيع بمدينة العبور بالتقسيط بأقل الاسعار 2021 - معمار للبناء والديكور", "formatted_address": "الحى التاسع - مدينة العبور - القاهرة، مدينة العبور، Cairo Governorate, Egypt", "lat": 31.45389, "types": ["real_estate_agency", "general_contractor", "point_of_interest", "establishment"], "place_id": "ChIJscL2e6QaWBQR8pgw0mCNESc"}, {"name": "El Obour City", "formatted_address": "El Obour City, Al Qalyubia Governorate, Egypt", "lat": 31.4798948, "types": ["locality", "political"], "place_id": "ChIJfaRMPbcaWBQRZ38AHS3J4Yk"}, {"name": "مقابر المدينة المنورة 2", "formatted_address": "شارع الطاقة الذرية، Al Qalyubia Governorate 13111, Egypt", "lat": 31.4798948, "types": ["cemetery", "point_of_interest", "establishment"], "place_id": "ChIJDUM0cwMFWBQR9tqrqCkkCdc"}, {"name": "حاتى المدينة العبور", "formatted_address": "مدينة العبور، القليوبية،، Egypt", "lat": 31.4798948, "types": ["restaurant", "food", "point_of_interest", "establishment"], "place_id": "ChIJaTlxYfAFWBQRfu8LkttTDmk"}, {"name": "احمد الشاذلي", "formatted_address": "مدينة العبور، القليوبية،، Egypt", "lat": 31.4798948, "types": ["lodging", "point_of_interest", "establishment"], "place_id": "ChIJHwuu0pQFWBQRcGC8PS-cxhw"}, {"name": "El Obour Central Authority", "formatted_address": "El Obour Rd, Al Obour, Qalyubia, Egypt", "lat": 31.456319, "types": ["local_government_office", "point_of_interest", "establishment"], "place_id": "ChIJI3ipOlsFWBQRHglP-yJvsaU"}, {"name": "مقابر العبور", "formatted_address": "Al Obour, Al Qalyubia Governorate, Egypt", "lat": 31.4798948, "types": ["hospital", "health", "point_of_interest", "establishment"], "place_id": "ChIJnzCzne8FWBQRf_FiOfkRaLU"}, {"name": "كمبوند دار مصر - العبور & Dar Masr El obour", "formatted_address": "الحي ااتاسع العبور، 11828, Egypt", "lat": 31.4481062, "types": ["point_of_interest", "establishment"], "place_id": "ChIJuTcaWf8PWBQRNK7oUGf4Bfo"}, {"name": "مشروع التطبيقيين بالتجمع", "formatted_address": "Al Obour, Cairo Governorate, Egypt", "lat": 31.4798948, "types": ["lodging", "point_of_interest", "establishment"], "place_id": "ChIJAQAAADAFWBQRF9-11q6S3_c"}, {"name": "El-Forsan Private School", "formatted_address": "شارع رابعة العدوية، Al Obour, Cairo Governorate, Egypt", "lat": 31.4617109, "types": ["school", "point_of_interest", "establishment"], "place_id": "ChIJTRWTwb0aWBQR8zvdTv52cQA"}, {"name": "Youth Housing Post Office", "formatted_address": "Street No. 67, Al Obour, محافظة القاهرة‬ 11846, Egypt", "lat": 31.4705137, "types": ["post_office", "finance", "point_of_interest", "establishment"], "place_id": "ChIJnU7rEQ0FWBQRdlLKpH4O-XA"}, {"name": "Obour Market", "formatted_address": "KALIOBEYA، Egypt", "lat": 31.4798948, "types": ["shopping_mall", "point_of_interest", "establishment"], "place_id": "ChIJCaZsdmoaWBQR4yBoXiJfLcQ"}, {"name": "اسماك النيل - سوق العبور", "formatted_address": "جمعية احمد عرابى، العبور،، Cairo Governorate 11828, Egypt", "lat": 31.4798951, "types": ["food", "point_of_interest", "establishment"], "place_id": "ChIJq6a1vAgFWBQRzpAnqvLA4B8"}, {"name": "جنة العبور", "formatted_address": "جنه، Al Obour, Al Qalyubia Governorate, Egypt", "lat": 31.4798948, "types": ["point_of_interest", "establishment"], "place_id": "ChIJe2lxjuIFWBQR3dQNKky-08E"}, {"name": "درويش الكبابجى Darwesh", "formatted_address": "Gamaiet Ahmed Orabi, Al Obour, Cairo Governorate, Egypt", "lat": 31.4777727, "types": ["restaurant", "food", "point_of_interest", "establishment"], "place_id": "ChIJLVu6h1kaWBQR4krhd8M8Ybo"}, {"name": "العبور", "formatted_address": "Al Obour, Al Qalyubia Governorate, Egypt", "lat": 31.4798948, "types": ["restaurant", "food", "point_of_interest", "establishment"], "place_id": "ChIJTYutVw8FWBQRqTalrPRfK7U"}, {"name": "Shepherd Culture Street Building", "formatted_address": "Al Obour, Al Qalyubia Governorate 11828, Egypt", "lat": 31.4798948, "types": ["point_of_interest", "establishment"], "place_id": "ChIJAQAAADAFWBQReJ6z6O-cpvM"}, {"name": "Villa", "formatted_address": "Al Obour, Al Qalyubia Governorate, Egypt", "lat": 31.4798948, "types": ["school", "point_of_interest", "establishment"], "place_id": "ChIJq5l7dT8FWBQRoZJ_lT2126k"}, {"name": "4 Bed", "formatted_address": "300 - المنطقة الأولى - مدينة العبور، شارع، Al Qalyubia Governorate, Egypt", "lat": 31.4798948, "types": ["furniture_store", "home_goods_store", "point_of_interest", "store", "establishment"], "place_id": "ChIJAQAAADAFWBQRuhtgdlJAwzM"}, {"name": "دار مصر", "formatted_address": "الحي التاسع العبور، 11828, Egypt", "lat": 31.4482638, "types": ["point_of_interest", "establishment"], "place_id": "ChIJmThY388FWBQRfAm3wFzB05c"}, {"name": "نزسز", "formatted_address": "Al Obour, Al Qalyubia Governorate, Egypt", "lat": 31.4798948, "types": ["point_of_interest", "establishment"], "place_id": "ChIJ4VnLWNwFWBQR_93wzmL8SFM"}, {"name": "الحي الثامن", "formatted_address": "Al Obour, Al Qalyubia Governorate, Egypt", "lat": 31.4798948, "types": ["point_of_interest", "establishment"], "place_id": "ChIJISwrkUoFWBQRnTqTSGp_A80"}, {"name": "Al Obour", "formatted_address": "Al Obour, Al Qalyubia Governorate, Egypt", "lat": 31.4799989, "types": ["administrative_area_level_2", "political"], "place_id": "ChIJz1fU61sDWBQRyfY6DpSRTEs"}, {"name": "فاكهة الصيف", "formatted_address": "سوق، Al Obour, Al Qalyubia Governorate, Egypt", "lat": 31.4798948, "types": ["shopping_mall", "point_of_interest", "establishment"], "place_id": "ChIJod10aWsFWBQRsqQUWYo6Oow"}, {"name": "مقهى ايمن على علام", "formatted_address": "Unnamed Road, محافظة القاهرة‬،، Egypt", "lat": 31.4798948, "types": ["cafe", "food", "point_of_interest", "establishment"], "place_id": "ChIJs_Ikr_kFWBQRyiibFhbrpFs"}, {"name": "ونش انقاذ العبور", "formatted_address": "Al Obour, Cairo Governorate, Egypt", "lat": 31.4798948, "types": ["point_of_interest", "establishment"], "place_id": "ChIJlzZfNLoFWBQRQz4Wnzv4Rjk"}, {"name": "Ain Shams University", "formatted_address": "El-Khalyfa El-Mamoun Street، Egypt", "lat": 31.4475185, "types": ["university", "point_of_interest", "establishment"], "place_id": "ChIJFa9vR6AaWBQRGjJUE6LloWE"}, {"name": "توب كابى", "formatted_address": "Al Obour, Al Qalyubia Governorate, Egypt", "lat": 31.4798948, "types": ["clothing_store", "point_of_interest", "store", "establishment"], "place_id": "ChIJm0E7oKEFWBQRzybfo1rObLg"}, {"name": "عقارات مصر", "formatted_address": "Al Obour, Al Qalyubia Governorate, Egypt", "lat": 31.4809248, "types": ["real_estate_agency", "point_of_interest", "establishment"], "place_id": "ChIJLZ6diEwFWBQRfuAed_RY2E8"}, {"name": "مؤسسة الحرية", "formatted_address": "Al Obour, Al Qalyubia Governorate, Egypt", "lat": 31.4798948, "types": ["point_of_interest", "establishment"], "place_id": "ChIJAQAAADAFWBQRa5en7TKhkZE"}, {"name": "Production Accountant", "formatted_address": "Al Obour, Al Qalyubia Governorate, Egypt", "lat": 31.4798948, "types": ["accounting", "finance", "point_of_interest", "establishment"], "place_id": "ChIJUV0bxTMFWBQRqi1uHD4tyqA"}, {"name": "Mobaco Cottons", "formatted_address": "El-Obour Rd, Al Obour, Al Qalyubia Governorate 11811, Egypt", "lat": 31.4759736, "types": ["clothing_store", "point_of_interest", "store", "establishment"], "place_id": "ChIJxemyEFkaWBQRjAgF3dhte_I"}, {"name": "مركز خدمة المصري للسيارات", "formatted_address": "قطعة (7) بلوك 20037- الامتداد الغربى- المنطقة الصناعية مدينه العبور - القليوبية - مصر القاهرة EG، 11828, Al Qalyubia Governorate, Egypt", "lat": 31.4798948, "types": ["point_of_interest", "establishment"], "place_id": "ChIJn032rYYFWBQR2KSbxqxQ_wo"}, {"name": "ليالي الحلمية", "formatted_address": "تقاطع 23 ديسمبر، Egypt", "lat": 31.4798948, "types": ["cafe", "food", "point_of_interest", "establishment"], "place_id": "ChIJd_dVSisFWBQRJZbKTFuHRUA"}, {"name": "مول أسواق شارع عبد العزيز العبور", "formatted_address": "31اسكان الشباب العبور, Al Qalyubia Governorate, Egypt", "lat": 31.46819, "types": ["shopping_mall", "point_of_interest", "establishment"], "place_id": "ChIJxaYGNkwFWBQRr47tRg-87fE"}, {"name": "Elkhadwi factory for hookah and glasses", "formatted_address": "133 صناعات صغيرة العبور بالشباب, Egypt", "lat": 31.4798948, "types": ["lodging", "point_of_interest", "establishment"], "place_id": "ChIJmX4kKpkFWBQR8OH8Q66tTLs"}, {"name": "Alfa Lab", "formatted_address": "El-Sadat Rd, Al Obour, Al Qalyubia Governorate, Egypt", "lat": 31.4706215, "types": ["health", "point_of_interest", "establishment"], "place_id": "ChIJm3Hv0TgFWBQRApuv2Ok7Qvw"}, {"name": "Khalf Al Ebour Mosque", "formatted_address": "Ahmed Zaki, Mansheya El-Bakry, Heliopolis, Cairo Governorate, Egypt", "lat": 31.3050612, "types": ["mosque", "place_of_worship", "point_of_interest", "establishment"], "place_id": "ChIJdRQSUco_WBQRdjJVZTqf7jA"}, {"name": "رونق لملابس المحجبات", "formatted_address": "مدينة العبور،، Al Qalyubia Governorate, Egypt", "lat": 31.4759706, "types": ["clothing_store", "point_of_interest", "store", "establishment"], "place_id": "ChIJq_6BRzMbWBQRQgh1KY0kb40"}, {"name": "Obour Institutes", "formatted_address": "21 Cairo - Belbeis Desert Rd, KALIOBEYA، محافظة القاهرة‬، Egypt", "lat": 31.473375, "types": ["point_of_interest", "establishment"], "place_id": "ChIJO5K42b4FWBQRwjLIt6vMtUE"}, {"name": "شركة / الضبع تكس للنسيج والصباغة والطباعة", "formatted_address": "العبور، المنطقة الصناعية، القليوبية،،،، Egypt", "lat": 31.4798948, "types": ["shopping_mall", "point_of_interest", "establishment"], "place_id": "ChIJH278c3cFWBQRwlv19uLc5l8"}, {"name": "ابو زين", "formatted_address": "مدينة العبور،، Al Qalyubia Governorate, Egypt", "lat": 31.4801233, "types": ["clothing_store", "point_of_interest", "store", "establishment"], "place_id": "ChIJO-NyfcwFWBQRhM7Zbb39CKg"}, {"name": "Elmasry restaurant", "formatted_address": "Golf city mall, Cairo Governorate, Egypt", "lat": 31.4798948, "types": ["restaurant", "food", "point_of_interest", "establishment"], "place_id": "ChIJC-BxmfkFWBQRPX6e3xTqxPA"}, {"name": "Al Ahram Beverages", "formatted_address": "Industrial Area Zone A – Area 11 to 24 Block 12003، OBOUR CITY، Al Qalyubia Governorate, Egypt", "lat": 31.440137, "types": ["point_of_interest", "establishment"], "place_id": "ChIJ_yOPy3YQWBQRhLoXr40aJkk"}, {"name": "باب ال KG", "formatted_address": "Al Obour, Al Qalyubia Governorate, Egypt", "lat": 31.4798948, "types": ["school", "point_of_interest", "establishment"], "place_id": "ChIJiUm7PH4FWBQR4Z9IDEmOoQ0"}, {"name": "2B Egypt Golf city Mall", "formatted_address": "Al Obour, Al Qalyubia Governorate, Egypt", "lat": 31.4763237, "types": ["electronics_store", "point_of_interest", "store", "establishment"], "place_id": "ChIJD6KjiTobWBQRf5gtZ8WI5Js"}, {"name": "صلصه", "formatted_address": "مدينة العبور،، Al Qalyubia Governorate, Egypt", "lat": 31.4798948, "types": ["restaurant", "food", "point_of_interest", "establishment"], "place_id": "ChIJMd5pRc4FWBQRoSNNMFcUwf4"}, {"name": "Golden Fish", "formatted_address": "Al Obour, Cairo Governorate 11828, Egypt", "lat": 31.4800087, "types": ["food", "point_of_interest", "establishment"], "place_id": "ChIJNctosiMFWBQRyd1P8YQhc6U"}]