[{"name": "Baron Empain Palace", "formatted_address": "El-Orouba, El-Montaza, Heliopolis, Cairo Governorate 11757, Egypt", "lat": 31.3303332, "types": ["point_of_interest", "establishment"], "place_id": "ChIJ1_GM8iE-WBQRLNVi-RT7vDA"}, {"name": "Ittihadia Palace", "formatted_address": "Al Nadi، El-Montaza, Heliopolis, Cairo Governorate, Egypt", "lat": 31.3193929, "types": ["tourist_attraction", "premise", "point_of_interest", "establishment"], "place_id": "ChIJuftqUS8-WBQRtM7fDk0QcPk"}, {"name": "Abou Saleh Sat", "formatted_address": "ش ابو بكر الصديق، بلبيس، Heliopolis, Ash Sharqia Governorate, Egypt", "lat": 31.3296596, "types": ["point_of_interest", "establishment"], "place_id": "ChIJ5SS0GY0VWBQRqz-BvhJFW5M"}, {"name": "Egyptian Investors Association", "formatted_address": "161 منطقة بلبيس الصناعية، بلبيس، الشرقية، Cairo Governorate, Egypt", "lat": 31.3300721, "types": ["point_of_interest", "establishment"], "place_id": "ChIJ1VCOII0VWBQRmxztDThT6IQ"}, {"name": "Hady Phone", "formatted_address": "ش السنترال، بلبيس، Heliopolis, Ash Sharqia Governorate, Egypt", "lat": 31.3296214, "types": ["point_of_interest", "establishment"], "place_id": "ChIJX1LEHo0VWBQReMAKN08jSMI"}, {"name": "Stars-Home Tools", "formatted_address": "Al Bustan, Heliopolis, Cairo Governorate, Egypt", "lat": 31.3304078, "types": ["point_of_interest", "establishment"], "place_id": "ChIJ42Qy2owVWBQRaOC_YV6C6jE"}, {"name": "El Anwar El Mohamadya", "formatted_address": "Al Bustan, Heliopolis, Cairo Governorate, Egypt", "lat": 31.3299031, "types": ["point_of_interest", "establishment"], "place_id": "ChIJ90QrwowVWBQRVsMqQz68r7k"}, {"name": "Hassen Kala", "formatted_address": "Al Bustan, Heliopolis, Cairo Governorate, Egypt", "lat": 31.3301935, "types": ["point_of_interest", "establishment"], "place_id": "ChIJcZ5OIY0VWBQRRP3_aPr0yTE"}, {"name": "El Khaleil", "formatted_address": "Al Bustan, Heliopolis, Cairo Governorate, Egypt", "lat": 31.3293152, "types": ["point_of_interest", "establishment"], "place_id": "ChIJszgKHY0VWBQR5bFbblXY7vg"}, {"name": "Bon Voyage", "formatted_address": "16 Adly, Al Fawalah, Abdeen, Cairo Governorate, Egypt", "lat": 31.244439, "types": ["tourist_attraction", "point_of_interest", "establishment"], "place_id": "ChIJJZ3TEL5AWBQRc-PhG_sO-S0"}, {"name": "Orange Habeeb Elkole", "formatted_address": "Al Bustan, Heliopolis, Cairo Governorate, Egypt", "lat": 31.3306123, "types": ["point_of_interest", "establishment"], "place_id": "ChIJe-Bc14wVWBQRATIS5-0Lo3U"}, {"name": "Our Lady of Heliopolis Co-Cathedral", "formatted_address": "Nazih Khalifa crossroad، Al Ahram, Heliopolis, Cairo Governorate, Egypt", "lat": 31.3251828, "types": ["church", "place_of_worship", "point_of_interest", "establishment"], "place_id": "ChIJJdgh-okVWBQR5TqTmKuQ0IM"}, {"name": "Shabanah", "formatted_address": "Al Bustan, Heliopolis, Cairo Governorate, Egypt", "lat": 31.3306232, "types": ["point_of_interest", "establishment"], "place_id": "ChIJjRdo14wVWBQRdEOkLjj9ve8"}, {"name": "El Rasheid", "formatted_address": "Al Bustan, Heliopolis, Cairo Governorate, Egypt", "lat": 31.3309413, "types": ["point_of_interest", "establishment"], "place_id": "ChIJg5_X1YwVWBQRL5vTBMVer0s"}, {"name": "El Bostan", "formatted_address": "Al Bustan, Heliopolis, Cairo Governorate, Egypt", "lat": 31.3308302, "types": ["point_of_interest", "establishment"], "place_id": "ChIJp4AiLo0VWBQRV9hMD5eKzR0"}, {"name": "Garo", "formatted_address": "Al Bustan, Heliopolis, Cairo Governorate, Egypt", "lat": 31.3287413, "types": ["point_of_interest", "establishment"], "place_id": "ChIJGT34-4wVWBQRNdgskFNzDmk"}, {"name": "Royal Star", "formatted_address": "Al Bustan, Heliopolis, Cairo Governorate, Egypt", "lat": 31.3299701, "types": ["point_of_interest", "establishment"], "place_id": "ChIJJ4WxwowVWBQR-MrckG5NYpQ"}, {"name": "Saieb", "formatted_address": "Al Bustan, Heliopolis, Cairo Governorate, Egypt", "lat": 31.3293445, "types": ["point_of_interest", "establishment"], "place_id": "ChIJAcdi5IwVWBQR-iZTA_ds-Hw"}, {"name": "Karam Showroom", "formatted_address": "21 El-Reyad, El-Bostan, Heliopolis, Cairo Governorate, Egypt", "lat": 31.329836, "types": ["point_of_interest", "establishment"], "place_id": "ChIJ68MRGI0VWBQR_xuYsuOfkVA"}, {"name": "Zakrya 3afsha", "formatted_address": "2 Belbes Ln, El-Bostan, Heliopolis, Cairo Governorate, Egypt", "lat": 31.3306303, "types": ["car_repair", "point_of_interest", "establishment"], "place_id": "ChIJb1y5GksVWBQRUkw0Fsc0V6g"}, {"name": "Khaled And Walid For Motors Services", "formatted_address": "7 متفرع من، Haroun El-Rashid, Heliopolis, Cairo Governorate, Egypt", "lat": 31.330436, "types": ["point_of_interest", "establishment"], "place_id": "ChIJpe9nJo0VWBQRrAJtXeS8EUs"}, {"name": "Beit El Hakim", "formatted_address": "1 ش الوسطى، مصر الجديدة، القاهرة، Cairo Governorate, Egypt", "lat": 31.33040299999999, "types": ["point_of_interest", "establishment"], "place_id": "ChIJzfysJY0VWBQRkjew6JHVyUY"}, {"name": "Keeping Quraanassociation", "formatted_address": "Al Bustan, Heliopolis, Cairo Governorate, Egypt", "lat": 31.3299254, "types": ["point_of_interest", "establishment"], "place_id": "ChIJC4Li3YwVWBQRgC63x24mhIA"}, {"name": "Ramko", "formatted_address": "38 Haroun El-Rashid, El-Bostan, Heliopolis, Cairo Governorate, Egypt", "lat": 31.3302047, "types": ["point_of_interest", "establishment"], "place_id": "ChIJ3yGz3owVWBQRpS9f-OxkJDs"}, {"name": "Family Park", "formatted_address": "مدخل الرحاب 2 ) الكيلو 26،، Suez Rd, Egypt", "lat": 31.5013244, "types": ["park", "tourist_attraction", "point_of_interest", "establishment"], "place_id": "ChIJ97tx7voYWBQR-q4kFfGwYYo"}, {"name": "Medsure", "formatted_address": "15 Bahri Al Bostan, El-Bostan, Heliopolis, Cairo Governorate, Egypt", "lat": 31.330052, "types": ["point_of_interest", "establishment"], "place_id": "ChIJE59exEcVWBQRb3sqSeWz64w"}, {"name": "Sadat Qoraish Mosque", "formatted_address": "Belbes, Bilbeis, Ash Sharqia Governorate, Egypt", "lat": 31.56331399999999, "types": ["mosque", "tourist_attraction", "place_of_worship", "point_of_interest", "establishment"], "place_id": "ChIJ8_N6A-3-9xQRaA3eDCVZFpo"}, {"name": "St. Mark Coptic Orthodox Church Cleopatra", "formatted_address": "35 كيلوباترا، الماظة، قسم مصر الجديدة،، Cairo Governorate, Egypt", "lat": 31.3296246, "types": ["church", "place_of_worship", "point_of_interest", "establishment"], "place_id": "ChIJH3kNmooVWBQRfL4z5mf-KXU"}, {"name": "مسجد أبو ذر الغفاري", "formatted_address": "18 El-Forn, El-Bostan, Heliopolis, Cairo Governorate, Egypt", "lat": 31.3299081, "types": ["mosque", "place_of_worship", "point_of_interest", "establishment"], "place_id": "ChIJIV6DB2gVWBQR-U3m35FwxSE"}, {"name": "Balcon Heliopolis", "formatted_address": "26 Sohag, El-Bostan, Heliopolis, Cairo Governorate, Egypt", "lat": 31.3324821, "types": ["point_of_interest", "establishment"], "place_id": "ChIJVQnP3PIVWBQR-BFcoaXdkc0"}, {"name": "جمعية أبناء مصر الجديدة لتنمية المجتمع", "formatted_address": "Al Bustan, Heliopolis, Cairo Governorate, Egypt", "lat": 31.3296573, "types": ["point_of_interest", "establishment"], "place_id": "ChIJp5cZ5owVWBQRBOrmZo9cLFA"}, {"name": "جمعية التحرير للخدمة الاجتماعية", "formatted_address": "5 El Riad St.، El-Bostan, Heliopolis, Cairo Governorate, Egypt", "lat": 31.3298736, "types": ["point_of_interest", "establishment"], "place_id": "ChIJZ2_bF40VWBQR29TVB3uswNA"}, {"name": "Egy. Led light for all design", "formatted_address": "1 Belbes, El-Bostan, Heliopolis, Cairo Governorate, Egypt", "lat": 31.33078889999999, "types": ["home_goods_store", "point_of_interest", "store", "establishment"], "place_id": "ChIJoV_mUDsVWBQRYBcYlQFBdyc"}, {"name": "Mohammed Khaled law office/ مكتب الاستاذ محمد خالد المحامي", "formatted_address": "2nd Abo Qir street, Heliopolis, Cairo Governorate, Egypt", "lat": 31.3287944, "types": ["lawyer", "point_of_interest", "establishment"], "place_id": "ChIJg61bJPkVWBQR1DJ0XVTsUvE"}, {"name": "Eldeeb Store", "formatted_address": "18 Belbes, El-Bostan, Heliopolis, Cairo Governorate, Egypt", "lat": 31.329866, "types": ["clothing_store", "point_of_interest", "store", "establishment"], "place_id": "ChIJ-Th4Io0VWBQR9ihU_5mKmCE"}, {"name": "Maadi Island", "formatted_address": "Dar Al Salam, Giza Governorate, Egypt", "lat": 31.239237, "types": ["restaurant", "tourist_attraction", "park", "food", "point_of_interest", "establishment"], "place_id": "ChIJwY7d5MFHWBQRl1nMXlW_tUY"}, {"name": "mosquee cheikh hassen al banna", "formatted_address": "1-23 Belbes, El-Bostan, Heliopolis, Cairo Governorate, Egypt", "lat": 31.33005399999999, "types": ["point_of_interest", "establishment"], "place_id": "ChIJRVLIoEAVWBQRg223WZ9OQAI"}, {"name": "Labor Bureau - Heliopolis", "formatted_address": "3 Haroun El-Rashid, El-Bostan, Heliopolis, Cairo Governorate, Egypt", "lat": 31.32925089999999, "types": ["point_of_interest", "establishment"], "place_id": "ChIJMbYPyfIVWBQRwRHg80Z7Y64"}, {"name": "Post Office - West Heliopolis", "formatted_address": "El-Nozha, El Nozha, Cairo Governorate, Egypt", "lat": 31.33018539999999, "types": ["post_office", "finance", "point_of_interest", "establishment"], "place_id": "ChIJ-1tRxpIVWBQR8pyCMmqAgXM"}, {"name": "Porto Heliopolis", "formatted_address": "Almazah, Heliopolis, Cairo Governorate, Egypt", "lat": 31.348709, "types": ["lodging", "point_of_interest", "establishment"], "place_id": "ChIJR5FCXgE-WBQR471eyuZuvGw"}, {"name": "Citystars Heliopolis", "formatted_address": "Citystars, Cairo Governorate 11771, Egypt", "lat": 31.3458082, "types": ["shopping_mall", "point_of_interest", "establishment"], "place_id": "ChIJo0ecE_gVWBQRGGrouhZFdME"}, {"name": "El Masmarat", "formatted_address": "Al Bustan, Heliopolis, Cairo Governorate, Egypt", "lat": 31.3301153, "types": ["book_store", "point_of_interest", "store", "establishment"], "place_id": "ChIJ05PA3owVWBQRAKugwehU15c"}, {"name": "Abu Hanafee", "formatted_address": "Al Bustan, Heliopolis, Cairo Governorate, Egypt", "lat": 31.3309524, "types": ["point_of_interest", "establishment"], "place_id": "ChIJ9SrX1YwVWBQRVJMXg5Sn8x8"}, {"name": "Baron Hotel Heliopolis", "formatted_address": "14 Al Baroon, El-Montaza, Heliopolis, Cairo Governorate, Egypt", "lat": 31.3314609, "types": ["lodging", "point_of_interest", "establishment"], "place_id": "ChIJUbVOACI-WBQRWsi5B7gYfxs"}, {"name": "قهوة السد العالي", "formatted_address": "36 Haroun El-Rashid, El-Bostan, Heliopolis, Cairo Governorate, Egypt", "lat": 31.3303722, "types": ["cafe", "food", "point_of_interest", "establishment"], "place_id": "ChIJuRoBvmgVWBQRda_tQOqcusY"}, {"name": "الوفائي أنظمة إنارة", "formatted_address": "40 Haroun El-Rashid, El-Bostan, Heliopolis, Cairo Governorate, Egypt", "lat": 31.33063799999999, "types": ["home_goods_store", "point_of_interest", "store", "establishment"], "place_id": "ChIJBwAw1owVWBQRoUI2mdCmdMw"}, {"name": "Khaled Bikes", "formatted_address": "3 Belbes, El-Bostan, Heliopolis, Cairo Governorate, Egypt", "lat": 31.33039969999999, "types": ["car_repair", "point_of_interest", "establishment"], "place_id": "ChIJCd0IDfoVWBQRKiSIjsLjYQ8"}, {"name": "Elshreef", "formatted_address": "Al Bustan, Heliopolis, Cairo Governorate, Egypt", "lat": 31.3305956, "types": ["store", "point_of_interest", "establishment"], "place_id": "ChIJg3pKJo0VWBQR49xdTgjuUeU"}, {"name": "Haty El Aseel", "formatted_address": "1 off haroun el rashid st.، El-Bostan, Heliopolis, Cairo Governorate, Egypt", "lat": 31.3308731, "types": ["restaurant", "food", "point_of_interest", "establishment"], "place_id": "ChIJ_QWWbhIVWBQR9g4F8w6fPTA"}, {"name": "كوفى شوب فرفشة", "formatted_address": "Al Bustan, Heliopolis, Cairo Governorate, Egypt", "lat": 31.3301041, "types": ["cafe", "food", "point_of_interest", "store", "establishment"], "place_id": "ChIJlR0WI40VWBQRP2BbSGDvvlI"}, {"name": "الحرمين للأنارة", "formatted_address": "42 ش هارون الرشيد، Al Gamea Sq., Heliopolis, Cairo Governorate, Egypt", "lat": 31.331005, "types": ["electronics_store", "home_goods_store", "point_of_interest", "store", "establishment"], "place_id": "ChIJQXJ2psUVWBQRpt4r-rCKAPw"}, {"name": "اسيل لايت", "formatted_address": "شارع هارون الرشيد، ميدان الاسماعيلية، Heliopolis, Cairo Governorate, Egypt", "lat": 31.3305163, "types": ["home_goods_store", "point_of_interest", "store", "establishment"], "place_id": "ChIJTyvp2YwVWBQRbIav84rad7c"}, {"name": "The Great Pyramid of Giza", "formatted_address": "Al Haram, Nazlet El-Semman, Al Giza Desert, Giza Governorate, Egypt", "lat": 31.1342019, "types": ["tourist_attraction", "premise", "point_of_interest", "establishment"], "place_id": "ChIJGymPrIdFWBQRJCSloj8vDIE"}, {"name": "Alam El Behar", "formatted_address": "Al Akaba, El-Bostan, Heliopolis, Cairo Governorate, Egypt", "lat": 31.3300255, "types": ["restaurant", "food", "point_of_interest", "establishment"], "place_id": "ChIJ6d4mI40VWBQRol-iqaIelG4"}, {"name": "Khattab Paper Point", "formatted_address": "4 ش صلاح الدين، Almazah, Heliopolis, Cairo Governorate, Egypt", "lat": 31.3341, "types": ["point_of_interest", "establishment"], "place_id": "ChIJx9lCdfUVWBQRkBpdq15VFcs"}, {"name": "Dar El Safa", "formatted_address": "24 off haroun el rashid st.، El-Bostan, Heliopolis, Cairo Governorate, Egypt", "lat": 31.3295487, "types": ["point_of_interest", "establishment"], "place_id": "ChIJ_QWWbhIVWBQRygWuuy7RhHQ"}, {"name": "جزارة أولاد فجلة", "formatted_address": "شارع الرياض_ مصر الجديدة _قسم، Heliopolis, Egypt", "lat": 31.3296426, "types": ["food", "point_of_interest", "store", "establishment"], "place_id": "ChIJfzoFGY0VWBQRxoYAphS9008"}, {"name": "Radisson Blu Hotel, Cairo Heliopolis", "formatted_address": "Abdel Hamid Badawi St Heliopolis, Cairo Governorate 11787, Egypt", "lat": 31.3753121, "types": ["lodging", "point_of_interest", "establishment"], "place_id": "ChIJQZJ8fWUWWBQRAUPO9I6SxPg"}, {"name": "Il Pennello Ceramic Café & Restaurant", "formatted_address": "Omar Ibn El-Khattab, El-Bostan, Heliopolis, Cairo Governorate, Egypt", "lat": 31.33329, "types": ["cafe", "restaurant", "food", "point_of_interest", "establishment"], "place_id": "ChIJA9aGkfIVWBQR6C-ilXdzmvM"}, {"name": "Al Reda", "formatted_address": "Al Bustan, Heliopolis, Cairo Governorate, Egypt", "lat": 31.3299031, "types": ["hardware_store", "home_goods_store", "point_of_interest", "store", "establishment"], "place_id": "ChIJ0Z64lYwVWBQRuDtv3i5LUHM"}]