[{"name": "Ittihadia Palace", "formatted_address": "Al Nadi، El-Montaza, Heliopolis, Cairo Governorate, Egypt", "lat": 30.0888643, "lng": 31.3193929, "types": ["tourist_attraction", "premise", "point_of_interest", "establishment"], "place_id": "ChIJuftqUS8-WBQRtM7fDk0QcPk"}, {"name": "Baron Empain Palace", "formatted_address": "El-Orouba, El-Montaza, Heliopolis, Cairo Governorate 11757, Egypt", "lat": 30.0866701, "lng": 31.3303332, "types": ["point_of_interest", "establishment"], "place_id": "ChIJ1_GM8iE-WBQRLNVi-RT7vDA"}, {"name": "Our Lady of Heliopolis Co-Cathedral", "formatted_address": "Nazih Khalifa crossroad، Al Ahram, Heliopolis, Cairo Governorate, Egypt", "lat": 30.0935707, "lng": 31.3251828, "types": ["church", "place_of_worship", "point_of_interest", "establishment"], "place_id": "ChIJJdgh-okVWBQR5TqTmKuQ0IM"}, {"name": "Radisson Blu Hotel, Cairo Heliopolis", "formatted_address": "Abdel Hamid Badawi St Heliopolis, Cairo Governorate 11787, Egypt", "lat": 30.1065093, "lng": 31.3753121, "types": ["lodging", "point_of_interest", "establishment"], "place_id": "ChIJQZJ8fWUWWBQRAUPO9I6SxPg"}, {"name": "مستشفى الحرية التخصصى", "formatted_address": "11 Latif Mansour St، Almazah, El Nozha, Cairo Governorate, Egypt", "lat": 30.112315, "lng": 31.3438507, "types": ["hospital", "health", "point_of_interest", "establishment"], "place_id": "ChIJq7jFPhw-WBQRx7wGgL_7bO8"}, {"name": "The Egyptian Museum", "formatted_address": "شارع ماريت باشا، ميدان التحرير، Egypt", "lat": 30.0475781, "lng": 31.23361389999999, "types": ["museum", "tourist_attraction", "point_of_interest", "establishment"], "place_id": "ChIJw741VYhBWBQRD2Z6OiulDVI"}, {"name": "Mar Guirguis church", "formatted_address": "Al Matar, El Nozha, Cairo Governorate, Egypt", "lat": 30.112315, "lng": 31.3438507, "types": ["church", "place_of_worship", "point_of_interest", "establishment"], "place_id": "ChIJo7ZMU40VWBQRyM0cS-gcbeM"}, {"name": "Arab film school", "formatted_address": "15-Al-Ahram Street, Heliopolis, Cairo Governorate 11757, Egypt", "lat": 30.112315, "lng": 31.3438507, "types": ["point_of_interest", "establishment"], "place_id": "ChIJcYZ1plEVWBQRfQ17CkMcvAQ"}, {"name": "Egyptravel", "formatted_address": "Safer square 12 Hassona, النواوي، Cairo Governorate, Egypt", "lat": 30.112315, "lng": 31.3438507, "types": ["travel_agency", "point_of_interest", "establishment"], "place_id": "ChIJneOVGKdHWBQR2dPurZOd9g8"}, {"name": "A|X Heliopolis City Stars Mall", "formatted_address": "City Stars Mall Heliopolis, Il Cairo, 11757, Egypt", "lat": 30.11216649999999, "lng": 31.34367929999999, "types": ["point_of_interest", "clothing_store", "store", "establishment"], "place_id": "ChIJi1N7kww_WBQR2_0TRndb_UU"}, {"name": "Queens Hospital _ Cleopatra Hospitals Group", "formatted_address": "4 Sheikh Nour Eldin, off Thawra St., Heliopolis, 11345, Egypt", "lat": 30.0886869, "lng": 31.3318691, "types": ["hospital", "doctor", "health", "point_of_interest", "establishment"], "place_id": "ChIJ65q6gh8-WBQRb6VXdsqqg4w"}, {"name": "حجز فنادق مصر الجديدة", "formatted_address": "مصر الجديدة، Cairo Governorate, Egypt", "lat": 30.112315, "lng": 31.3438507, "types": ["travel_agency", "point_of_interest", "establishment"], "place_id": "ChIJI1h83OMVWBQRtdlkKJjuHuw"}, {"name": "English Home Club", "formatted_address": "60 St. Haroun, Heliopolis, Cairo Governorate 11545, Egypt", "lat": 30.112315, "lng": 31.3438507, "types": ["point_of_interest", "establishment"], "place_id": "ChIJK1ZIUY4VWBQRcigafOCQujE"}, {"name": "Egyptair", "formatted_address": "Al Matar, El Nozha, Cairo Governorate, Egypt", "lat": 30.112315, "lng": 31.3438507, "types": ["travel_agency", "point_of_interest", "establishment"], "place_id": "ChIJmeXkw9wVWBQRhp0z_uttSsk"}, {"name": "Heliopolis Towers Hotel", "formatted_address": "El Shaheed Sayed Zakaria, Sheraton Al Matar, El Nozha, Cairo Governorate 11736, Egypt", "lat": 30.1074763, "lng": 31.3661798, "types": ["lodging", "point_of_interest", "establishment"], "place_id": "ChIJZ9p3820WWBQRmZh2M_MSzOQ"}, {"name": "Dr. Mina magdi dental clinic", "formatted_address": "60 Heliopolis st. El ibrahemya 2ndfloor, Egypt", "lat": 30.112315, "lng": 31.3438507, "types": ["dentist", "health", "point_of_interest", "establishment"], "place_id": "ChIJyVgcg9oVWBQRsq6fyvZ8Vu0"}, {"name": "OKKA Coffee Machine", "formatted_address": "5 ش ابن سينا - ميدان سفير Heliopolis القاهرة، 11757, Egypt", "lat": 30.112315, "lng": 31.3438507, "types": ["home_goods_store", "point_of_interest", "store", "establishment"], "place_id": "ChIJ30hiuoUVWBQRhk5mzfGj5Yc"}, {"name": "Golden Park Hotel", "formatted_address": "شارع الحجاز ، مصر الجديده، 221 شارع الحجاز ، هيليوبوليس ،، El Nozha, Cairo Governorate, Egypt", "lat": 30.1153686, "lng": 31.3525102, "types": ["lodging", "point_of_interest", "establishment"], "place_id": "ChIJsQQdRNgVWBQRss6fVxNFk_8"}, {"name": "Egipto Tour", "formatted_address": "Triumph square, 9 Mostafa Sadek El Rafae Street, Al Matar, El Nozha, Cairo Governorate 11361, Egypt", "lat": 30.112315, "lng": 31.3438507, "types": ["travel_agency", "point_of_interest", "establishment"], "place_id": "ChIJz1YOGw4VWBQR2H8smMZ423g"}, {"name": "هيلتون هيليوبلس", "formatted_address": "Al Matar, El Nozha, Cairo Governorate, Egypt", "lat": 30.112315, "lng": 31.3438507, "types": ["lodging", "point_of_interest", "establishment"], "place_id": "ChIJocT4HcUVWBQRgIk90yuylWM"}, {"name": "Lont Group", "formatted_address": "4A Kamal EL Shafie، Ismailia Square، Heliopolis, Cairo Governorate, Egypt", "lat": 30.112315, "lng": 31.3438507, "types": ["travel_agency", "point_of_interest", "establishment"], "place_id": "ChIJ2_pLw4Q_WBQR5wCWEEgCfSw"}, {"name": "شقق مقروشة للايجار في القاهرة", "formatted_address": "ميدان تريومف، Al Matar, El Nozha, Cairo Governorate 11757, Egypt", "lat": 30.112315, "lng": 31.3438507, "types": ["lodging", "point_of_interest", "establishment"], "place_id": "ChIJWZEUunIVWBQR9m5l_WAmnt4"}, {"name": "الندى للسياحة", "formatted_address": "95 Mohammed Farid, Al Matar, El Nozha, Cairo Governorate, Egypt", "lat": 30.114135, "lng": 31.3429199, "types": ["travel_agency", "point_of_interest", "establishment"], "place_id": "ChIJ87OaqtwVWBQRi2RVO1IZb0w"}, {"name": "Food Value", "formatted_address": "Heliopolis, Cairo Governorate, Egypt", "lat": 30.112315, "lng": 31.3438507, "types": ["food", "point_of_interest", "establishment"], "place_id": "ChIJ-7sagk4VWBQRbYGg-BOxCAk"}, {"name": "novartis", "formatted_address": "7 El-Khalily St., Hesny building - Area 1147 Heliopolis Sheraton، Egypt", "lat": 30.112315, "lng": 31.3438507, "types": ["point_of_interest", "establishment"], "place_id": "ChIJmeXkw9wVWBQRPh1MOJ0nxOg"}, {"name": "art planet 369", "formatted_address": "Al Matar, El Nozha, Cairo Governorate, Egypt", "lat": 30.112315, "lng": 31.3438507, "types": ["point_of_interest", "establishment"], "place_id": "ChIJgW-2iYQVWBQRAcyJwo7q004"}, {"name": "Church of the Great Martyr Saint George and Anba Ebram - كنيسة الشهيد العظيم مارجرجس و الأنبا ابرآم", "formatted_address": "54 Abd El-Aziz Fahmy, Al Matar, El Nozha, Cairo Governorate, Egypt", "lat": 30.1080494, "lng": 31.3392792, "types": ["church", "place_of_worship", "point_of_interest", "establishment"], "place_id": "ChIJvzrXsekVWBQRye4OpOsJnNM"}, {"name": "مطبعة الأندلس", "formatted_address": "مصر الجديده الجرفه سابقن،، Egypt", "lat": 30.112315, "lng": 31.3438507, "types": ["point_of_interest", "establishment"], "place_id": "ChIJCX2oMEEVWBQRqJxm0dvnFks"}, {"name": "Holiday Inn Cairo - Citystars", "formatted_address": "Ali Rashed Street Heliopolis, Cairo Governorate 11757, Egypt", "lat": 30.0741245, "lng": 31.3438399, "types": ["lodging", "point_of_interest", "establishment"], "place_id": "ChIJw0Sx6OxAWBQRac0KOAYXiEo"}, {"name": "الهندسيه للستائر الرأسيه", "formatted_address": "مصر الجديده، القاهره، مصر فارغ، Egypt", "lat": 30.112315, "lng": 31.3438507, "types": ["home_goods_store", "point_of_interest", "store", "establishment"], "place_id": "ChIJT2uD_nYVWBQRmvvE3fIiJnw"}, {"name": "USA BRANDS", "formatted_address": "5 Abdul Hay St., Hegaz Square, Heliopolis, New Nozha, Cairo, Cairo Governorate 11757, Egypt", "lat": 30.1118067, "lng": 31.3442931, "types": ["clothing_store", "point_of_interest", "store", "establishment"], "place_id": "ChIJVcC559wVWBQRg_y8ZYmGb-M"}, {"name": "Hilton Cairo Heliopolis", "formatted_address": "El-Orouba, Sheraton Al Matar, El Nozha, Cairo Governorate, Egypt", "lat": 30.1067298, "lng": 31.3646213, "types": ["lodging", "point_of_interest", "establishment"], "place_id": "ChIJUYFpLCELRRQRzCxbUHFt6Vs"}, {"name": "فندق كنكورد السلام", "formatted_address": "المطار، قسم النزهة، محافظة القاهرة‬،، Egypt", "lat": 30.112315, "lng": 31.3438507, "types": ["lodging", "point_of_interest", "establishment"], "place_id": "ChIJZYOYs08VWBQRBPgJTZvjWGo"}, {"name": "Go Heliopolis - Khozam The First Compound In Heliopolis", "formatted_address": "شارع النزهة، مصر الجديدة،، Egypt", "lat": 30.0732268, "lng": 31.3397646, "types": ["lodging", "point_of_interest", "establishment"], "place_id": "ChIJZ7ZHBKs_WBQRJD3Ntp2Q_ww"}, {"name": "EGENT Center (Heliopolis Branch)", "formatted_address": "24 el Ahram street, Al Matar, El Nozha, Cairo Governorate, Egypt", "lat": 30.112315, "lng": 31.3438507, "types": ["health", "point_of_interest", "establishment"], "place_id": "ChIJA9dUAxwVWBQRn6gBuXiy7yA"}, {"name": "St. Mark Coptic Orthodox Church Cleopatra", "formatted_address": "35 كيلوباترا، الماظة، قسم مصر الجديدة،، Cairo Governorate, Egypt", "lat": 30.0924011, "lng": 31.3296246, "types": ["church", "place_of_worship", "point_of_interest", "establishment"], "place_id": "ChIJH3kNmooVWBQRfL4z5mf-KXU"}, {"name": "go fianance", "formatted_address": "Al Matar, El Nozha, Cairo Governorate, Egypt", "lat": 30.112315, "lng": 31.3438507, "types": ["point_of_interest", "establishment"], "place_id": "ChIJp4eMKKYVWBQRkImXhuDazGc"}, {"name": "mario", "formatted_address": "Al Matar, El Nozha, Cairo Governorate 11033, Egypt", "lat": 30.112315, "lng": 31.3438507, "types": ["local_government_office", "point_of_interest", "establishment"], "place_id": "ChIJ0_2aR5EVWBQRmJBWskYFzCI"}, {"name": "The Egyptian Red Crescent Society", "formatted_address": "Abd Al Razek Al Sanhouri, Al Manteqah as Sadesah, Nasr City, Cairo Governorate, Egypt", "lat": 30.0636105, "lng": 31.3464779, "types": ["point_of_interest", "establishment"], "place_id": "ChIJVYdupnM-WBQRGgxMoIS0nNs"}, {"name": "ورثة احمد حافظ", "formatted_address": "شارع, Cairo Governorate, Egypt", "lat": 30.112315, "lng": 31.3438507, "types": ["point_of_interest", "establishment"], "place_id": "ChIJZ5YXq9wVWBQR8n_hUliQaSQ"}, {"name": "princess toys", "formatted_address": "Al Matar, El Nozha, Cairo Governorate, Egypt", "lat": 30.112315, "lng": 31.3438507, "types": ["point_of_interest", "store", "establishment"], "place_id": "ChIJqSpPHO8VWBQRezuQybllP-8"}, {"name": "ممشى أهل مصر", "formatted_address": "National Bank of Egypt, Boulaq Num.5, Bulaq, Cairo Governorate, Egypt", "lat": 30.0624393, "lng": 31.2270287, "types": ["park", "point_of_interest", "establishment"], "place_id": "ChIJTdMv2y5BWBQR6n78FsYkaLw"}, {"name": "parrot crafts", "formatted_address": "19 mohamed elshaibani street, Al Matar, El Nozha, Cairo Governorate, Egypt", "lat": 30.112315, "lng": 31.3438507, "types": ["point_of_interest", "establishment"], "place_id": "ChIJpWN11U4VWBQRdMRql2T4eK4"}, {"name": "محمد سعد", "formatted_address": "Al Matar, El Nozha, Cairo Governorate 11757, Egypt", "lat": 30.112315, "lng": 31.3438507, "types": ["furniture_store", "home_goods_store", "point_of_interest", "store", "establishment"], "place_id": "ChIJi0ahxJQVWBQRvGgOE2t1p2c"}, {"name": "Citystars Heliopolis", "formatted_address": "Citystars, Cairo Governorate 11771, Egypt", "lat": 30.0728734, "lng": 31.3458082, "types": ["shopping_mall", "point_of_interest", "establishment"], "place_id": "ChIJo0ecE_gVWBQRGGrouhZFdME"}, {"name": "سيتى كريب", "formatted_address": "علي،قسم النزهه ، أحمد محمود، Egypt", "lat": 30.112315, "lng": 31.3438507, "types": ["restaurant", "food", "point_of_interest", "store", "establishment"], "place_id": "ChIJFw-y-tkVWBQRDGCNSqSvMdo"}, {"name": "Porto Heliopolis", "formatted_address": "Almazah, Heliopolis, Cairo Governorate, Egypt", "lat": 30.0827031, "lng": 31.348709, "types": ["lodging", "point_of_interest", "establishment"], "place_id": "ChIJR5FCXgE-WBQR471eyuZuvGw"}, {"name": "Move Your Asana", "formatted_address": "Al Matar, El Nozha, Cairo Governorate, Egypt", "lat": 30.112315, "lng": 31.3438507, "types": ["gym", "health", "point_of_interest", "establishment"], "place_id": "ChIJyy1ze9IVWBQR6EITHhHFbTU"}, {"name": "egypt trade", "formatted_address": "Al Matar, El Nozha, Cairo Governorate, Egypt", "lat": 30.112315, "lng": 31.3438507, "types": ["point_of_interest", "establishment"], "place_id": "ChIJ3Q0z96wVWBQRy5ya7vDjai4"}, {"name": "كمبوند سكاي كابيتال", "formatted_address": "محافظة القاهرة‬،4 ش صلاح الدين من العروبه - مصر الجديده، Cairo Governorate 11736, Egypt", "lat": 30.112315, "lng": 31.3438507, "types": ["real_estate_agency", "lodging", "point_of_interest", "establishment"], "place_id": "ChIJxeUN-f6NVxQR4gOpLWmma2E"}, {"name": "مصر الجديدة", "formatted_address": "المطار، قسم النزهة،، Cairo Governorate, Egypt", "lat": 30.111333, "lng": 31.3443623, "types": ["point_of_interest", "store", "establishment"], "place_id": "ChIJJ9PrwbkVWBQRv9pWnoGZE6o"}, {"name": "الهلال و النجمه الذهبيه", "formatted_address": "14 Hasan Mousa El-Akad, Almazah, Heliopolis, Cairo Governorate, Egypt", "lat": 30.0866339, "lng": 31.3389509, "types": ["point_of_interest", "establishment"], "place_id": "ChIJAQDcTBw-WBQRYWeNya2eEzE"}, {"name": "TOLIP El Galaa - Heliopolis", "formatted_address": "El Orouba St, Sheraton Al Matar, El Nozha, Cairo Governorate, Egypt", "lat": 30.0985969, "lng": 31.3490226, "types": ["lodging", "point_of_interest", "establishment"], "place_id": "ChIJvyeGu-QVWBQRkPqc2rg6IsE"}, {"name": "Gonline for Trading", "formatted_address": "8 Sayed Afifi, Al Matar, El Nozha, Cairo Governorate, Egypt", "lat": 30.112315, "lng": 31.3438507, "types": ["point_of_interest", "establishment"], "place_id": "ChIJD41-uccVWBQR6NYWzQjgGzY"}, {"name": "مريم عتمان", "formatted_address": "مصر الجديدة، المطار، قسم النزهة،، Cairo Governorate, Egypt", "lat": 30.112315, "lng": 31.3438507, "types": ["point_of_interest", "establishment"], "place_id": "ChIJgxrFUogVWBQRS1UPh4qIBp0"}, {"name": "علي أبوهيف", "formatted_address": "مصر الجديدة الكوربة ش3 البوستة, Heliopolis, Cairo Governorate 11757, Egypt", "lat": 30.112315, "lng": 31.3438507, "types": ["point_of_interest", "establishment"], "place_id": "ChIJ26OLZNcVWBQRr73tM3AyTTM"}, {"name": "الجيزة", "formatted_address": "Al Matar, El Nozha, Cairo Governorate, Egypt", "lat": 30.112315, "lng": 31.3438507, "types": ["restaurant", "food", "point_of_interest", "establishment"], "place_id": "ChIJgZe0hhsVWBQRb1sBrfjhhC0"}, {"name": "عصايروفاكه العالات الساعه", "formatted_address": "مصر الجديدة، المطار، قسم النزهة،، Cairo Governorate, Egypt", "lat": 30.112315, "lng": 31.3438507, "types": ["restaurant", "food", "point_of_interest", "establishment"], "place_id": "ChIJLQywCxQVWBQRHOOrmbgTJ9I"}, {"name": "Post Office - El Horreya Heliopolis", "formatted_address": "Intersection Of Salah Salem rd، El-Nozha, Heliopolis, Cairo Governorate 11736, Egypt", "lat": 30.0961592, "lng": 31.3428047, "types": ["post_office", "finance", "point_of_interest", "establishment"], "place_id": "ChIJbYuIf_AVWBQRLjDEKpIcTg0"}, {"name": "Media Rack", "formatted_address": "15 Abdel Azim Awadallah St.، Al Matar, Heliopolis, Cairo Governorate, Egypt", "lat": 30.112068, "lng": 31.342883, "types": ["point_of_interest", "establishment"], "place_id": "ChIJFbMI09wVWBQRc68dm8ldfsc"}]