[{"name": "Our Lady of Heliopolis Co-Cathedral", "formatted_address": "Nazih Khalifa crossroad، Al Ahram, Heliopolis, Cairo Governorate, Egypt", "lat": 30.0935707, "lng": 31.3251828, "types": ["church", "place_of_worship", "point_of_interest", "establishment"], "place_id": "ChIJJdgh-okVWBQR5TqTmKuQ0IM"}, {"name": "I Love Heliopolis", "formatted_address": "المنتزه، قسم مصر الجديدة،، Cairo Governorate, Egypt", "lat": 30.09733019999999, "lng": 31.3210232, "types": ["park", "point_of_interest", "establishment"], "place_id": "ChIJ8-6icu0VWBQRg9ZyeWnPQow"}, {"name": "Ittihadia Palace", "formatted_address": "Al Nadi، El-Montaza, Heliopolis, Cairo Governorate, Egypt", "lat": 30.0888643, "lng": 31.3193929, "types": ["tourist_attraction", "premise", "point_of_interest", "establishment"], "place_id": "ChIJuftqUS8-WBQRtM7fDk0QcPk"}, {"name": "Hassan El Alfy", "formatted_address": "52 ش دمشق، El-Bostan, Heliopolis, Cairo Governorate, Egypt", "lat": 30.0952204, "lng": 31.3243831, "types": ["point_of_interest", "establishment"], "place_id": "ChIJj82SnIkVWBQR5tLk9D1d1tI"}, {"name": "The Child Museum", "formatted_address": "34 Abou Bakr El-Sedeek, El-Bostan, Heliopolis, Cairo Governorate, Egypt", "lat": 30.1022381, "lng": 31.33694599999999, "types": ["tourist_attraction", "museum", "point_of_interest", "establishment"], "place_id": "ChIJz-2ngvIVWBQR0usMZT-HkR8"}, {"name": "Alshafey", "formatted_address": "60 Damascus, El-Bostan, Heliopolis, Cairo Governorate, Egypt", "lat": 30.0958667, "lng": 31.3260749, "types": ["point_of_interest", "establishment"], "place_id": "ChIJYQqL0IsVWBQRahD57h3xnHQ"}, {"name": "Baron Empain Palace", "formatted_address": "El-Orouba, El-Montaza, Heliopolis, Cairo Governorate 11757, Egypt", "lat": 30.0866701, "lng": 31.3303332, "types": ["point_of_interest", "establishment"], "place_id": "ChIJ1_GM8iE-WBQRLNVi-RT7vDA"}, {"name": "مركز بيرلتز للغات", "formatted_address": "13 Damascus, Al Matar, El Nozha, Cairo Governorate, Egypt", "lat": 30.0943848, "lng": 31.3224026, "types": ["point_of_interest", "establishment"], "place_id": "ChIJ9fHVM4gVWBQRUzjfqPX_Qlo"}, {"name": "Bolbol For Tires & Batteries", "formatted_address": "33 ش دمشق، El-Bostan, Heliopolis, Cairo Governorate, Egypt", "lat": 30.0952204, "lng": 31.3243831, "types": ["point_of_interest", "establishment"], "place_id": "ChIJY3GSyYkVWBQREOF6xN7m4z0"}, {"name": "Meriam Atelier", "formatted_address": "1 ش دمشق، El-Bostan, Heliopolis, Cairo Governorate, Egypt", "lat": 30.0952204, "lng": 31.3243831, "types": ["point_of_interest", "establishment"], "place_id": "ChIJ-3ukmYkVWBQREPtyiQejIzI"}, {"name": "El Baraka", "formatted_address": "Al Montazah, Heliopolis, Cairo Governorate, Egypt", "lat": 30.092848, "lng": 31.3226419, "types": ["point_of_interest", "establishment"], "place_id": "ChIJh3Ufgyc-WBQRjfE20Qaw95Q"}, {"name": "The Egyptian Museum", "formatted_address": "شارع ماريت باشا، ميدان التحرير، Egypt", "lat": 30.0475781, "lng": 31.23361389999999, "types": ["museum", "tourist_attraction", "point_of_interest", "establishment"], "place_id": "ChIJw741VYhBWBQRD2Z6OiulDVI"}, {"name": "Moto", "formatted_address": "Al Montazah, Heliopolis, Cairo Governorate, Egypt", "lat": 30.0935561, "lng": 31.3224552, "types": ["point_of_interest", "establishment"], "place_id": "ChIJS6brgCc-WBQRVG-NA5_XUfU"}, {"name": "الالمانية 2 - GermanClub", "formatted_address": "25 شارع ابراهيم باشا من، Damascus, Heliopolis, Cairo Governorate, Egypt", "lat": 30.0939599, "lng": 31.3220943, "types": ["car_repair", "point_of_interest", "store", "establishment"], "place_id": "ChIJAdf1F8YVWBQR87aNYZzLcHI"}, {"name": "Heliopolis", "formatted_address": "Almazah, Heliopolis, Cairo Governorate, Egypt", "lat": 30.0942946, "lng": 31.3277534, "types": ["point_of_interest", "establishment"], "place_id": "ChIJdUEjUIoVWBQRaOFplBb9rJ8"}, {"name": "Ashraf Sameir", "formatted_address": "Al Montazah, Heliopolis, Cairo Governorate, Egypt", "lat": 30.094707, "lng": 31.3232251, "types": ["point_of_interest", "establishment"], "place_id": "ChIJmRnSyYkVWBQRzArDOcHVkNY"}, {"name": "موسي لكماليات السيارات", "formatted_address": "٣٢ شارع دمشق تقاطع شارع ابراهيم باشا مصر الجديدة، Ibrahim, Heliopolis, Cairo Governorate, Egypt", "lat": 30.094471, "lng": 31.3217836, "types": ["electronics_store", "car_repair", "point_of_interest", "store", "establishment"], "place_id": "ChIJiUCyJIgVWBQRma6Ps5mUQbE"}, {"name": "Heliopolis Evangelical Church", "formatted_address": "18 Cleopatra, Almazah, Heliopolis, Cairo Governorate, Egypt", "lat": 30.0913153, "lng": 31.3280276, "types": ["church", "place_of_worship", "point_of_interest", "establishment"], "place_id": "ChIJibHnjiA-WBQRs_geaF2cbjU"}, {"name": "El Kobtan", "formatted_address": "46 Nazih Khalifa, El-Montaza, Heliopolis, Cairo Governorate, Egypt", "lat": 30.0951267, "lng": 31.3231161, "types": ["point_of_interest", "establishment"], "place_id": "ChIJw1S1tokVWBQR7jfUBsqN5so"}, {"name": "أولاد حسين لقطع غيار السيارات (أودي، سكودا، فولكس ڤاجن، سيات) - (Audi, Volkswagen, Skoda, Seat) Hussein's sons Auto parts store", "formatted_address": "46 شارع دمشق, Al Gamea Sq., Heliopolis, Cairo Governorate, Egypt", "lat": 30.0950827, "lng": 31.3242102, "types": ["car_repair", "point_of_interest", "store", "establishment"], "place_id": "ChIJ7bpdzU8VWBQRhIYghAC6MZ4"}, {"name": "مقهي شارع دمشق الشعبيه", "formatted_address": "5 Dmshek, المنتزه، مصر الجديدة، محافظة القاهرة‬،، Egypt", "lat": 30.0927345, "lng": 31.3188353, "types": ["point_of_interest", "establishment"], "place_id": "ChIJp0qpev0_WBQRFWFSV2Y0eIc"}, {"name": "Cairo Tower", "formatted_address": "Zamalek, Cairo Governorate, Egypt", "lat": 30.045915, "lng": 31.2242898, "types": ["tourist_attraction", "premise", "museum", "point_of_interest", "establishment"], "place_id": "ChIJpVgdqJpAWBQR_tZY0ny_5mw"}, {"name": "مسجد حفيظة الألفى", "formatted_address": "El-Bostan, Heliopolis, Cairo Governorate, Egypt", "lat": 30.0946092, "lng": 31.3255197, "types": ["mosque", "place_of_worship", "point_of_interest", "establishment"], "place_id": "ChIJP_Y3J4oVWBQRZnJ8P7B5fGs"}, {"name": "Demeshk Center", "formatted_address": "27 ش Nazih Khalifa, El-Bostan, Heliopolis, Cairo Governorate, Egypt", "lat": 30.095183, "lng": 31.3237431, "types": ["car_repair", "point_of_interest", "store", "establishment"], "place_id": "ChIJ70OnVSc-WBQRNwtn0v_iOJk"}, {"name": "El Sheikh Aly", "formatted_address": "60 ش دمشق، El-Bostan, Heliopolis, Cairo Governorate, Egypt", "lat": 30.0953451, "lng": 31.3243841, "types": ["car_repair", "point_of_interest", "store", "establishment"], "place_id": "ChIJQXyuxYsVWBQRddY3CQ3P6bA"}, {"name": "Noor for renault", "formatted_address": "34,damascus street heliopolis, ٣٤ شارع، Damascus, Heliopolis, Cairo Governorate, Egypt", "lat": 30.0947767, "lng": 31.3232471, "types": ["point_of_interest", "establishment"], "place_id": "ChIJ606ysFsVWBQR-MSN3kBNdbM"}, {"name": "اولاد الحاج محمود السجان", "formatted_address": "امام بنزينة التعاون، ١٩شارع شريف من شارع، Damascus, Egypt", "lat": 30.09451349999999, "lng": 31.3229743, "types": ["car_repair", "point_of_interest", "store", "establishment"], "place_id": "ChIJJdKFAlAVWBQRhZdVZMbmB1c"}, {"name": "Abdeen Palace Museum", "formatted_address": "شارع جمعه عابدين،، El-Gomhoreya Square, Rahbet Abdin, Abdeen, Cairo Governorate, Egypt", "lat": 30.0422696, "lng": 31.248544, "types": ["tourist_attraction", "museum", "point_of_interest", "establishment"], "place_id": "ChIJF_ZR9bpAWBQR_WeDJloU-7o"}, {"name": "Heliopolis", "formatted_address": "48 Damascus, El-Bostan, Heliopolis, Cairo Governorate, Egypt", "lat": 30.0952839, "lng": 31.3242021, "types": ["post_office", "finance", "point_of_interest", "establishment"], "place_id": "ChIJpaRDmIkVWBQRAiND28_clNs"}, {"name": "الجندى قطع غيار كيا", "formatted_address": "24 دمشق، المنتزه، مصر الجديدة،، Cairo Governorate, Egypt", "lat": 30.0939581, "lng": 31.3207839, "types": ["car_repair", "point_of_interest", "store", "establishment"], "place_id": "ChIJQVvNYDM_WBQRUJ1khsIYmsc"}, {"name": "الشهابى", "formatted_address": "49 intersection of beirut st.، El-Bostan, Heliopolis, Cairo Governorate, Egypt", "lat": 30.0953724, "lng": 31.3256297, "types": ["car_repair", "point_of_interest", "store", "establishment"], "place_id": "ChIJYREQ1YsVWBQRbGbQ0k3H860"}, {"name": "العالمية لقطع غيار السيارات", "formatted_address": "60 Damascus, El-Bostan, Heliopolis, Cairo Governorate, Egypt", "lat": 30.095949, "lng": 31.32621899999999, "types": ["car_repair", "point_of_interest", "store", "establishment"], "place_id": "ChIJx54Z1XUVWBQRHC-UqsVcTTQ"}, {"name": "Hosny Showroom", "formatted_address": "52 Damascus, El-Bostan, Heliopolis, Cairo Governorate, Egypt", "lat": 30.0954467, "lng": 31.3247496, "types": ["car_repair", "point_of_interest", "store", "establishment"], "place_id": "ChIJzfyMgokVWBQR7jP6HSdBNEc"}, {"name": "Asham Nawar", "formatted_address": "28 Beirut, El-Bostan, Heliopolis, Cairo Governorate 11351, Egypt", "lat": 30.0955258, "lng": 31.3247198, "types": ["point_of_interest", "establishment"], "place_id": "ChIJ-1vWnIkVWBQR0LNduUK9mww"}, {"name": "المجموعة البافارية للسيارات", "formatted_address": "7 Damascus, El-Montaza, Heliopolis, Cairo Governorate, Egypt", "lat": 30.092958, "lng": 31.319379, "types": ["car_repair", "point_of_interest", "store", "establishment"], "place_id": "ChIJG6LM0VA_WBQRfENRLH06LOk"}, {"name": "Total", "formatted_address": "شارع دمشق - تقاطع شارع نزيه خليفة - مصر الجديدة, Cairo, Egypt", "lat": 30.0949152, "lng": 31.3240696, "types": ["gas_station", "point_of_interest", "establishment"], "place_id": "ChIJxVuYvYkVWBQRnoZdXVtRZhw"}, {"name": "مؤسسة عشم نوار لتكيف السيارات", "formatted_address": "52 Damascus, El-Bostan, Heliopolis, Cairo Governorate, Egypt", "lat": 30.0955258, "lng": 31.3247198, "types": ["car_repair", "point_of_interest", "establishment"], "place_id": "ChIJo-SiX5EVWBQRCS-xsc51ZvI"}, {"name": "المصرية لقطع غيار السيارات", "formatted_address": "29 Damascus, El-Montaza, Heliopolis, Cairo Governorate, Egypt", "lat": 30.094599, "lng": 31.322901, "types": ["car_repair", "point_of_interest", "store", "establishment"], "place_id": "ChIJe7wJnfEVWBQRU3cseemxZw0"}, {"name": "عشم نوار لقطع غيار السيارات", "formatted_address": "٥٢, Damascus, Al Matar, El Nozha, Cairo Governorate, Egypt", "lat": 30.0953226, "lng": 31.3247899, "types": ["point_of_interest", "establishment"], "place_id": "ChIJ3_IAABEVWBQRo_SA1TrULt0"}, {"name": "Hamdy Lada Real", "formatted_address": "62 Damascus, El-Bostan, Heliopolis, Cairo Governorate, Egypt", "lat": 30.09602779999999, "lng": 31.3265071, "types": ["car_repair", "point_of_interest", "store", "establishment"], "place_id": "ChIJhzo7xIsVWBQRlaUH4xdBz34"}, {"name": "BMW أيمن غرارة", "formatted_address": "شارع دمشق،, El-Montaza, Heliopolis, Cairo Governorate, Egypt", "lat": 30.0944894, "lng": 31.3226588, "types": ["car_repair", "point_of_interest", "store", "establishment"], "place_id": "ChIJzTuuNIgVWBQRKqzfezl5mik"}, {"name": "Mohamed Gaber & Brothers", "formatted_address": "55 Demascus St.، El-Bostan, Heliopolis, Cairo Governorate, Egypt", "lat": 30.095742, "lng": 31.326444, "types": ["car_repair", "point_of_interest", "store", "establishment"], "place_id": "ChIJqxK_NIgVWBQRviCdDWmZ9so"}, {"name": "Zaki Girguis Sons", "formatted_address": "60 Damascus, El-Bostan, Heliopolis, Cairo Governorate, Egypt", "lat": 30.0959835, "lng": 31.3260603, "types": ["car_repair", "point_of_interest", "store", "establishment"], "place_id": "ChIJQXyuxYsVWBQRF9g_N3JBE10"}, {"name": "أوسكار للتكييف", "formatted_address": "٤٩ شارع دمشق بحوار بنك عودة، Heliopolis, Cairo Governorate, Egypt", "lat": 30.0952237, "lng": 31.32587269999999, "types": ["point_of_interest", "establishment"], "place_id": "ChIJ3wbK62gVWBQRAd282TkDoaw"}, {"name": "Salah Al-Din Al-Ayoubi Castle, Salah Salem Street, Cairo", "formatted_address": "Salah Salem St, Al Abageyah, El-Khalifa, Cairo Governorate, Egypt", "lat": 30.0290436, "lng": 31.2594688, "types": ["point_of_interest", "establishment"], "place_id": "ChIJY-3CkKxAWBQRby736eSW2y8"}, {"name": "Subaru Heliopolis", "formatted_address": "19 Ibrahim, El-Montaza, Heliopolis, Cairo Governorate, Egypt", "lat": 30.0934761, "lng": 31.3220821, "types": ["car_repair", "point_of_interest", "store", "establishment"], "place_id": "ChIJj5YYhyc-WBQRUpMpH8g0Pcw"}, {"name": "دمشق مصر الجديده", "formatted_address": "19 إبراهيم، المنتزه، قسم مصر الجديدة،، Cairo Governorate, Egypt", "lat": 30.0935155, "lng": 31.32216949999999, "types": ["shopping_mall", "point_of_interest", "establishment"], "place_id": "ChIJ15uoadU_WBQRIz8bbwNtyhs"}, {"name": "Junior Roxy", "formatted_address": "روكسي مصر، 1 شارع دمشق متفرغ من، Ibrahim Al Lakani, Egypt", "lat": 30.092733, "lng": 31.3185995, "types": ["point_of_interest", "clothing_store", "store", "establishment"], "place_id": "ChIJq6pOYSg-WBQRG45tnf4vAOI"}, {"name": "Berlitz Language Center-Heliopolis", "formatted_address": "Luxor, El-Bostan, Heliopolis, Cairo Governorate, Egypt", "lat": 30.0963737, "lng": 31.3262156, "types": ["school", "point_of_interest", "establishment"], "place_id": "ChIJa029i_0VWBQRtpFxO_PbZRk"}, {"name": "المدينة", "formatted_address": "Damascus, El-Montaza, Heliopolis, Cairo Governorate, Egypt", "lat": 30.0944935, "lng": 31.3229331, "types": ["car_repair", "point_of_interest", "store", "establishment"], "place_id": "ChIJEysby4kVWBQRGqSm0a9G4lg"}, {"name": "مكة لقطع غيار السيارات", "formatted_address": "21 Damascus, El-Montaza, Heliopolis, Cairo Governorate, Egypt", "lat": 30.094111, "lng": 31.321471, "types": ["car_repair", "point_of_interest", "store", "establishment"], "place_id": "ChIJhUIE9uYVWBQRCpT-3hJXWBw"}, {"name": "مقهي شارع دمشق الشعبيه", "formatted_address": "5 Dmshek, المنتزه، مصر الجديدة، محافظة القاهرة‬،، قةص، Egypt", "lat": 30.0926599, "lng": 31.321279, "types": ["point_of_interest", "establishment"], "place_id": "ChIJx_04ztM_WBQRrB8_F3PKbHs"}, {"name": "Option Dynamics", "formatted_address": "19 ش شريف، El-Montaza, Heliopolis, Cairo Governorate, Egypt", "lat": 30.0944969, "lng": 31.3229304, "types": ["point_of_interest", "establishment"], "place_id": "ChIJ_7-VzIkVWBQR1hDH8Rw_eQU"}, {"name": "Stock for car accessories", "formatted_address": "22 Damascus, El-Montaza, Heliopolis, Cairo Governorate, Egypt", "lat": 30.0939215, "lng": 31.3203106, "types": ["point_of_interest", "store", "establishment"], "place_id": "ChIJU7A2G0s_WBQRIbtJEODiVJE"}, {"name": "السجان لقطع غيار السيارات", "formatted_address": "33 Damascus, El-Montaza, Heliopolis, Cairo Governorate, Egypt", "lat": 30.094583, "lng": 31.323068, "types": ["car_repair", "point_of_interest", "store", "establishment"], "place_id": "ChIJa45HwZsVWBQRWzuAOue9w0k"}, {"name": "Sami Fakhri", "formatted_address": "المنتزه، El-Montaza, Heliopolis, Cairo Governorate, Egypt", "lat": 30.0944129, "lng": 31.3223343, "types": ["car_repair", "point_of_interest", "store", "establishment"], "place_id": "ChIJbUiLMYgVWBQRbdakZ8tfPIU"}, {"name": "Al-Azhar Mosque", "formatted_address": "El-Darb El-Ahmar, Cairo Governorate, Egypt", "lat": 30.045688, "lng": 31.2626851, "types": ["mosque", "tourist_attraction", "place_of_worship", "point_of_interest", "establishment"], "place_id": "ChIJ9SH986JAWBQR6FIeS8dSZ2c"}, {"name": "Ghabbour Auto", "formatted_address": "54 ش دمشق، تقاطع بيروت، Heliopolis, Cairo Governorate, Egypt", "lat": 30.0954868, "lng": 31.3253995, "types": ["car_repair", "point_of_interest", "store", "establishment"], "place_id": "ChIJow8vf4kVWBQR2wWYlnprZbs"}, {"name": "Teachers Syndicate Heliopolis Branch", "formatted_address": "1 شارع غرناطة ، شارع ابراهيم اللقانى ، روكسى، Heliopolis, Cairo Governorate, Egypt", "lat": 30.0925119, "lng": 31.3177426, "types": ["point_of_interest", "establishment"], "place_id": "ChIJlS5HVig-WBQRk-sRVLziuKs"}, {"name": "El Ahd El Gadid", "formatted_address": "68 Damascus, El-Bostan, Heliopolis, Cairo Governorate, Egypt", "lat": 30.0962109, "lng": 31.3270433, "types": ["restaurant", "food", "point_of_interest", "establishment"], "place_id": "ChIJ4eCdv4sVWBQRCU5hRUT7vf8"}]