[{"name": "Our Lady of Heliopolis Co-Cathedral", "formatted_address": "Nazih Khalifa crossroad، Al Ahram, Heliopolis, Cairo Governorate, Egypt", "lat": 31.3251828, "types": ["church", "place_of_worship", "point_of_interest", "establishment"], "place_id": "ChIJJdgh-okVWBQR5TqTmKuQ0IM"}, {"name": "Alex", "formatted_address": "Al Bustan, Heliopolis, Cairo Governorate, Egypt", "lat": 31.3301807, "types": ["point_of_interest", "establishment"], "place_id": "ChIJEaRno4wVWBQRnCAsqMbPCFk"}, {"name": "Ittihadia Palace", "formatted_address": "Al Nadi، El-Montaza, Heliopolis, Cairo Governorate, Egypt", "lat": 31.3193929, "types": ["tourist_attraction", "premise", "point_of_interest", "establishment"], "place_id": "ChIJuftqUS8-WBQRtM7fDk0QcPk"}, {"name": "Bon Voyage", "formatted_address": "16 Adly, Al Fawalah, Abdeen, Cairo Governorate, Egypt", "lat": 31.244439, "types": ["tourist_attraction", "point_of_interest", "establishment"], "place_id": "ChIJJZ3TEL5AWBQRc-PhG_sO-S0"}, {"name": "ABA Sofia Abd El Monim", "formatted_address": "Al Bustan, Heliopolis, Cairo Governorate, Egypt", "lat": 31.33055209999999, "types": ["point_of_interest", "establishment"], "place_id": "ChIJ79MApowVWBQR7P8wPNBWUgw"}, {"name": "Baron Empain Palace", "formatted_address": "El-Orouba, El-Montaza, Heliopolis, Cairo Governorate 11757, Egypt", "lat": 31.3303332, "types": ["point_of_interest", "establishment"], "place_id": "ChIJ1_GM8iE-WBQRLNVi-RT7vDA"}, {"name": "Kids land", "formatted_address": "5-8, Damanhour, El-Bostan, Heliopolis, Cairo Governorate, Egypt", "lat": 31.330657, "types": ["point_of_interest", "establishment"], "place_id": "ChIJqbAHrDcVWBQRKTdgMAIEdro"}, {"name": "Eltgaria", "formatted_address": "Al Bustan, Heliopolis, Cairo Governorate, Egypt", "lat": 31.3308151, "types": ["point_of_interest", "establishment"], "place_id": "ChIJcXG7qYwVWBQR0By0fRx4BoY"}, {"name": "Cynna", "formatted_address": "Al Bustan, Heliopolis, Cairo Governorate, Egypt", "lat": 31.330685, "types": ["point_of_interest", "establishment"], "place_id": "ChIJm7CnqYwVWBQR-f-R0mvjlYE"}, {"name": "Loweta", "formatted_address": "16 Damanhour, El-Bostan, Heliopolis, Cairo Governorate, Egypt", "lat": 31.3304393, "types": ["point_of_interest", "establishment"], "place_id": "ChIJp7cJpYwVWBQR96AbVame3mU"}, {"name": "Ads", "formatted_address": "Al Bustan, Heliopolis, Cairo Governorate, Egypt", "lat": 31.3289406, "types": ["point_of_interest", "establishment"], "place_id": "ChIJlXh7eosVWBQR_iufGLiWmEk"}, {"name": "Hamam", "formatted_address": "Al Bustan, Heliopolis, Cairo Governorate, Egypt", "lat": 31.3296649, "types": ["point_of_interest", "establishment"], "place_id": "ChIJXbpVnowVWBQRCqhxCens5Vc"}, {"name": "Supply Bureau - Heliopolis", "formatted_address": "2 Mansoura, El-Bostan, Heliopolis, Cairo Governorate, Egypt", "lat": 31.3292775, "types": ["point_of_interest", "establishment"], "place_id": "ChIJ-7jLbYsVWBQRFdYCXarehEY"}, {"name": "Sinai Air Cargo", "formatted_address": "8 ش القناطر، El-Bostan, Heliopolis, Cairo Governorate, Egypt", "lat": 31.3308566, "types": ["point_of_interest", "establishment"], "place_id": "ChIJ-0NyqYwVWBQR-vvW-Cw0ejY"}, {"name": "Shafiq Silver", "formatted_address": "19 alexandria st.، El-Bostan, Heliopolis, Cairo Governorate, Egypt", "lat": 31.329465, "types": ["point_of_interest", "establishment"], "place_id": "ChIJi3EjYosVWBQRvXSaWI5htCw"}, {"name": "الناسخ السريع", "formatted_address": "٧ شارع الدلتا - متفرع من شارع دمنهور, Al Gamea Sq., Heliopolis, Cairo Governorate 11757, Egypt", "lat": 31.33044289999999, "types": ["point_of_interest", "store", "establishment"], "place_id": "ChIJ11WD8VgVWBQRV7-bO1yAIe4"}, {"name": "St. Mark Coptic Orthodox Church Cleopatra", "formatted_address": "35 كيلوباترا، الماظة، قسم مصر الجديدة،، Cairo Governorate, Egypt", "lat": 31.3296246, "types": ["church", "place_of_worship", "point_of_interest", "establishment"], "place_id": "ChIJH3kNmooVWBQRfL4z5mf-KXU"}, {"name": "HELIOPOLIS GROUP - Narcotics Anonymous Fellowshiop Egypt I مجموعة هليوبليس- زمالة المدمنين المجهولين مصر", "formatted_address": "workspace, ٤٤ شارع صلاح الدين، مصر الجديدة، الدور التانى، 404, Cairo Governorate 11737, Egypt", "lat": 31.3300818, "types": ["point_of_interest", "establishment"], "place_id": "ChIJcX0lhI4VWBQR9LM3DWhj-Os"}, {"name": "Balcon Heliopolis", "formatted_address": "26 Sohag, El-Bostan, Heliopolis, Cairo Governorate, Egypt", "lat": 31.3324821, "types": ["point_of_interest", "establishment"], "place_id": "ChIJVQnP3PIVWBQR-BFcoaXdkc0"}, {"name": "El Mabara Association For Development", "formatted_address": "10 Damanhour, عرايشية مصر، Ismailia, Cairo Governorate, Egypt", "lat": 31.3304393, "types": ["point_of_interest", "establishment"], "place_id": "ChIJq6o6pYwVWBQRTYAsjVWlhQ8"}, {"name": "Klkz", "formatted_address": "8 Al Delta, El-Bostan, Heliopolis, Cairo Governorate, Egypt", "lat": 31.329994, "types": ["point_of_interest", "establishment"], "place_id": "ChIJnavdpYwVWBQRVr9j-VblIqg"}, {"name": "El Rahman", "formatted_address": "Al Bustan, Heliopolis, Cairo Governorate, Egypt", "lat": 31.3303396, "types": ["point_of_interest", "establishment"], "place_id": "ChIJIefbpowVWBQRrEQrzGtnT3Q"}, {"name": "Capital Hospital Heliopolis", "formatted_address": "ميدان صلاح الدين، El-Bostan, Heliopolis, Cairo Governorate, Egypt", "lat": 31.3309065, "types": ["hospital", "health", "point_of_interest", "establishment"], "place_id": "ChIJ-UxPTIsVWBQRtB4WWX5rP_Y"}, {"name": "Porto Heliopolis", "formatted_address": "Almazah, Heliopolis, Cairo Governorate, Egypt", "lat": 31.348709, "types": ["lodging", "point_of_interest", "establishment"], "place_id": "ChIJR5FCXgE-WBQR471eyuZuvGw"}, {"name": "Salah Al Din Square (Heliopolis)", "formatted_address": "Almazah, Heliopolis, Cairo Governorate, Egypt", "lat": 31.330282, "types": ["transit_station", "point_of_interest", "establishment"], "place_id": "ChIJqQFEOYsVWBQRIpaMq83UaXs"}, {"name": "مدرسه التحرير الابتدائيه", "formatted_address": "8 Al Delta, El-Bostan, Heliopolis, Cairo Governorate, Egypt", "lat": 31.329994, "types": ["primary_school", "school", "point_of_interest", "establishment"], "place_id": "ChIJE7lgX4sVWBQR0qlEs0n13VY"}, {"name": "أولاد خضر للعطارة", "formatted_address": "7 Al Delta, El-Bostan, Heliopolis, Cairo Governorate, Egypt", "lat": 31.33052, "types": ["point_of_interest", "establishment"], "place_id": "ChIJzUbMTpQVWBQRvCEEJthAd4E"}, {"name": "Post Office - West Heliopolis", "formatted_address": "El-Nozha, El Nozha, Cairo Governorate, Egypt", "lat": 31.33018539999999, "types": ["post_office", "finance", "point_of_interest", "establishment"], "place_id": "ChIJ-1tRxpIVWBQR8pyCMmqAgXM"}, {"name": "Korba Posta Office", "formatted_address": "البوسطة، المنتزه، مصر الجديدة،، Cairo Governorate, Egypt", "lat": 31.3216349, "types": ["post_office", "finance", "point_of_interest", "establishment"], "place_id": "ChIJX8nHbSY-WBQRDrUhlxkHb-M"}, {"name": "El Asema Hospital Heliopolis", "formatted_address": "12 Shebeen, El-Bostan, Heliopolis, Cairo Governorate, Egypt", "lat": 31.3307213, "types": ["hospital", "health", "point_of_interest", "establishment"], "place_id": "ChIJ58RJTIsVWBQRT0Oog1-ibwA"}, {"name": "Teta Aida", "formatted_address": "6 Al Delta, El-Bostan, Heliopolis, Cairo Governorate, Egypt", "lat": 31.3300795, "types": ["lodging", "point_of_interest", "establishment"], "place_id": "ChIJUfIfnPgVWBQRaCSMfMQn-XA"}, {"name": "Villa El 7aga", "formatted_address": "13 Al Delta, El-Bostan, Heliopolis, Cairo Governorate, Egypt", "lat": 31.3305492, "types": ["point_of_interest", "establishment"], "place_id": "ChIJRfIpr3AVWBQRpVwGxn95iR0"}, {"name": "Labor Bureau - Heliopolis", "formatted_address": "3 Haroun El-Rashid, El-Bostan, Heliopolis, Cairo Governorate, Egypt", "lat": 31.32925089999999, "types": ["point_of_interest", "establishment"], "place_id": "ChIJMbYPyfIVWBQRwRHg80Z7Y64"}, {"name": "بصريات سان مارك", "formatted_address": "9 Al Delta, El-Bostan, Heliopolis, Cairo Governorate, Egypt", "lat": 31.3305091, "types": ["health", "point_of_interest", "store", "establishment"], "place_id": "ChIJH6fACJQVWBQR0NHPvSdGWGg"}, {"name": "ميدان الجامع", "formatted_address": "Al Gamea Sq., El-Bostan, Heliopolis, Cairo Governorate, Egypt", "lat": 31.3284471, "types": ["point_of_interest", "establishment"], "place_id": "ChIJm2mEeIsVWBQRCjnDXHwgOjs"}, {"name": "Aswan", "formatted_address": "8 Al Delta, El-Bostan, Heliopolis, Cairo Governorate, Egypt", "lat": 31.3300595, "types": ["supermarket", "grocery_or_supermarket", "food", "point_of_interest", "store", "establishment"], "place_id": "ChIJYXsSo4wVWBQR1ltdm4JCRYk"}, {"name": "La Garderie", "formatted_address": "5-8, Damanhour, El-Bostan, Heliopolis, Cairo Governorate, Egypt", "lat": 31.330657, "types": ["point_of_interest", "establishment"], "place_id": "ChIJhz-1qIwVWBQR0Pq7qvHkirk"}, {"name": "مالتى كير", "formatted_address": "10 ش الدلتا، El-Bostan, Heliopolis, Cairo Governorate, Egypt", "lat": 31.330388, "types": ["health", "point_of_interest", "establishment"], "place_id": "ChIJdU3PoLEVWBQRgCwe3sT5eVQ"}, {"name": "Baron Hotel Heliopolis", "formatted_address": "14 Al Baroon, El-Montaza, Heliopolis, Cairo Governorate, Egypt", "lat": 31.3314609, "types": ["lodging", "point_of_interest", "establishment"], "place_id": "ChIJUbVOACI-WBQRWsi5B7gYfxs"}, {"name": "St Michael's Church الكنيسة الأسقفية بالكوربة", "formatted_address": "Baghdad St, El-Montaza, Heliopolis, Cairo Governorate, Egypt", "lat": 31.3229984, "types": ["church", "place_of_worship", "point_of_interest", "establishment"], "place_id": "ChIJfaLreiY-WBQRlouIfsEe-o8"}, {"name": "Heliopolis Towers Hotel", "formatted_address": "El Shaheed Sayed Zakaria, Sheraton Al Matar, El Nozha, Cairo Governorate 11736, Egypt", "lat": 31.3661798, "types": ["lodging", "point_of_interest", "establishment"], "place_id": "ChIJZ9p3820WWBQRmZh2M_MSzOQ"}, {"name": "Greek Cultural Center", "formatted_address": "1 ميدان صلاح الدين، El-Bostan, Heliopolis, Cairo Governorate, Egypt", "lat": 31.3316764, "types": ["point_of_interest", "establishment"], "place_id": "ChIJqUvOiKtAWBQRTyx5-5Qk4_4"}, {"name": "Maadi Island", "formatted_address": "Dar Al Salam, Giza Governorate, Egypt", "lat": 31.239237, "types": ["restaurant", "tourist_attraction", "park", "food", "point_of_interest", "establishment"], "place_id": "ChIJwY7d5MFHWBQRl1nMXlW_tUY"}, {"name": "Radisson Blu Hotel, Cairo Heliopolis", "formatted_address": "Abdel Hamid Badawi St Heliopolis, Cairo Governorate 11787, Egypt", "lat": 31.3753121, "types": ["lodging", "point_of_interest", "establishment"], "place_id": "ChIJQZJ8fWUWWBQRAUPO9I6SxPg"}, {"name": "Heliopolis Sporting Club (HSC)", "formatted_address": "17 El-Sayed El-Marghany, Mansheya El-Bakry, Heliopolis, Cairo Governorate, Egypt", "lat": 31.3164398, "types": ["point_of_interest", "establishment"], "place_id": "ChIJB9zy8B4-WBQRz_zRpJte8sA"}, {"name": "Golden Park Hotel", "formatted_address": "شارع الحجاز ، مصر الجديده، 221 شارع الحجاز ، هيليوبوليس ،، El Nozha, Cairo Governorate, Egypt", "lat": 31.3525102, "types": ["lodging", "point_of_interest", "establishment"], "place_id": "ChIJsQQdRNgVWBQRss6fVxNFk_8"}, {"name": "TOLIP El Galaa - Heliopolis", "formatted_address": "El Orouba St, Sheraton Al Matar, El Nozha, Cairo Governorate, Egypt", "lat": 31.3490226, "types": ["lodging", "point_of_interest", "establishment"], "place_id": "ChIJvyeGu-QVWBQRkPqc2rg6IsE"}, {"name": "Mum&Me Montessori International Academy", "formatted_address": "9 Damanhour, El-Bostan, Heliopolis, Cairo Governorate, Egypt", "lat": 31.3306002, "types": ["school", "point_of_interest", "establishment"], "place_id": "ChIJ_-omIicVWBQRHcYPCY-7HkM"}, {"name": "Barbie Kid Nursery", "formatted_address": "5 ش الدلتا، El-Bostan, Heliopolis, Cairo Governorate, Egypt", "lat": 31.3304275, "types": ["school", "point_of_interest", "establishment"], "place_id": "ChIJjSq2pYwVWBQRUHF2s3mf3aA"}, {"name": "Mamdouh Ramadan", "formatted_address": "16 Damanhour, El-Bostan, Heliopolis, Cairo Governorate, Egypt", "lat": 31.3304393, "types": ["point_of_interest", "establishment"], "place_id": "ChIJfSfhu4wVWBQRFepP6AOvKkY"}, {"name": "مكتب بريد هليوبوليس", "formatted_address": "Al Bostah, El-Montaza, Heliopolis, Cairo Governorate, Egypt", "lat": 31.32145289999999, "types": ["post_office", "finance", "point_of_interest", "establishment"], "place_id": "ChIJUxT4bCY-WBQReH-iJrJAbDM"}, {"name": "Notre Dame Des Apotres School Heliopolis", "formatted_address": "Al Matar, El Nozha, Cairo Governorate, Egypt", "lat": 31.3327399, "types": ["point_of_interest", "establishment"], "place_id": "ChIJ3cu1H_MVWBQR3Jd2ZO2_XgE"}, {"name": "Citystars Heliopolis", "formatted_address": "Citystars, Cairo Governorate 11771, Egypt", "lat": 31.3458082, "types": ["shopping_mall", "point_of_interest", "establishment"], "place_id": "ChIJo0ecE_gVWBQRGGrouhZFdME"}, {"name": "Il Pennello Ceramic Café & Restaurant", "formatted_address": "Omar Ibn El-Khattab, El-Bostan, Heliopolis, Cairo Governorate, Egypt", "lat": 31.33329, "types": ["cafe", "restaurant", "food", "point_of_interest", "establishment"], "place_id": "ChIJA9aGkfIVWBQR6C-ilXdzmvM"}, {"name": "(Heliopolis Public library)", "formatted_address": "Beirut, Almazah, Heliopolis, Cairo Governorate, Egypt", "lat": 31.3328428, "types": ["library", "point_of_interest", "establishment"], "place_id": "ChIJd3h9YvUVWBQR2Oi9DLQTI8E"}, {"name": "مطبعة العزازي", "formatted_address": "27 Damanhour, El-Bostan, Heliopolis, Cairo Governorate, Egypt", "lat": 31.330078, "types": ["point_of_interest", "establishment"], "place_id": "ChIJw838IeQVWBQROiMzqEnwuMc"}, {"name": "Eltfl", "formatted_address": "Al Bustan, Heliopolis, Cairo Governorate, Egypt", "lat": 31.33022589999999, "types": ["school", "point_of_interest", "establishment"], "place_id": "ChIJiVnKoIwVWBQRY8O_CIG3a4k"}, {"name": "Negmet Heliopolis", "formatted_address": "5 ش الرملة متفرع من اسماعيل رمزى, Al Gamea Sq., Heliopolis, Cairo Governorate, Egypt", "lat": 31.3288131, "types": ["supermarket", "grocery_or_supermarket", "food", "point_of_interest", "store", "establishment"], "place_id": "ChIJ4fyiDosVWBQR_9nQVlRtOVQ"}, {"name": "العزازي للطباعة", "formatted_address": "20 Damanhour, El-Bostan, Heliopolis, Cairo Governorate, Egypt", "lat": 31.3294301, "types": ["point_of_interest", "establishment"], "place_id": "ChIJN7vok4wVWBQRWDTYod0D160"}, {"name": "Al Rahma Hospital", "formatted_address": "37 Alexandria، Al Gamea Sq., Egypt", "lat": 31.3311896, "types": ["hospital", "health", "point_of_interest", "establishment"], "place_id": "ChIJPRSXzYwVWBQR7m15R66aKcA"}]