[{"name": "Pizza Hut Sayed AbdElwahed", "formatted_address": "روكسى, شارع Dr Sayed Abd El-Wahid, El-Montaza, Heliopolis, Cairo Governorate, Egypt", "lat": 30.0921894, "lng": 31.3199782, "types": ["restaurant", "food", "point_of_interest", "establishment"], "place_id": "ChIJ3_Jg9XU_WBQRDcpCaEHpK4w"}, {"name": "AG STORE", "formatted_address": "٥ شارع دكتور, Dr Sayed Abd El-Wahid, الكوربه, Heliopolis, Cairo Governorate, Egypt", "lat": 30.0918012, "lng": 31.3203337, "types": ["shoe_store", "point_of_interest", "store", "establishment"], "place_id": "ChIJ3aMPTLE_WBQRvlZSrh6TUn0"}, {"name": "كلارك مصر الجديده", "formatted_address": "16 Dr Sayed Abd El-Wahid, El-Montaza, Heliopolis, Cairo Governorate, Egypt", "lat": 30.0913319, "lng": 31.31945959999999, "types": ["shoe_store", "point_of_interest", "store", "establishment"], "place_id": "ChIJMXmGhCg-WBQRBKjYMpajMzY"}, {"name": "CTC Academy", "formatted_address": "45 متفرع من ش الاهرام - ميدان روكسى، Al Matar, El Nozha, Cairo Governorate, Egypt", "lat": 30.092005, "lng": 31.321072, "types": ["point_of_interest", "establishment"], "place_id": "ChIJC5-OyCc-WBQRcCt7n1Af7CI"}, {"name": "أشرف مكي المحامي بالنقض", "formatted_address": "6 شارع الخازندار من ش، Dr Sayed Abd El-Wahid, Heliopolis, Cairo Governorate, Egypt", "lat": 30.0921266, "lng": 31.320776, "types": ["lawyer", "point_of_interest", "establishment"], "place_id": "ChIJdyXO4XU_WBQRFkjmeiXIwKY"}, {"name": "مركز الحياه للعلاج الطبيعي للاطفال", "formatted_address": "12 Dr Sayed Abd El-Wahid, El-Montaza, Heliopolis, Cairo Governorate, Egypt", "lat": 30.0924999, "lng": 31.321206, "types": ["doctor", "health", "point_of_interest", "establishment"], "place_id": "ChIJt_y1wSc-WBQRlLs0-IVe_O8"}, {"name": "قطونيل فيجا", "formatted_address": "10 Boutros Ghaly, Al Matar, El Nozha, Cairo Governorate, Egypt", "lat": 30.0918436, "lng": 31.3190671, "types": ["point_of_interest", "establishment"], "place_id": "ChIJq6puiCg-WBQRJ0K-Gxdf25A"}, {"name": "Zikry Pharmacies صيدليــات زكــرى‎", "formatted_address": "4 Dr Sayed Abd El-Wahid, El-Montaza, Heliopolis, Cairo Governorate, Egypt", "lat": 30.09171809999999, "lng": 31.319868, "types": ["pharmacy", "health", "point_of_interest", "store", "establishment"], "place_id": "ChIJ_____yY-WBQRUsjeqy1GOIc"}, {"name": "Galltor", "formatted_address": "شارع Dr Sayed Abd El-Wahid, روكسي، Heliopolis, Cairo Governorate, Egypt", "lat": 30.091768, "lng": 31.3200169, "types": ["clothing_store", "point_of_interest", "store", "establishment"], "place_id": "ChIJUe0LhZA_WBQRWScqh4wgdt8"}, {"name": "مطعم تكا", "formatted_address": "8 Dr Sayed Abd El-Wahid, El-Montaza, Heliopolis, Cairo Governorate, Egypt", "lat": 30.0920723, "lng": 31.320451, "types": ["restaurant", "food", "point_of_interest", "establishment"], "place_id": "ChIJzZedFWQ_WBQRsw1ATElnlB4"}, {"name": "دكتور شريف عمر الكرداوى", "formatted_address": "، روكسي, شارع Dr Sayed Abd El-Wahid, ،, Heliopolis, Cairo Governorate 11341, Egypt", "lat": 30.0919023, "lng": 31.3201051, "types": ["doctor", "health", "point_of_interest", "establishment"], "place_id": "ChIJGY7VVtk_WBQRch_h6v-EZJ8"}, {"name": "Beero Casualwear", "formatted_address": "5 الدكتور سيد عبد الواحد، المنتزه، مصر الجديدة،، Cairo Governorate, Egypt", "lat": 30.0917071, "lng": 31.32043, "types": ["clothing_store", "point_of_interest", "store", "establishment"], "place_id": "ChIJ3RbnM0U_WBQRkS1K9KSZh3g"}, {"name": "KAREZMA", "formatted_address": "4 Dr Sayed Abd El-Wahid, El-Montaza, Heliopolis, Cairo Governorate, Egypt", "lat": 30.0916916, "lng": 31.3198841, "types": ["clothing_store", "point_of_interest", "store", "establishment"], "place_id": "ChIJW5uvKiY-WBQRhICPviEXfWU"}, {"name": "صيدلية الجوهرى", "formatted_address": "12 Dr Sayed Abd El-Wahid, El-Montaza, Heliopolis, Cairo Governorate, Egypt", "lat": 30.0926887, "lng": 31.3213237, "types": ["pharmacy", "health", "point_of_interest", "store", "establishment"], "place_id": "ChIJn8F-wCc-WBQRLDi-jDj5TL8"}, {"name": "عمر أفندى", "formatted_address": "شارع سيد عبدالواحد، مصر الجديده، قسم مصر الجديده، القاهرة، Cairo Governorate, Egypt", "lat": 30.0914935, "lng": 31.3200438, "types": ["department_store", "point_of_interest", "store", "establishment"], "place_id": "ChIJ4emxKyY-WBQRU9dHUak3hQ8"}, {"name": "Tasnim", "formatted_address": "4 ش د. سيد عبد الواحد، Almazah, Heliopolis, Cairo Governorate, Egypt", "lat": 30.0916162, "lng": 31.3375736, "types": ["point_of_interest", "establishment"], "place_id": "ChIJFWJ8zyc-WBQRPNI1-68dXZw"}, {"name": "Wakanda forever", "formatted_address": "6 شارع الخازندار من ش،, Dr Sayed Abd El-Wahid, El-Montaza, Heliopolis, Cairo Governorate, Egypt", "lat": 30.0921353, "lng": 31.320962, "types": ["cafe", "food", "point_of_interest", "store", "establishment"], "place_id": "ChIJV0TFGMQ_WBQRNGoxdk1I4Ak"}, {"name": "الكيال", "formatted_address": "شارع سيد عبدالواحد،مصر الجديده، قسم مصر الجديده،، Cairo Governorate, Egypt", "lat": 30.0914284, "lng": 31.3194086, "types": ["shoe_store", "point_of_interest", "store", "establishment"], "place_id": "ChIJU1FvhCg-WBQRLfcPwGwY9HU"}, {"name": "التوحيد", "formatted_address": "شارع سيد عبدالواحد،مصر الجديده،، Heliopolis, Cairo Governorate, Egypt", "lat": 30.0917907, "lng": 31.3199685, "types": ["shoe_store", "point_of_interest", "clothing_store", "store", "establishment"], "place_id": "ChIJKSUW1Sc-WBQRBSIyx5WhVqE"}, {"name": "Karim Bayoumy", "formatted_address": "11 Al Ahram, El-Montaza, Heliopolis, Cairo Governorate, Egypt", "lat": 30.09155, "lng": 31.32209, "types": ["point_of_interest", "establishment"], "place_id": "ChIJPZdqric-WBQRB8UIKyXkabI"}, {"name": "محلات أشرف و حنان", "formatted_address": "شارع سيد عبدالواحد،مصر الجديده،، Heliopolis, Cairo Governorate, Egypt", "lat": 30.091693, "lng": 31.3198063, "types": ["shoe_store", "point_of_interest", "store", "establishment"], "place_id": "ChIJJQwagCg-WBQRVzlWa3aUemg"}, {"name": "Kids Land", "formatted_address": "شارع سيد عبدالواحد،مصر الجديده،، Heliopolis, Cairo Governorate, Egypt", "lat": 30.0917585, "lng": 31.3199139, "types": ["clothing_store", "point_of_interest", "store", "establishment"], "place_id": "ChIJJU9P1Sc-WBQR3BLAbXJUF9o"}, {"name": "Tito", "formatted_address": "شارع سيد عبدالواحد،مصر الجديده،، Heliopolis, Cairo Governorate, Egypt", "lat": 30.0917498, "lng": 31.3198995, "types": ["point_of_interest", "store", "establishment"], "place_id": "ChIJN2tO1Sc-WBQRWmc4mrvmkwk"}, {"name": "اخر العنقود", "formatted_address": "شارع سيد عبدالواحد،مصر الجديده،، Heliopolis, Cairo Governorate, Egypt", "lat": 30.0916132, "lng": 31.320272, "types": ["point_of_interest", "store", "establishment"], "place_id": "ChIJpY6zLCY-WBQRWZMI9vZxq-o"}, {"name": "Towm", "formatted_address": "شارع سيد عبدالواحد،مصر الجديده،، Heliopolis, Cairo Governorate, Egypt", "lat": 30.0915784, "lng": 31.3202911, "types": ["point_of_interest", "clothing_store", "store", "establishment"], "place_id": "ChIJCRe4LCY-WBQRY5A8MyRokD8"}, {"name": "Gabre Stores", "formatted_address": "شارع سيد عبد الواحد،مصر الجديده، قسم مصر الجديدة، القاهرة، Cairo Governorate, Egypt", "lat": 30.0915128, "lng": 31.320078, "types": ["shoe_store", "point_of_interest", "store", "establishment"], "place_id": "ChIJ87-mKyY-WBQR9M3GBzBtedU"}, {"name": "Danielle De Chamaret", "formatted_address": "شارع سيد عبدالواحد،مصر الجديده،، Heliopolis, Cairo Governorate, Egypt", "lat": 30.0918537, "lng": 31.3201396, "types": ["clothing_store", "point_of_interest", "store", "establishment"], "place_id": "ChIJd6Bh1Cc-WBQRoaVM-VSVyg8"}, {"name": "الهائد لملابس الاطفال", "formatted_address": "شارع سيد عبدالواحد،مصر الجديده، قسم مصر الجديدة،, Cairo Governorate, Egypt", "lat": 30.0920173, "lng": 31.3201238, "types": ["clothing_store", "point_of_interest", "store", "establishment"], "place_id": "ChIJi3PwYqg_WBQRar7a1TdKPvs"}, {"name": "بيت الساعات وجيه أرمانيوس ٦ أ شارع بطرس غالى _ روكسى - مصر الجديدة", "formatted_address": "_ روكسى، ٦ أ، Boutros Ghaly, Egypt", "lat": 30.0922614, "lng": 31.3211071, "types": ["point_of_interest", "establishment"], "place_id": "ChIJM4wXAlY_WBQRU0_Gr5fyEwo"}, {"name": "ضجة", "formatted_address": "شارع السيد عبد الواحد مصر الجديده قسم مصر الجديدة، القاهره، Cairo Governorate, Egypt", "lat": 30.0921806, "lng": 31.3214424, "types": ["point_of_interest", "establishment"], "place_id": "ChIJraDjuCc-WBQRF8EehTgdf-4"}, {"name": "MASTOORA", "formatted_address": "56 شارع رمسيس - روكسي، El-Montaza, Heliopolis, Egypt", "lat": 30.0925804, "lng": 31.320295, "types": ["clothing_store", "point_of_interest", "store", "establishment"], "place_id": "ChIJZ6Eh34kVWBQRuNmBY1AKeWM"}, {"name": "عيادة اليد د اشرف عبدالعزيز", "formatted_address": "روكسى قسم مصر الجديدة 12 بطرس غالي, 11341, Egypt", "lat": 30.09299, "lng": 31.320387, "types": ["hospital", "doctor", "health", "point_of_interest", "establishment"], "place_id": "ChIJ907IPMZAWBQRvhVWZoLKbX8"}, {"name": "تنه و رنه", "formatted_address": "شارع سيد عبدالواحد،مصر الجديده، قسم مصر الجديدة، القاهرة، Cairo Governorate, Egypt", "lat": 30.0919364, "lng": 31.3201952, "types": ["point_of_interest", "store", "establishment"], "place_id": "ChIJWTUG1Cc-WBQRabB3XGcXggI"}, {"name": "مقهي شارع دمشق الشعبيه", "formatted_address": "5 Dmshek, المنتزه، مصر الجديدة، محافظة القاهرة‬،، قةص، Egypt", "lat": 30.0926599, "lng": 31.321279, "types": ["point_of_interest", "establishment"], "place_id": "ChIJx_04ztM_WBQRrB8_F3PKbHs"}, {"name": "Dr. Tarek Hussein", "formatted_address": "٥٦ شارع رمسيس تقاطع, Boutros Ghaly, روكسي, Heliopolis, Cairo Governorate, Egypt", "lat": 30.0925376, "lng": 31.3203418, "types": ["doctor", "health", "point_of_interest", "establishment"], "place_id": "ChIJnbOLff0_WBQROv0TSj_Zbys"}, {"name": "د أحمد الطاروطى", "formatted_address": "١٢ شارع بطرس غالى هليوبوليس الدور, ٨ Boutros Ghaly, El-Montaza, Heliopolis, Cairo Governorate, Egypt", "lat": 30.0917304, "lng": 31.3206854, "types": ["hospital", "health", "point_of_interest", "establishment"], "place_id": "ChIJ--ENAe8_WBQRYy6XD0OluA4"}, {"name": "مقهي شارع دمشق الشعبيه", "formatted_address": "5 Dmshek, المنتزه، مصر الجديدة، محافظة القاهرة‬،، Egypt", "lat": 30.0927345, "lng": 31.3188353, "types": ["point_of_interest", "establishment"], "place_id": "ChIJp0qpev0_WBQRFWFSV2Y0eIc"}, {"name": "كريستال سكارف", "formatted_address": "مصر الجديده، شارع السيد، عبد الواحد، Heliopolis, Cairo Governorate, Egypt", "lat": 30.0920019, "lng": 31.3212084, "types": ["point_of_interest", "clothing_store", "store", "establishment"], "place_id": "ChIJUzoMyCc-WBQROjKtNslHbt4"}, {"name": "بيتزا هت", "formatted_address": "7 Dr. Sayed Abdel Wahed St المنتزه الكوربة .. بجوار التأمين الصحى، Egypt", "lat": 30.0919632, "lng": 31.3206461, "types": ["restaurant", "food", "point_of_interest", "establishment"], "place_id": "ChIJXWwRzic-WBQRzy5A5RuFe9Q"}, {"name": "Continue Academy", "formatted_address": "رمسيس، 45 شارع رمسيس متفرع من شارع الاهرام، Heliopolis, 12411, Egypt", "lat": 30.0918763, "lng": 31.3212095, "types": ["point_of_interest", "establishment"], "place_id": "ChIJ-4jTzic-WBQRMB3j2MvJuco"}, {"name": "EGENT مصر الجديدة", "formatted_address": "24 الاهرام، المنتزه، قسم مصر الجديدة،، Cairo Governorate, Egypt", "lat": 30.0922329, "lng": 31.32212809999999, "types": ["hospital", "health", "point_of_interest", "establishment"], "place_id": "ChIJu_0_RbA_WBQRt4YS-ELKHL8"}, {"name": "عيادة الأستاذ الدكتور عاطف يوسف", "formatted_address": "١٢ شارع بطرس غالى، روكسى،, Boutros Ghaly, Cairo Governorate, Egypt", "lat": 30.0929413, "lng": 31.320304, "types": ["doctor", "health", "point_of_interest", "establishment"], "place_id": "ChIJ513N8oc_WBQR-nCaH8RO3Us"}, {"name": "محمد فهمى عبد العزيز", "formatted_address": "12 Boutros Ghaly, El-Montaza, Heliopolis, Cairo Governorate, Egypt", "lat": 30.0929885, "lng": 31.3203199, "types": ["doctor", "health", "point_of_interest", "establishment"], "place_id": "ChIJ_fFN6Sc-WBQR4lwITqujAps"}, {"name": "B.TECH - Roxy", "formatted_address": "إيديال - روكسي، 17 ش Ibrahim Al Lakani, Egypt", "lat": 30.0911004, "lng": 31.31907, "types": ["electronics_store", "home_goods_store", "point_of_interest", "store", "establishment"], "place_id": "ChIJwaqCkCg-WBQRjBSq_o-mYT4"}, {"name": "National Bank Building", "formatted_address": "4 Boutros Ghaly, El-Montaza, Heliopolis, Cairo Governorate, Egypt", "lat": 30.0921499, "lng": 31.3192145, "types": ["atm", "finance", "point_of_interest", "establishment"], "place_id": "ChIJ2d_ffCg-WBQR-2IFQW3R8ew"}, {"name": "Normandy Cinema", "formatted_address": "32 Al Ahram, El-Montaza, Heliopolis, Cairo Governorate, Egypt", "lat": 30.0923306, "lng": 31.3224036, "types": ["movie_theater", "point_of_interest", "establishment"], "place_id": "ChIJVWkOpSc-WBQR_17XOii0rH4"}, {"name": "L'Amphitryon", "formatted_address": "18 ش Ibrahim Al Lakani, El-Montaza, Heliopolis, Cairo Governorate, Egypt", "lat": 30.0907595, "lng": 31.3198722, "types": ["cafe", "food", "point_of_interest", "establishment"], "place_id": "ChIJwedVJyY-WBQR_TXUg4jytl4"}, {"name": "Chicken Tikka", "formatted_address": "7 متفرع من ش، Ibrahim Al Lakani, Heliopolis, Cairo Governorate, Egypt", "lat": 30.0916727, "lng": 31.3206428, "types": ["restaurant", "food", "point_of_interest", "establishment"], "place_id": "ChIJpdojzic-WBQRlY7ZL6wzUTU"}, {"name": "عيادة دكتور اسماعيل لاشين", "formatted_address": "El-Montaza, Heliopolis, Cairo Governorate, Egypt", "lat": 30.0918938, "lng": 31.3215327, "types": ["health", "point_of_interest", "establishment"], "place_id": "ChIJ4wbn-vE_WBQRbwHYjJWIV38"}, {"name": "مركز علاج الحول / د.جمال صبحي", "formatted_address": "القاهرة - ميدان روكسي، 12 Boutros Ghaly, Egypt", "lat": 30.0929413, "lng": 31.320304, "types": ["hospital", "health", "point_of_interest", "establishment"], "place_id": "ChIJP1Zc5yc-WBQRNyTFOxcSPKc"}, {"name": "British Council", "formatted_address": "4 Minya, El-Bostan, Heliopolis, Cairo Governorate, Egypt", "lat": 30.0959119, "lng": 31.3236016, "types": ["point_of_interest", "establishment"], "place_id": "ChIJz8iNp4kVWBQRdB9ba3Xvh0M"}, {"name": "مركز الاستاذ الدكتور/ طارق مأمون للعيون", "formatted_address": "روكسى، 56 Ramses, Heliopolis, Cairo Governorate 11341, Egypt", "lat": 30.0925804, "lng": 31.320295, "types": ["doctor", "health", "point_of_interest", "establishment"], "place_id": "ChIJsUd0f5RAWBQRR7Dr-c0YNog"}, {"name": "Misr Radiology Center مركز مصر للأشعة", "formatted_address": "11 El-Sayed El-Merghany, Mansheya El-Bakry, Heliopolis, Cairo Governorate, Egypt", "lat": 30.0898883, "lng": 31.3146794, "types": ["doctor", "health", "point_of_interest", "establishment"], "place_id": "ChIJU9WERbEVWBQR0J68hBRkfGY"}, {"name": "كنافة بيكرى", "formatted_address": "54 Ramses, باب اللوق، Heliopolis, Cairo Governorate, Egypt", "lat": 30.0922234, "lng": 31.3206258, "types": ["point_of_interest", "establishment"], "place_id": "ChIJRcm9r-pAWBQRBFck5fQjgs8"}, {"name": "Dr. Saad Eissa Laboratory", "formatted_address": "12 Boutros Ghaly, El-Montaza, Heliopolis, Cairo Governorate, Egypt", "lat": 30.0930248, "lng": 31.3202854, "types": ["health", "point_of_interest", "establishment"], "place_id": "ChIJo9qPeSg-WBQRmnLYQ5LW1mo"}, {"name": "Arabiata", "formatted_address": "1 شارع إبراهيم القباني، El-Montaza, Heliopolis, Cairo Governorate, Egypt", "lat": 30.0918386, "lng": 31.3238286, "types": ["restaurant", "food", "point_of_interest", "establishment"], "place_id": "ChIJL6Q0Eic-WBQRnN1YqDrI-cQ"}, {"name": "24 شارع الاهرام مصر الجديدة الدور الاول", "formatted_address": "24 Al Ahram, El-Montaza, Heliopolis, Cairo Governorate 11757, Egypt", "lat": 30.0918874, "lng": 31.3215918, "types": ["travel_agency", "point_of_interest", "establishment"], "place_id": "ChIJ96HCZCA_WBQR_EnD1ySu07E"}, {"name": "معامل ألفا - فرع الميرغني", "formatted_address": "73 ش السيد الميرغني - أعلى صيدليات سيف - أمام مطعم أبو شقرة بجوار مترو كلية البنات - بجوار محمصات, صلاح الدين، Heliopolis, Cairo Governorate, Egypt", "lat": 30.0841058, "lng": 31.3278686, "types": ["health", "point_of_interest", "establishment"], "place_id": "ChIJdQ68a7A_WBQRntb4IE9qicE"}, {"name": "El Tawheed Center", "formatted_address": "11 Ramsis, El-Montaza, Heliopolis, Cairo Governorate, Egypt", "lat": 30.0909837, "lng": 31.322709, "types": ["point_of_interest", "establishment"], "place_id": "ChIJ_____yY-WBQR7QbW3DFe0ts"}, {"name": "براندز فور ليس", "formatted_address": "56 Ramses, El-Montaza, Heliopolis, Cairo Governorate, Egypt", "lat": 30.0925804, "lng": 31.320295, "types": ["point_of_interest", "establishment"], "place_id": "ChIJTcr02yc-WBQRRWWH2uHhLUQ"}]