[{"name": "Nadadin", "formatted_address": "7 Dr Ali Ibrahim Ramez, El-Nozha, El Nozha, Cairo Governorate, Egypt", "lat": 30.1032497, "lng": 31.3315457, "types": ["point_of_interest", "establishment"], "place_id": "ChIJwwLCypIVWBQRHfIL6vc88Fc"}, {"name": "نبيلة العبد", "formatted_address": "ابو بكر، شارع Dr Ali Ibrahim Ramez, الصديق،مصر الجديده،، قسم النز، Cairo Governorate, Egypt", "lat": 30.1030186, "lng": 31.330525, "types": ["lawyer", "point_of_interest", "establishment"], "place_id": "ChIJGxHOuZIVWBQRKgqPdrkQD_A"}, {"name": "منفذ الوطنيه", "formatted_address": "6 Dr Ali Ibrahim Ramez, El-Nozha, El Nozha, Cairo Governorate, Egypt", "lat": 30.1034627, "lng": 31.3313217, "types": ["supermarket", "grocery_or_supermarket", "food", "point_of_interest", "store", "establishment"], "place_id": "ChIJKygpM-0VWBQRBe7_qwAlJBg"}, {"name": "https://www.facebook.com/albaharyalyoum/", "formatted_address": "El Hegaz St, El-Nozha, El Nozha, Cairo Governorate, Egypt", "lat": 30.106662, "lng": 31.335382, "types": ["museum", "point_of_interest", "establishment"], "place_id": "ChIJQTEEv7gVWBQR2v6eYEYxbZU"}, {"name": "Fanous Technology & Trading", "formatted_address": "32 Dr Ali Ibrahim Ramez, St, El Nozha, Cairo Governorate 11361, Egypt", "lat": 30.104785, "lng": 31.3346391, "types": ["point_of_interest", "establishment"], "place_id": "ChIJd2s6hasVWBQRwnCPuE3otec"}, {"name": "Youssef El Sebaiee Secondary School", "formatted_address": "على ابراهيم رامز-ميدان المحكمة, النزهة, Dr Ali Ibrahim Ramez, Cairo Governorate 11341, Egypt", "lat": 30.10363019999999, "lng": 31.3335223, "types": ["secondary_school", "school", "point_of_interest", "establishment"], "place_id": "ChIJX9Tz4uwVWBQRZTTUKVMy43U"}, {"name": "Modern Ideas 4 Kids", "formatted_address": "8 Dr Ali Ibrahim Ramez, El-Nozha, El Nozha, Cairo Governorate, Egypt", "lat": 30.103423, "lng": 31.3314967, "types": ["point_of_interest", "store", "establishment"], "place_id": "ChIJaRCVM-0VWBQRfp-nkV0H_gw"}, {"name": "Nadia Stationery", "formatted_address": "ش Dr Ali Ibrahim Ramez, El-Nozha, El Nozha, Cairo Governorate, Egypt", "lat": 30.1052459, "lng": 31.335473, "types": ["library", "point_of_interest", "establishment"], "place_id": "ChIJ02oN-uwVWBQRYZh_l1VCjLU"}, {"name": "St. George College Heliopolis (Primary and Preparatory school building)", "formatted_address": "26 Dr Ali Ibrahim Ramez, El-Nozha, El Nozha, Cairo Governorate, Egypt", "lat": 30.1045162, "lng": 31.3337622, "types": ["point_of_interest", "establishment"], "place_id": "ChIJhUIX-uwVWBQRwo-GN_-YtE8"}, {"name": "مسجد الرحمة", "formatted_address": "شارع Abou Teeg, El-Nozha, El Nozha, Cairo Governorate, Egypt", "lat": 30.1049312, "lng": 31.3361547, "types": ["mosque", "place_of_worship", "point_of_interest", "establishment"], "place_id": "ChIJTZovEOwVWBQRzthY2Sn4Pwk"}, {"name": "كير ميديكال", "formatted_address": "5 Al Mahkma, Al Matar, El Nozha, Cairo Governorate, Egypt", "lat": 30.103336, "lng": 31.3308255, "types": ["point_of_interest", "establishment"], "place_id": "ChIJ8ePBxJIVWBQRaxsHysBMh_w"}, {"name": "United Information Technology", "formatted_address": "ش Dr Ali Ibrahim Ramez, El-Nozha, El Nozha, Cairo Governorate, Egypt", "lat": 30.1049686, "lng": 31.3349836, "types": ["point_of_interest", "establishment"], "place_id": "ChIJnVHAbewVWBQRVRuObSsy-lw"}, {"name": "ارخص اسعار التكييفات وفلاتر المياه في مصر, صيانة فورية", "formatted_address": "18 شارع دكتور عى ابراهيم رامز ميدان المحكمة، أمام مدرسة النصر، Al Khassah, Cairo Governorate, Egypt", "lat": 30.1036907, "lng": 31.3326893, "types": ["point_of_interest", "store", "establishment"], "place_id": "ChIJYXDFIe0VWBQRbRwZiWkSFXc"}, {"name": "Al Azabawy Motors", "formatted_address": "214 El Hegaz St, El-Nozha, El Nozha, Cairo Governorate, Egypt", "lat": 30.1063067, "lng": 31.3354859, "types": ["point_of_interest", "establishment"], "place_id": "ChIJ06TYwusVWBQROmJNTi-hJnY"}, {"name": "El Hamedeya El Shazleya Mosque", "formatted_address": "54 El Hegaz St, Al Matar, El Nozha, Cairo Governorate, Egypt", "lat": 30.1068188, "lng": 31.3351715, "types": ["point_of_interest", "establishment"], "place_id": "ChIJNSJQkesVWBQRnFA4VzqzZtQ"}, {"name": "توكيل راية", "formatted_address": "50 El Hegaz St, Al Matar, El Nozha, Cairo Governorate, Egypt", "lat": 30.106467, "lng": 31.333935, "types": ["point_of_interest", "establishment"], "place_id": "ChIJz3XbfusVWBQRuqzNnT5997M"}, {"name": "Dr Khaled El Shazly - عيادة د/ خالد الشاذلي - استشاري جراحة مخ و أعصاب و عمود فقري", "formatted_address": "89 شارع الحجاز ، ميدان المحكمة ، مصر الجديدة ، بجوار بنك, CIB, Cairo Governorate 11757, Egypt", "lat": 30.1048728, "lng": 31.3317838, "types": ["doctor", "health", "point_of_interest", "establishment"], "place_id": "ChIJAQBmGfAVWBQR1-qRcyhppx0"}, {"name": "د / أحمد البكل", "formatted_address": "50 شارع الحجاز، مصر الجديدة عمارة سامسونج وراية أقرب محطة مترو: هليوبوليس، على بعد خمسة دقائق مشي, Cairo Governorate, Egypt", "lat": 30.10649159999999, "lng": 31.3339205, "types": ["doctor", "health", "point_of_interest", "establishment"], "place_id": "ChIJvQ60irwVWBQReJVNgNfpinE"}, {"name": "شركة تيفولي", "formatted_address": "29 El-Higaz, El-Nozha, El Nozha, Cairo Governorate, Egypt", "lat": 30.1064423, "lng": 31.3354388, "types": ["travel_agency", "point_of_interest", "establishment"], "place_id": "ChIJhcKok-sVWBQRn8T4ayW5CmE"}, {"name": "مؤسسة صناع الخير", "formatted_address": "بجوار مستشفى هيليوبوليس، 125 El Hegaz St, النزهة الدور4،، El Nozha, Egypt", "lat": 30.10670739999999, "lng": 31.3361584, "types": ["point_of_interest", "establishment"], "place_id": "ChIJVVXl6OsVWBQRxvq3JfkWClU"}, {"name": "Elhoseeny", "formatted_address": "101 El Hegaz St, El-Nozha, El Nozha, Cairo Governorate, Egypt", "lat": 30.1057088, "lng": 31.3339036, "types": ["point_of_interest", "establishment"], "place_id": "ChIJQQgrhOwVWBQRUjLq-jDJidM"}, {"name": "International British Center - IBC", "formatted_address": "4 ش عبد الحميد ابو هيف، El-Nozha, El Nozha, Cairo Governorate, Egypt", "lat": 30.1047686, "lng": 31.3331495, "types": ["point_of_interest", "establishment"], "place_id": "ChIJVxOh7uwVWBQRQ7kfHiUInoM"}, {"name": "Our Lady Of Perpetual Succour School", "formatted_address": "46 dr. aly ibrahim ramez st.، El-Nozha, Heliopolis, Cairo Governorate, Egypt", "lat": 30.105605, "lng": 31.336301, "types": ["point_of_interest", "establishment"], "place_id": "ChIJJfgC-OsVWBQReFOGfHo-nCo"}, {"name": "Heliopolis Family Court", "formatted_address": "58 El Hegaz St, El-Nozha, Heliopolis, Cairo Governorate, Egypt", "lat": 30.10326, "lng": 31.3297672, "types": ["courthouse", "local_government_office", "point_of_interest", "establishment"], "place_id": "ChIJNxzB6pIVWBQRQx6kT15XA74"}, {"name": "Heliopolis Hospital", "formatted_address": "ميدان هليوبوليس، El-Nozha, El Nozha, Cairo Governorate, Egypt", "lat": 30.1066724, "lng": 31.337074, "types": ["hospital", "health", "point_of_interest", "establishment"], "place_id": "ChIJR8gu2esVWBQREEO6QdYQy80"}, {"name": "Delicate", "formatted_address": "122 El Hegaz St, El-Nozha, El Nozha, Cairo Governorate, Egypt", "lat": 30.1067766, "lng": 31.3356247, "types": ["point_of_interest", "establishment"], "place_id": "ChIJ06TYwusVWBQRFuTXUQleTl8"}, {"name": "Residence Development", "formatted_address": "91 El Hegaz St, Al Matar, El Nozha, Cairo Governorate, Egypt", "lat": 30.105034, "lng": 31.332044, "types": ["point_of_interest", "establishment"], "place_id": "ChIJ5fZCeI4VWBQRUxveaZbUyxA"}, {"name": "NOKA", "formatted_address": "93 El Hegaz St, El-Nozha, El Nozha, Cairo Governorate, Egypt", "lat": 30.1050333, "lng": 31.3324871, "types": ["point_of_interest", "establishment"], "place_id": "ChIJ22aEwOwVWBQRqkxMyVwTuyk"}, {"name": "Arab Tone", "formatted_address": "45 El Hegaz St, Al Matar, El Nozha, Cairo Governorate, Egypt", "lat": 30.1055542, "lng": 31.3324016, "types": ["point_of_interest", "establishment"], "place_id": "ChIJ2-y3vuwVWBQRPNLhpdhe-TQ"}, {"name": "Active Fitness Gym", "formatted_address": "El-Sheikh Ali Mahmoud, El-Nozha, El Nozha, Cairo Governorate, Egypt", "lat": 30.1072309, "lng": 31.33343, "types": ["gym", "health", "point_of_interest", "establishment"], "place_id": "ChIJm_JQcusVWBQRWxuREtLMXPc"}, {"name": "عصام عبد الخالق", "formatted_address": "121 El Hegaz St, El-Nozha, El Nozha, Cairo Governorate, Egypt", "lat": 30.1064864, "lng": 31.3356893, "types": ["point_of_interest", "establishment"], "place_id": "ChIJHTUue5QVWBQRSssVyOyH_rQ"}, {"name": "العيسوى ماركت", "formatted_address": "97 El Hegaz St, Al Matar, El Nozha, Cairo Governorate, Egypt", "lat": 30.10584399999999, "lng": 31.3336124, "types": ["point_of_interest", "establishment"], "place_id": "ChIJTXRYhOwVWBQRqPpLANbqfA8"}, {"name": "د/عابر حليم", "formatted_address": "115 El Hegaz St, El-Nozha, El Nozha, Cairo Governorate, Egypt", "lat": 30.1062028, "lng": 31.3349584, "types": ["health", "point_of_interest", "establishment"], "place_id": "ChIJAUed6qgVWBQRjbJvCRDeVTU"}, {"name": "ELROUBY CLINIC - الروبي كلينيك لجراحات التجميل", "formatted_address": "107 El Hegaz St, El-Nozha, El Nozha, Cairo Governorate 11351, Egypt", "lat": 30.105864, "lng": 31.33437, "types": ["beauty_salon", "hair_care", "doctor", "health", "point_of_interest", "establishment"], "place_id": "ChIJXePxfuwVWBQR5czQKAVdUxI"}, {"name": "دكتور أحمد عادل ثروت", "formatted_address": "شارع هارون الرشيد قسم النزهه ،، Cairo Governorate, Egypt", "lat": 30.1038229, "lng": 31.3354851, "types": ["doctor", "health", "point_of_interest", "establishment"], "place_id": "ChIJDaZ0SOwVWBQRHiETJKzZgcQ"}, {"name": "د/ تيمور فكري الحسيني", "formatted_address": "40 شارع الحجاز ميدان، Al Mahkma, Cairo Governorate 11351, Egypt", "lat": 30.1061503, "lng": 31.3335285, "types": ["doctor", "health", "point_of_interest", "establishment"], "place_id": "ChIJ06TYwusVWBQRs6uTxQsdg_k"}, {"name": "شركة انترناشونال بيونيرز", "formatted_address": "44 El Hegaz St, Al Matar, El Nozha, Cairo Governorate, Egypt", "lat": 30.1055542, "lng": 31.3324016, "types": ["point_of_interest", "establishment"], "place_id": "ChIJ2-y3vuwVWBQR-FKzmSj-59g"}, {"name": "الشركة السعودية المصرية للاستثمار السياحى", "formatted_address": "158 El Hegaz St, Al Matar, El Nozha, Cairo Governorate, Egypt", "lat": 30.1069549, "lng": 31.3360022, "types": ["point_of_interest", "establishment"], "place_id": "ChIJ5fZCeI4VWBQR_hSkiGrKOWk"}, {"name": "Tactic", "formatted_address": "103 El Hegaz St. Heliopolis, Cairo Governorate, El-Nozha, Cairo, Cairo Governorate 11771, 4th Floor Suite 11 103, El Hegaz St, El-Nozha, El Nozha, Cairo Governorate, Egypt", "lat": 30.1058383, "lng": 31.334033, "types": ["point_of_interest", "establishment"], "place_id": "ChIJ3eIzh-wVWBQRZ1Vde84YQ6M"}, {"name": "مركز د أمجد قطب لجراحات العيون", "formatted_address": "36 El Hegaz St, El-Nozha, El Nozha, Cairo Governorate, Egypt", "lat": 30.10579929999999, "lng": 31.3323044, "types": ["health", "point_of_interest", "establishment"], "place_id": "ChIJiSwxBQoVWBQRUOjdjaUtBtc"}, {"name": "Heliopolis Square", "formatted_address": "Heliopolis Square, El-Nozha, El Nozha, Cairo Governorate, Egypt", "lat": 30.1080936, "lng": 31.3382408, "types": ["town_square"], "place_id": "ChIJJWEcmekVWBQR5Z4gDwYKuvE"}, {"name": "مدرسة صلاح الدين الابتدائية المشتركة", "formatted_address": "36 El Hegaz St, Al Matar, El Nozha, Cairo Governorate, Egypt", "lat": 30.10579929999999, "lng": 31.3323044, "types": ["point_of_interest", "establishment"], "place_id": "ChIJDX6cu-wVWBQRGPlgBWxjCJw"}, {"name": "Care Dental Clinic", "formatted_address": "179 El Hegaz St, El-Nozha, El Nozha, Cairo Governorate, Egypt", "lat": 30.1063067, "lng": 31.3354859, "types": ["point_of_interest", "establishment"], "place_id": "ChIJ06TYwusVWBQRB2717lhwmTY"}, {"name": "Arabian Office For Law Consultations", "formatted_address": "44 El Hegaz St, El-Bostan, Heliopolis, Cairo Governorate, Egypt", "lat": 30.1061408, "lng": 31.3331076, "types": ["point_of_interest", "establishment"], "place_id": "ChIJMbYPyfIVWBQROZQBG7nKOjA"}, {"name": "HUAWEI Authorized Service Center- Cairo-Hegaz", "formatted_address": "Beside CIB bank, Heliopolis :, 93 El Hegaz St, Cairo Governorate, Egypt", "lat": 30.1051811, "lng": 31.3325254, "types": ["point_of_interest", "establishment"], "place_id": "ChIJrSGawOwVWBQRlerBT58TnSc"}, {"name": "Private Clinic", "formatted_address": "El-Nasr Sporting Club, ٣٤ أ برج التجاريين شارع الحجاز مصر الجديدة بجوار, El Hegaz St, Cairo Governorate, Egypt", "lat": 30.1052099, "lng": 31.33382139999999, "types": ["doctor", "health", "point_of_interest", "establishment"], "place_id": "ChIJdXjxsugVWBQRlsBkogJqLYI"}, {"name": "Cleopatra Spa", "formatted_address": "Mahmoud Nashed, El-Nozha, El Nozha, Cairo Governorate, Egypt", "lat": 30.1042719, "lng": 31.3349151, "types": ["spa", "point_of_interest", "establishment"], "place_id": "ChIJZWfEMW0VWBQRlB9EbG0mGX4"}, {"name": "Fouda Motors", "formatted_address": "97 El Hegaz St, Al Matar, El Nozha, Cairo Governorate, Egypt", "lat": 30.10584399999999, "lng": 31.3336124, "types": ["point_of_interest", "establishment"], "place_id": "ChIJTXRYhOwVWBQRxElz8ty30Lk"}, {"name": "Flowers Garden", "formatted_address": "40 El Hegaz St, El-Nozha, El Nozha, Cairo Governorate, Egypt", "lat": 30.105988, "lng": 31.332681, "types": ["point_of_interest", "establishment"], "place_id": "ChIJd0eaouwVWBQREzXoDMofITo"}, {"name": "CIB", "formatted_address": "91 ش الحجاز، El-Nozha, El Nozha, Cairo Governorate, Egypt", "lat": 30.1050057, "lng": 31.3319935, "types": ["bank", "finance", "point_of_interest", "establishment"], "place_id": "ChIJ06TYwusVWBQRU-frf3le_Vo"}, {"name": "افضل دكتور امراض ذكورة فى مصر الجديدة", "formatted_address": "٣٤أ شارع الحجاز - برج التجاريين أمام محكمة، Heliopolis, Cairo Governorate, Egypt", "lat": 30.10472, "lng": 31.330429, "types": ["hospital", "doctor", "health", "point_of_interest", "establishment"], "place_id": "ChIJl66Ga38XWBQR8YChMINah-c"}, {"name": "Authentic For Import & Export", "formatted_address": "33 El Hegaz St, El-Nozha, El Nozha, Cairo Governorate, Egypt", "lat": 30.105682, "lng": 31.331975, "types": ["point_of_interest", "establishment"], "place_id": "ChIJOXVct-wVWBQRUF3akZDcw_g"}, {"name": "Khaled Hassan", "formatted_address": "93 El Hegaz St, El-Nozha, El Nozha, Cairo Governorate, Egypt", "lat": 30.1044159, "lng": 31.3328521, "types": ["pharmacy", "health", "point_of_interest", "store", "establishment"], "place_id": "ChIJNfjd5-wVWBQRr27A2OmTn4A"}, {"name": "Hospital Petrogas", "formatted_address": "9 Abd Al Hamid Abou Hief, El-Nozha, El Nozha, Cairo Governorate, Egypt", "lat": 30.1037679, "lng": 31.3313293, "types": ["hospital", "health", "point_of_interest", "establishment"], "place_id": "ChIJSSoyLe0VWBQRAj4AJ9e-TYw"}, {"name": "اون ذا ران", "formatted_address": "46 El Hegaz St, Al Matar, El Nozha, Cairo Governorate, Egypt", "lat": 30.1062849, "lng": 31.3333538, "types": ["point_of_interest", "establishment"], "place_id": "ChIJWaZBnewVWBQRTHDPVixVwSc"}, {"name": "مستشفى الخلفاء الراشدين", "formatted_address": "١ ش السباق، El Hegaz St, من، Egypt", "lat": 30.1062479, "lng": 31.3333396, "types": ["hospital", "health", "point_of_interest", "establishment"], "place_id": "ChIJBc4Y4lEVWBQR7lYoNwt9jbk"}, {"name": "Oscar Stationery - مكتبة أوسكار", "formatted_address": "58 El Hegaz St, El-Nozha, El Nozha, Cairo Governorate, Egypt", "lat": 30.1070143, "lng": 31.3351177, "types": ["point_of_interest", "store", "establishment"], "place_id": "ChIJ68XNmesVWBQRRoK9fVyPpTM"}, {"name": "United Group (InfoSec)", "formatted_address": "38، El Hegaz St, El Nozha, Cairo Governorate, Egypt", "lat": 30.1050272, "lng": 31.3351938, "types": ["point_of_interest", "establishment"], "place_id": "ChIJ8SAobOwVWBQRwfl59ulBKxU"}, {"name": "Aptec Egypt", "formatted_address": "3 mahmoud nashed st.، El-Nozha, Heliopolis, Cairo Governorate, Egypt", "lat": 30.1040976, "lng": 31.3349233, "types": ["point_of_interest", "establishment"], "place_id": "ChIJcaDtWewVWBQR-Ba6F5_rftQ"}, {"name": "Ideascourt", "formatted_address": "107 شارع الحجاز، مصر الجديدة، القاهرة، 11361, Egypt", "lat": 30.1059531, "lng": 31.3342674, "types": ["point_of_interest", "establishment"], "place_id": "ChIJhbroqE8VWBQR8UMZ6c95oHY"}]