[{"name": "Ittihadia Palace", "formatted_address": "Al Nadi، El-Montaza, Heliopolis, Cairo Governorate, Egypt", "lat": 30.0888643, "lng": 31.3193929, "types": ["tourist_attraction", "premise", "point_of_interest", "establishment"], "place_id": "ChIJuftqUS8-WBQRtM7fDk0QcPk"}, {"name": "Our Lady of Heliopolis Co-Cathedral", "formatted_address": "Nazih Khalifa crossroad، Al Ahram, Heliopolis, Cairo Governorate, Egypt", "lat": 30.0935707, "lng": 31.3251828, "types": ["church", "place_of_worship", "point_of_interest", "establishment"], "place_id": "ChIJJdgh-okVWBQR5TqTmKuQ0IM"}, {"name": "Baron Empain Palace", "formatted_address": "El-Orouba, El-Montaza, Heliopolis, Cairo Governorate 11757, Egypt", "lat": 30.0866701, "lng": 31.3303332, "types": ["point_of_interest", "establishment"], "place_id": "ChIJ1_GM8iE-WBQRLNVi-RT7vDA"}, {"name": "ECC", "formatted_address": "8 شارع الطبرى مصر الجديده، Egypt", "lat": 30.0934564, "lng": 31.3109513, "types": ["point_of_interest", "establishment"], "place_id": "ChIJUenICCs-WBQRsHDSgb4pr4M"}, {"name": "Specialist Center", "formatted_address": "Mansheyat Al Bakri, Heliopolis, Cairo Governorate, Egypt", "lat": 30.0931261, "lng": 31.3084029, "types": ["point_of_interest", "establishment"], "place_id": "ChIJ6x9Vs9Q_WBQRq1yEc0kRtII"}, {"name": "Nasser Museum", "formatted_address": "Mansheya El-Bakry, Heliopolis, Cairo Governorate, Egypt", "lat": 30.0927689, "lng": 31.3099709, "types": ["museum", "point_of_interest", "establishment"], "place_id": "ChIJi_aHays-WBQRIExrJoNag08"}, {"name": "Entenile", "formatted_address": "53 Gesr El Suez St.، GESR EL SUEZ، Heliopolis, Cairo Governorate, Egypt", "lat": 30.094805, "lng": 31.310252, "types": ["point_of_interest", "establishment"], "place_id": "ChIJZwrF5So-WBQRqWEVuiiTiMw"}, {"name": "Loux", "formatted_address": "Mansheyat Al Bakri, Heliopolis, Cairo Governorate, Egypt", "lat": 30.0947024, "lng": 31.3110171, "types": ["point_of_interest", "establishment"], "place_id": "ChIJb5be-So-WBQRRS2PH1VMBn4"}, {"name": "مسجد العاشر من رمضان", "formatted_address": "شارع Gesr Al Suez, قسم الزيتون، Heliopolis, Cairo Governorate, Egypt", "lat": 30.0960158, "lng": 31.3109359, "types": ["mosque", "place_of_worship", "point_of_interest", "establishment"], "place_id": "ChIJVaSuiCo-WBQRZL1lUCwid5U"}, {"name": "Maraseem", "formatted_address": "Mansheyat Al Bakri, Heliopolis, Cairo Governorate, Egypt", "lat": 30.0929163, "lng": 31.3120591, "types": ["point_of_interest", "establishment"], "place_id": "ChIJn-0-uys-WBQR7TFgM5TjMpY"}, {"name": "جمال عبد الناصر ع للبنات", "formatted_address": "El-Maghraby Ln, El-Zaytoun Sharkeya, Menoufia, 11341, Egypt", "lat": 30.09451169999999, "lng": 31.308781, "types": ["point_of_interest", "establishment"], "place_id": "ChIJIxxzzdQ_WBQRERoLS6KqSO0"}, {"name": "Antaka", "formatted_address": "1 Al Hala, Mansheya El-Bakry, Heliopolis, Cairo Governorate, Egypt", "lat": 30.0937294, "lng": 31.3106442, "types": ["point_of_interest", "establishment"], "place_id": "ChIJ890yGys-WBQRDfGTow3lgh0"}, {"name": "Sun Sera For Paints", "formatted_address": "51 ش حسن الشريف، Mansheya El-Bakry, Heliopolis, Cairo Governorate, Egypt", "lat": 30.09416389999999, "lng": 31.3099653, "types": ["point_of_interest", "establishment"], "place_id": "ChIJqzMPHys-WBQRWyeIipjFtaE"}, {"name": "Touch Wood", "formatted_address": "AZ Zaytoun Ash Sharqeyah, AZ Zaytoun, Cairo Governorate, Egypt", "lat": 30.0949259, "lng": 31.3097501, "types": ["point_of_interest", "establishment"], "place_id": "ChIJA8ty3So-WBQRNIboD8NVYIU"}, {"name": "Scorpion Mix", "formatted_address": "3 Roxy، Mansheya El-Bakry, Heliopolis, Cairo Governorate, Egypt", "lat": 30.09409999999999, "lng": 31.3099, "types": ["point_of_interest", "establishment"], "place_id": "ChIJ4XREHys-WBQRsgq4ENY4CkE"}, {"name": "Take Break", "formatted_address": "شارع الادفاوي،مصر الجديدة،قسم، Mansheya El-Bakry, Heliopolis, Cairo Governorate, Egypt", "lat": 30.0939521, "lng": 31.3100502, "types": ["cafe", "food", "point_of_interest", "establishment"], "place_id": "ChIJ7yl7GSs-WBQRMtwu0rBgMis"}, {"name": "مشويات أبو الدهب", "formatted_address": "شارع الادفاوي،منشية البكري،قسم، Mansheya El-Bakry, Heliopolis, Cairo Governorate, Egypt", "lat": 30.0937891, "lng": 31.3108095, "types": ["restaurant", "food", "point_of_interest", "establishment"], "place_id": "ChIJfVN0BCs-WBQR-iXi7FKK-0w"}, {"name": "هيلثى هاوس", "formatted_address": "شارع الادفاوي،مصر الجديدة،قسم، Mansheya El-Bakry, Heliopolis, Cairo Governorate, Egypt", "lat": 30.0940496, "lng": 31.3102542, "types": ["health", "point_of_interest", "establishment"], "place_id": "ChIJWYQ7HCs-WBQR16GMCOXINUQ"}, {"name": "مسجد الحق", "formatted_address": "شارع Gesr Al Suez, قسم الزيتون، حي سرايا القبة، Cairo Governorate, Egypt", "lat": 30.0939353, "lng": 31.3084746, "types": ["mosque", "place_of_worship", "point_of_interest", "establishment"], "place_id": "ChIJBczYMis-WBQRUtnD9TRUvZw"}, {"name": "Maadi Island", "formatted_address": "Dar Al Salam, Giza Governorate, Egypt", "lat": 29.965527, "lng": 31.239237, "types": ["restaurant", "tourist_attraction", "park", "food", "point_of_interest", "establishment"], "place_id": "ChIJwY7d5MFHWBQRl1nMXlW_tUY"}, {"name": "شركة الفجر", "formatted_address": "60 El-Khalifa El-Maamoun, Mansheya El-Bakry, Heliopolis, Cairo Governorate, Egypt", "lat": 30.0940819, "lng": 31.3105093, "types": ["travel_agency", "point_of_interest", "establishment"], "place_id": "ChIJvRRHAys-WBQR2gIBrJ7cUl4"}, {"name": "Nour El Hoda Mosque", "formatted_address": "AZ Zaytoun Ash Sharqeyah AZ Zaytoun, Cairo Governorate, Egypt", "lat": 30.0956364, "lng": 31.3102284, "types": ["mosque", "place_of_worship", "point_of_interest", "establishment"], "place_id": "ChIJL4PalCo-WBQRaf2M9dT_aOA"}, {"name": "Adel", "formatted_address": "شارع الادفاوي،منشية البكري،قسم، Mansheya El-Bakry, Heliopolis, Cairo Governorate, Egypt", "lat": 30.0937656, "lng": 31.3100802, "types": ["hair_care", "health", "point_of_interest", "establishment"], "place_id": "ChIJl0O5GSs-WBQRNG8AWplnuUI"}, {"name": "Foam W Saboon", "formatted_address": "Al Edfowai, Mansheya El-Bakry, Heliopolis, Cairo Governorate, Egypt", "lat": 30.0939139, "lng": 31.309899, "types": ["car_wash", "point_of_interest", "establishment"], "place_id": "ChIJZzNTGCs-WBQRFjfY7Yj0Wuk"}, {"name": "المشربية كافيه", "formatted_address": "Al Edfowai, Mansheya El-Bakry, Heliopolis, Cairo Governorate, Egypt", "lat": 30.0938234, "lng": 31.3101644, "types": ["cafe", "food", "point_of_interest", "establishment"], "place_id": "ChIJpZJ3mh0_WBQRtGYZhwsJuPQ"}, {"name": "Porto Heliopolis", "formatted_address": "Almazah, Heliopolis, Cairo Governorate, Egypt", "lat": 30.0827031, "lng": 31.348709, "types": ["lodging", "point_of_interest", "establishment"], "place_id": "ChIJR5FCXgE-WBQR471eyuZuvGw"}, {"name": "Heliopolis Sporting Club (HSC)", "formatted_address": "17 El-Sayed El-Marghany, Mansheya El-Bakry, Heliopolis, Cairo Governorate, Egypt", "lat": 30.0883155, "lng": 31.3164398, "types": ["point_of_interest", "establishment"], "place_id": "ChIJB9zy8B4-WBQRz_zRpJte8sA"}, {"name": "Gesr El Suez Bridge El Kobba Intersection", "formatted_address": "جسر السويس، قسم مصر الجديدة،، Cairo Governorate, Egypt", "lat": 30.0957092, "lng": 31.3109896, "types": ["point_of_interest", "establishment"], "place_id": "ChIJqYtfYik_WBQRz1tMTOaQalo"}, {"name": "The Great Pyramid of Giza", "formatted_address": "Al Haram, Nazlet El-Semman, Al Giza Desert, Giza Governorate, Egypt", "lat": 29.9792345, "lng": 31.1342019, "types": ["tourist_attraction", "premise", "point_of_interest", "establishment"], "place_id": "ChIJGymPrIdFWBQRJCSloj8vDIE"}, {"name": "Radisson Blu Hotel, Cairo Heliopolis", "formatted_address": "Abdel Hamid Badawi St Heliopolis, Cairo Governorate 11787, Egypt", "lat": 30.1065093, "lng": 31.3753121, "types": ["lodging", "point_of_interest", "establishment"], "place_id": "ChIJQZJ8fWUWWBQRAUPO9I6SxPg"}, {"name": "Heliopolis Towers Hotel", "formatted_address": "El Shaheed Sayed Zakaria, Sheraton Al Matar, El Nozha, Cairo Governorate 11736, Egypt", "lat": 30.1074763, "lng": 31.3661798, "types": ["lodging", "point_of_interest", "establishment"], "place_id": "ChIJZ9p3820WWBQRmZh2M_MSzOQ"}, {"name": "حبر", "formatted_address": "3 Koleyet Al Tarbeya, Mansheya El-Bakry, Heliopolis, Cairo Governorate, Egypt", "lat": 30.0932394, "lng": 31.311189, "types": ["point_of_interest", "establishment"], "place_id": "ChIJN2HX6E0_WBQRIlk7ntdpTDE"}, {"name": "عماد إبراهيم حسن", "formatted_address": "شارع Gesr Al Suez, قسم الزيتون، حي سرايا القبة، Cairo Governorate, Egypt", "lat": 30.0939183, "lng": 31.3084915, "types": ["lawyer", "point_of_interest", "establishment"], "place_id": "ChIJEzsfMys-WBQRcvkfX6ertXo"}, {"name": "St Michael's Church الكنيسة الأسقفية بالكوربة", "formatted_address": "Baghdad St, El-Montaza, Heliopolis, Cairo Governorate, Egypt", "lat": 30.0884753, "lng": 31.3229984, "types": ["church", "place_of_worship", "point_of_interest", "establishment"], "place_id": "ChIJfaLreiY-WBQRlouIfsEe-o8"}, {"name": "مركز تلوين عمران للدهانات و الفيوتك", "formatted_address": "٤٧ شارع جسر السويس ،امام مدرسة كلية السلام، Mansheya El-Bakry, Heliopolis, Cairo Governorate 11331, Egypt", "lat": 30.094224, "lng": 31.3093252, "types": ["home_goods_store", "general_contractor", "point_of_interest", "store", "establishment"], "place_id": "ChIJ8dp1Jis-WBQR-aloagm_ctk"}, {"name": "Moments", "formatted_address": "٧ أ شارع القبة محطة روكسي قسم، Zeitoun, Cairo Governorate, Egypt", "lat": 30.0947041, "lng": 31.3115719, "types": ["point_of_interest", "store", "establishment"], "place_id": "ChIJcf6aWSo-WBQRCfSgA01vWuU"}, {"name": "Banquet Planner", "formatted_address": "3 روكسى، مصر الجديدة، القاهرة، Cairo Governorate, Egypt", "lat": 30.09410029999999, "lng": 31.3098917, "types": ["point_of_interest", "establishment"], "place_id": "ChIJ4XREHys-WBQRQUD_Ef7Y_dE"}, {"name": "بافلو برجر", "formatted_address": "جسر السويس، الزيتون الشرقية، الزيتون،، Cairo Governorate, Egypt", "lat": 30.09421159999999, "lng": 31.3091402, "types": ["restaurant", "food", "point_of_interest", "establishment"], "place_id": "ChIJN0LcYW8_WBQRdVd7vbvVBIA"}, {"name": "كوبري جسر السويس الجديد", "formatted_address": "جسر السويس، منشية البكري، قسم مصر الجديدة،، Cairo Governorate, Egypt", "lat": 30.094638, "lng": 31.3095723, "types": ["point_of_interest", "establishment"], "place_id": "ChIJoaVKqGQ_WBQRV-KSS3hLuWQ"}, {"name": "Baron Hotel Heliopolis", "formatted_address": "14 Al Baroon, El-Montaza, Heliopolis, Cairo Governorate, Egypt", "lat": 30.0860748, "lng": 31.3314609, "types": ["lodging", "point_of_interest", "establishment"], "place_id": "ChIJUbVOACI-WBQRWsi5B7gYfxs"}, {"name": "Citystars Heliopolis", "formatted_address": "Citystars, Cairo Governorate 11771, Egypt", "lat": 30.0728734, "lng": 31.3458082, "types": ["shopping_mall", "point_of_interest", "establishment"], "place_id": "ChIJo0ecE_gVWBQRGGrouhZFdME"}, {"name": "الأسواني", "formatted_address": "شارع البصري، مصر،منشية البكري، قسم، Heliopolis, Cairo Governorate, Egypt", "lat": 30.093591, "lng": 31.3107005, "types": ["cafe", "food", "point_of_interest", "establishment"], "place_id": "ChIJNeEMBSs-WBQRfu0ya4TGEQE"}, {"name": "Dar El Meamar El Hadeth", "formatted_address": "Mansheya El-Bakry, Heliopolis, Cairo Governorate, Egypt", "lat": 30.0942448, "lng": 31.3092997, "types": ["home_goods_store", "point_of_interest", "store", "establishment"], "place_id": "ChIJ-RjZJSs-WBQR0xcZH-mWTgs"}, {"name": "Bridge For Real Estate Development", "formatted_address": "87 المقريزي، Mansheya El-Bakry, Heliopolis, Cairo Governorate, Egypt", "lat": 30.091005, "lng": 31.311388, "types": ["real_estate_agency", "point_of_interest", "establishment"], "place_id": "ChIJ88PEfSw-WBQRZH6j44VcN_U"}, {"name": "المركز الوطنى المصرى", "formatted_address": "5-الشريف- ميدان روكسى -جسر الجديدة، Suez, Egypt", "lat": 30.0944559, "lng": 31.3104837, "types": ["point_of_interest", "establishment"], "place_id": "ChIJC6VA4yo-WBQR0IT8ZKC-53U"}, {"name": "الأستاذة / سهيلة الهندى", "formatted_address": "شارع Gesr Al Suez, قسم الزيتون, حي سرايا القبة, Cairo Governorate, Egypt", "lat": 30.0950775, "lng": 31.3098411, "types": ["lawyer", "point_of_interest", "establishment"], "place_id": "ChIJy5sF6Co-WBQRXSJOkyoBU_k"}, {"name": "الزوز - El Zoz", "formatted_address": "Al Edfowai, Mansheya El-Bakry, Heliopolis, Cairo Governorate, Egypt", "lat": 30.0938759, "lng": 31.3098965, "types": ["restaurant", "food", "point_of_interest", "establishment"], "place_id": "ChIJ33ACSOQ_WBQRqkzUUiesGPM"}, {"name": "Natey style", "formatted_address": "Al Edfowai, Mansheya El-Bakry, Heliopolis, Cairo Governorate, Egypt", "lat": 30.0938016, "lng": 31.310012, "types": ["hair_care", "health", "point_of_interest", "establishment"], "place_id": "ChIJ4xGXYwQ_WBQRjrZQ4Fg4UI8"}, {"name": "WMF", "formatted_address": "ش Gesr Al Suez, قسم السويس، Heliopolis, Cairo Governorate, Egypt", "lat": 30.0950884, "lng": 31.3106234, "types": ["cafe", "food", "point_of_interest", "establishment"], "place_id": "ChIJvwXs8So-WBQR4-DVgpKqc68"}, {"name": "Collection", "formatted_address": "Mansheyat Al Bakri, Heliopolis, Cairo Governorate, Egypt", "lat": 30.09472869999999, "lng": 31.3115056, "types": ["book_store", "point_of_interest", "store", "establishment"], "place_id": "ChIJIzGkWSo-WBQR8Xt0cW42ie8"}, {"name": "PRISM Entertainment - Roxy", "formatted_address": "7 Al Ashgar, Mansheya El-Bakry, Heliopolis, Cairo Governorate, Egypt", "lat": 30.0932862, "lng": 31.3136319, "types": ["electronics_store", "home_goods_store", "point_of_interest", "store", "establishment"], "place_id": "ChIJ2bcZ0ys-WBQRX4ODYHi2jeQ"}, {"name": "Heliopolis Company For Housing & Development", "formatted_address": "28 Ibrahim Al Lakani, El-Montaza, Heliopolis, Cairo Governorate, Egypt", "lat": 30.089427, "lng": 31.32091599999999, "types": ["general_contractor", "point_of_interest", "establishment"], "place_id": "ChIJeUp1DiY-WBQRkHRQbiaGSrA"}, {"name": "Polo Factory", "formatted_address": "Al Kandi, Mansheya El-Bakry, Heliopolis, Cairo Governorate, Egypt", "lat": 30.0940911, "lng": 31.3098432, "types": ["shopping_mall", "point_of_interest", "establishment"], "place_id": "ChIJ47KV55w_WBQRnguIEvSmPjk"}, {"name": "Golden Park Hotel", "formatted_address": "شارع الحجاز ، مصر الجديده، 221 شارع الحجاز ، هيليوبوليس ،، El Nozha, Cairo Governorate, Egypt", "lat": 30.1153686, "lng": 31.3525102, "types": ["lodging", "point_of_interest", "establishment"], "place_id": "ChIJsQQdRNgVWBQRss6fVxNFk_8"}, {"name": "برازر", "formatted_address": "Mansheyat Al Bakri, Heliopolis, Cairo Governorate, Egypt", "lat": 30.0915025, "lng": 31.3076617, "types": ["book_store", "point_of_interest", "store", "establishment"], "place_id": "ChIJq3CPRdM_WBQRHxbYkr7MZLU"}, {"name": "مؤسسة الميزان للمحاماه", "formatted_address": "شارع Gesr Al Suez, قسم الزيتون، حي سرايا القبة، Cairo Governorate, Egypt", "lat": 30.0950633, "lng": 31.3098266, "types": ["lawyer", "point_of_interest", "establishment"], "place_id": "ChIJAYQB6Co-WBQR4brIySbEkmk"}, {"name": "Dr. Mohamed A Baky Fahmy, Pediatricsurgeon", "formatted_address": "Gesr Al Suez, روكسي، Heliopolis, Cairo Governorate, Egypt", "lat": 30.0957096, "lng": 31.3110583, "types": ["doctor", "health", "point_of_interest", "establishment"], "place_id": "ChIJ7YAZfSo-WBQRY-gcs9ecBxg"}, {"name": "قهوه المشرابيه", "formatted_address": "منشية البكري، قسم مصر الجديدة،، Cairo Governorate, Egypt", "lat": 30.0939351, "lng": 31.310141, "types": ["restaurant", "food", "point_of_interest", "establishment"], "place_id": "ChIJf7MniEE_WBQRYLz4HHDUuAA"}, {"name": "Sonesta Hotel Tower & Casino Cairo", "formatted_address": "3 El Tayaran St, Ash Sharekat, Nasr City, Cairo Governorate, Egypt", "lat": 30.0789591, "lng": 31.3175599, "types": ["casino", "lodging", "point_of_interest", "establishment"], "place_id": "ChIJKYApCUc-WBQROTn4JL8ozhI"}, {"name": "مجدى", "formatted_address": "شارع Gesr Al Suez, قسم الزيتون، Heliopolis, Cairo Governorate, Egypt", "lat": 30.0936319, "lng": 31.3081169, "types": ["pet_store", "point_of_interest", "store", "establishment"], "place_id": "ChIJ1SM8ytQ_WBQROmV5ac0w0rU"}]