[{"name": "Ittihadia Palace", "formatted_address": "Al Nadi، El-Montaza, Heliopolis, Cairo Governorate, Egypt", "lat": 30.0888643, "lng": 31.3193929, "types": ["tourist_attraction", "premise", "point_of_interest", "establishment"], "place_id": "ChIJuftqUS8-WBQRtM7fDk0QcPk"}, {"name": "Our Lady of Heliopolis Co-Cathedral", "formatted_address": "Nazih Khalifa crossroad، Al Ahram, Heliopolis, Cairo Governorate, Egypt", "lat": 30.0935707, "lng": 31.3251828, "types": ["church", "place_of_worship", "point_of_interest", "establishment"], "place_id": "ChIJJdgh-okVWBQR5TqTmKuQ0IM"}, {"name": "Baron Empain Palace", "formatted_address": "El-Orouba, El-Montaza, Heliopolis, Cairo Governorate 11757, Egypt", "lat": 30.0866701, "lng": 31.3303332, "types": ["point_of_interest", "establishment"], "place_id": "ChIJ1_GM8iE-WBQRLNVi-RT7vDA"}, {"name": "Abou El Naby6", "formatted_address": "Al Bustan, Heliopolis, Cairo Governorate, Egypt", "lat": 30.1007756, "lng": 31.3282516, "types": ["point_of_interest", "establishment"], "place_id": "ChIJI4wdp40VWBQRS-z2tLrAPSc"}, {"name": "El Sherok", "formatted_address": "Al Bustan, Heliopolis, Cairo Governorate, Egypt", "lat": 30.1009981, "lng": 31.3278088, "types": ["point_of_interest", "establishment"], "place_id": "ChIJb92fpI0VWBQRDYu58s7Xw8A"}, {"name": "Gezart Elsheikh", "formatted_address": "Aswan, El-Bostan, Heliopolis, Cairo Governorate, Egypt", "lat": 30.1000861, "lng": 31.3277738, "types": ["point_of_interest", "establishment"], "place_id": "ChIJZ9L7wF4VWBQRk2z_UNkHrWc"}, {"name": "مركز خدمة هوفر الشريف", "formatted_address": "Al Bustan, Heliopolis, Cairo Governorate, Egypt", "lat": 30.100565, "lng": 31.3279619, "types": ["point_of_interest", "establishment"], "place_id": "ChIJlQ8Xr40VWBQRN573xWQwS_0"}, {"name": "El Ekhwa", "formatted_address": "29 Damanhour, El-Bostan, Heliopolis, Cairo Governorate, Egypt", "lat": 30.1007752, "lng": 31.3310425, "types": ["point_of_interest", "establishment"], "place_id": "ChIJj_XaS40VWBQRpyTZlViXwtw"}, {"name": "El Khaleil", "formatted_address": "Al Bustan, Heliopolis, Cairo Governorate, Egypt", "lat": 30.099725, "lng": 31.3293152, "types": ["point_of_interest", "establishment"], "place_id": "ChIJszgKHY0VWBQR5bFbblXY7vg"}, {"name": "Kasr El Mafroshat", "formatted_address": "32 Al Mataria, El-Bostan, Heliopolis, Cairo Governorate, Egypt", "lat": 30.09992969999999, "lng": 31.3282808, "types": ["point_of_interest", "establishment"], "place_id": "ChIJ3yXsqo0VWBQRcN0ML6jDI3w"}, {"name": "Mohamed Ali Omran", "formatted_address": "Al Bustan, Heliopolis, Cairo Governorate, Egypt", "lat": 30.1006002, "lng": 31.3272553, "types": ["point_of_interest", "establishment"], "place_id": "ChIJlXjpto0VWBQR2BI8vUSKGno"}, {"name": "Compu Used", "formatted_address": "Al Mataria, El-Bostan, Heliopolis, Cairo Governorate, Egypt", "lat": 30.0996054, "lng": 31.3279493, "types": ["point_of_interest", "establishment"], "place_id": "ChIJk4ZuUYwVWBQRJndjmmu38zs"}, {"name": "Hassen Kala", "formatted_address": "Al Bustan, Heliopolis, Cairo Governorate, Egypt", "lat": 30.0995791, "lng": 31.3301935, "types": ["point_of_interest", "establishment"], "place_id": "ChIJcZ5OIY0VWBQRRP3_aPr0yTE"}, {"name": "Hajoo Designs", "formatted_address": "Aswan, El-Bostan, Heliopolis, Cairo Governorate, Egypt", "lat": 30.1001404, "lng": 31.3277941, "types": ["point_of_interest", "establishment"], "place_id": "ChIJZftsrY0VWBQRyoslBPkTz3E"}, {"name": "Beirut", "formatted_address": "Al Mataria, El-Bostan, Heliopolis, Cairo Governorate, Egypt", "lat": 30.0999512, "lng": 31.3283028, "types": ["point_of_interest", "establishment"], "place_id": "ChIJ3yXsqo0VWBQRmdeIM2GVLPQ"}, {"name": "El Gezira", "formatted_address": "Al Bustan, Heliopolis, Cairo Governorate, Egypt", "lat": 30.1004521, "lng": 31.3275795, "types": ["point_of_interest", "establishment"], "place_id": "ChIJR22ws40VWBQRrCb0CaRVnC4"}, {"name": "Garo", "formatted_address": "Al Bustan, Heliopolis, Cairo Governorate, Egypt", "lat": 30.0993336, "lng": 31.3287413, "types": ["point_of_interest", "establishment"], "place_id": "ChIJGT34-4wVWBQRNdgskFNzDmk"}, {"name": "Ramez Kamal", "formatted_address": "Al Bustan, Heliopolis, Cairo Governorate, Egypt", "lat": 30.102096, "lng": 31.3281157, "types": ["point_of_interest", "establishment"], "place_id": "ChIJYTIhhI0VWBQRDm1X7wQ2T98"}, {"name": "Ever Best", "formatted_address": "Al Bustan, Heliopolis, Cairo Governorate, Egypt", "lat": 30.1007433, "lng": 31.3275005, "types": ["point_of_interest", "establishment"], "place_id": "ChIJ9-qfsI0VWBQRjqFTBsUu1i0"}, {"name": "El Sayeda Zeinab Atelier", "formatted_address": "94 Al Mataria, El-Bostan, Heliopolis, Cairo Governorate, Egypt", "lat": 30.0999512, "lng": 31.3283028, "types": ["point_of_interest", "establishment"], "place_id": "ChIJY-3Eqo0VWBQRnvEqPWplfVM"}, {"name": "El Sayad El Maher", "formatted_address": "Al Bustan, Heliopolis, Cairo Governorate, Egypt", "lat": 30.1009658, "lng": 31.3278522, "types": ["point_of_interest", "establishment"], "place_id": "ChIJybyEpI0VWBQRWEtqi9RAUjI"}, {"name": "Abdeen Palace Museum", "formatted_address": "شارع جمعه عابدين،، El-Gomhoreya Square, Rahbet Abdin, Abdeen, Cairo Governorate, Egypt", "lat": 30.0422696, "lng": 31.248544, "types": ["tourist_attraction", "museum", "point_of_interest", "establishment"], "place_id": "ChIJF_ZR9bpAWBQR_WeDJloU-7o"}, {"name": "Awlad Soliman-Glass & Mirror", "formatted_address": "Al Bustan, Heliopolis, Cairo Governorate, Egypt", "lat": 30.100268, "lng": 31.3275589, "types": ["point_of_interest", "establishment"], "place_id": "ChIJn5tWso0VWBQRJMTwhDDDEVo"}, {"name": "Hady Phone", "formatted_address": "ش السنترال، بلبيس، Heliopolis, Ash Sharqia Governorate, Egypt", "lat": 30.0998208, "lng": 31.3296214, "types": ["point_of_interest", "establishment"], "place_id": "ChIJX1LEHo0VWBQReMAKN08jSMI"}, {"name": "Karam Showroom", "formatted_address": "21 El-Reyad, El-Bostan, Heliopolis, Cairo Governorate, Egypt", "lat": 30.1000387, "lng": 31.329836, "types": ["point_of_interest", "establishment"], "place_id": "ChIJ68MRGI0VWBQR_xuYsuOfkVA"}, {"name": "Ahbab Al El Beit", "formatted_address": "5 El Ashlaa St.، El-Bostan, Heliopolis, Cairo Governorate, Egypt", "lat": 30.1007058, "lng": 31.3293375, "types": ["point_of_interest", "establishment"], "place_id": "ChIJtbCzE40VWBQRTXLsPFWthVI"}, {"name": "Abdel Qawy", "formatted_address": "35 ش المطرية، El-Bostan, Heliopolis, Cairo Governorate, Egypt", "lat": 30.1000004, "lng": 31.3283183, "types": ["point_of_interest", "establishment"], "place_id": "ChIJ3yXsqo0VWBQRBgmj9UOwYrU"}, {"name": "Mohamed Ibrahim", "formatted_address": "1 Al Ezbah, El-Bostan, Heliopolis, Cairo Governorate, Egypt", "lat": 30.1005257, "lng": 31.329836, "types": ["point_of_interest", "establishment"], "place_id": "ChIJMVYVPo0VWBQRyf8ukTPnDN0"}, {"name": "Reda", "formatted_address": "Al Bustan, Heliopolis, Cairo Governorate, Egypt", "lat": 30.09904319999999, "lng": 31.3282275, "types": ["point_of_interest", "establishment"], "place_id": "ChIJZTQrX4wVWBQRD7VmrCk5e7U"}, {"name": "Fahim", "formatted_address": "74 ش المطرية، El-Bostan, Heliopolis, Cairo Governorate, Egypt", "lat": 30.1000004, "lng": 31.3283183, "types": ["point_of_interest", "establishment"], "place_id": "ChIJ3yXsqo0VWBQRKmRQzi25pn8"}, {"name": "Abou Saleh Sat", "formatted_address": "ش ابو بكر الصديق، بلبيس، Heliopolis, Ash Sharqia Governorate, Egypt", "lat": 30.1000922, "lng": 31.3296596, "types": ["point_of_interest", "establishment"], "place_id": "ChIJ5SS0GY0VWBQRqz-BvhJFW5M"}, {"name": "El Badrawy Sons", "formatted_address": "ش 144، El-Bostan, Heliopolis, Cairo Governorate, Egypt", "lat": 30.1000004, "lng": 31.3283183, "types": ["point_of_interest", "establishment"], "place_id": "ChIJ3yXsqo0VWBQRoFOpvvepkbc"}, {"name": "Soft Dream", "formatted_address": "38 ش الرياض، El-Bostan, Heliopolis, Cairo Governorate, Egypt", "lat": 30.1002414, "lng": 31.32981479999999, "types": ["point_of_interest", "establishment"], "place_id": "ChIJZ2_bF40VWBQRRwPRTWqmJWw"}, {"name": "El Anani", "formatted_address": "ش النفق، وسط البلد، اسوان، Cairo Governorate, Egypt", "lat": 30.1001404, "lng": 31.3277941, "types": ["point_of_interest", "establishment"], "place_id": "ChIJZftsrY0VWBQRgMarGR3TB1U"}, {"name": "El Sharqawy", "formatted_address": "30 ش المطرية، El-Bostan, Heliopolis, Cairo Governorate, Egypt", "lat": 30.1000004, "lng": 31.3283183, "types": ["point_of_interest", "establishment"], "place_id": "ChIJ3yXsqo0VWBQRKZin8rXTKQ0"}, {"name": "First Advertising", "formatted_address": "2 متفرع من ش هارون الرشيد - ميدان الجامع، مصر الجديدة، القاهرة، Cairo Governorate, Egypt", "lat": 30.100173, "lng": 31.328159, "types": ["point_of_interest", "establishment"], "place_id": "ChIJKVyVq40VWBQRCp2i8DuUIC0"}, {"name": "Tamima Enterfast", "formatted_address": "60 el horreya st.، El-Bostan, Heliopolis, Cairo Governorate, Egypt", "lat": 30.1000004, "lng": 31.3283183, "types": ["point_of_interest", "establishment"], "place_id": "ChIJl51JmwAVWBQRcZ7jr17TKzE"}, {"name": "Map Trading Agency", "formatted_address": "2 Aswan St.، El-Bostan, Heliopolis, Cairo Governorate, Egypt", "lat": 30.1001404, "lng": 31.3277941, "types": ["point_of_interest", "establishment"], "place_id": "ChIJZftsrY0VWBQRli2IWbKgN-Q"}, {"name": "El Pharouneya For Trade & Air Condition", "formatted_address": "94 ش المطرية، El-Bostan, Heliopolis, Cairo Governorate, Egypt", "lat": 30.1000004, "lng": 31.3283183, "types": ["point_of_interest", "establishment"], "place_id": "ChIJ3yXsqo0VWBQRrA4neuPtN2Y"}, {"name": "Flora Market co.", "formatted_address": "ميدان المحكمة، مصر الجديدة، القاهرة، Cairo Governorate, Egypt", "lat": 30.101609, "lng": 31.329389, "types": ["point_of_interest", "establishment"], "place_id": "ChIJ732RZY0VWBQRvtCm7c_v7gQ"}, {"name": "Mahmoued Hasan Mesbah", "formatted_address": "Al Bustan, Heliopolis, Cairo Governorate, Egypt", "lat": 30.1017311, "lng": 31.329989, "types": ["point_of_interest", "establishment"], "place_id": "ChIJ-Zp3Xo0VWBQR3FfV5JZHnzc"}, {"name": "El Bostan", "formatted_address": "Al Bustan, Heliopolis, Cairo Governorate, Egypt", "lat": 30.0998066, "lng": 31.3308302, "types": ["point_of_interest", "establishment"], "place_id": "ChIJp4AiLo0VWBQRV9hMD5eKzR0"}, {"name": "El Etehad", "formatted_address": "Al Bustan, Heliopolis, Cairo Governorate, Egypt", "lat": 30.1024053, "lng": 31.3281157, "types": ["point_of_interest", "establishment"], "place_id": "ChIJB6DQgI0VWBQRnLOiEmWTFyo"}, {"name": "El Kasr", "formatted_address": "70 ش المطرية، El-Bostan, Heliopolis, Cairo Governorate, Egypt", "lat": 30.1000004, "lng": 31.3283183, "types": ["point_of_interest", "establishment"], "place_id": "ChIJ3yXsqo0VWBQRm773b842SDI"}, {"name": "Sayed Sons For Carpets", "formatted_address": "19 aswan st.، El-Bostan, Heliopolis, Cairo Governorate, Egypt", "lat": 30.1001404, "lng": 31.3277941, "types": ["point_of_interest", "establishment"], "place_id": "ChIJwwMjC40VWBQRakAxMfvFz_4"}, {"name": "Smart For Trading", "formatted_address": "5 ش اسوان، El-Bostan, Heliopolis, Cairo Governorate, Egypt", "lat": 30.1001404, "lng": 31.3277941, "types": ["point_of_interest", "establishment"], "place_id": "ChIJZftsrY0VWBQRdN08L5QqKQE"}, {"name": "El Saada-Flowers", "formatted_address": "Al Bustan, Heliopolis, Cairo Governorate, Egypt", "lat": 30.0989305, "lng": 31.3266402, "types": ["point_of_interest", "establishment"], "place_id": "ChIJ5x52FowVWBQR5MOBn-tvBas"}, {"name": "Options Advertising", "formatted_address": "14 ش محمد باشا رياض، El-Bostan, Heliopolis, Cairo Governorate, Egypt", "lat": 30.1002482, "lng": 31.3298211, "types": ["point_of_interest", "establishment"], "place_id": "ChIJZ2_bF40VWBQR9ReIMlOiIc0"}, {"name": "Abou El Naga Trade", "formatted_address": "18 Aswan St.، El-Bostan, Heliopolis, Cairo Governorate, Egypt", "lat": 30.1001404, "lng": 31.3277941, "types": ["point_of_interest", "establishment"], "place_id": "ChIJxWBYAA0VWBQRrpsIkrU5AfQ"}, {"name": "Salah El Din Salama Taha", "formatted_address": "161 ش المطرية، El-Bostan, Heliopolis, Cairo Governorate, Egypt", "lat": 30.1000004, "lng": 31.3283183, "types": ["point_of_interest", "establishment"], "place_id": "ChIJ3yXsqo0VWBQRs_sw0tV_V7U"}, {"name": "Mizo Clean", "formatted_address": "94 ش المطرية، El-Bostan, Heliopolis, Cairo Governorate, Egypt", "lat": 30.1000004, "lng": 31.3283183, "types": ["point_of_interest", "establishment"], "place_id": "ChIJ3yXsqo0VWBQR94vABmt-lwY"}, {"name": "Ecko For Bedding", "formatted_address": "ش 128، El-Bostan, Heliopolis, Cairo Governorate, Egypt", "lat": 30.1000004, "lng": 31.3283183, "types": ["point_of_interest", "establishment"], "place_id": "ChIJ3yXsqo0VWBQRfZWf7bt7GU4"}, {"name": "Hassan Hamdi", "formatted_address": "70 ش المطرية، El-Bostan, Heliopolis, Cairo Governorate, Egypt", "lat": 30.1000004, "lng": 31.3283183, "types": ["point_of_interest", "establishment"], "place_id": "ChIJ3yXsqo0VWBQR5xQwnSmDsrU"}, {"name": "Go Heliopolis - Khozam The First Compound In Heliopolis", "formatted_address": "شارع النزهة، مصر الجديدة،، Egypt", "lat": 30.0732268, "lng": 31.3397646, "types": ["lodging", "point_of_interest", "establishment"], "place_id": "ChIJZ7ZHBKs_WBQRJD3Ntp2Q_ww"}, {"name": "مسجد الصفا و المروه", "formatted_address": "Al Ashlaa, El-Bostan, Heliopolis, Cairo Governorate, Egypt", "lat": 30.1008246, "lng": 31.3293033, "types": ["mosque", "place_of_worship", "point_of_interest", "establishment"], "place_id": "ChIJy-3jEo0VWBQRwR0V1QuKK5o"}, {"name": "Misr Pharmaceutical Industries", "formatted_address": "92 ش المطرية، El-Bostan, Heliopolis, Cairo Governorate, Egypt", "lat": 30.1000004, "lng": 31.3283183, "types": ["point_of_interest", "establishment"], "place_id": "ChIJ3yXsqo0VWBQRU1R1GZ0pIrE"}, {"name": "معهد مصر الجديدة أسوان الابتدائي", "formatted_address": "شارع اسوان، البستان، قسم مصر الجديدة،، Cairo Governorate, Egypt", "lat": 30.1007782, "lng": 31.3286144, "types": ["primary_school", "school", "point_of_interest", "establishment"], "place_id": "ChIJ-5PBgR8VWBQRIdhwWm0Qwwk"}, {"name": "Maadi Island", "formatted_address": "Dar Al Salam, Giza Governorate, Egypt", "lat": 29.965527, "lng": 31.239237, "types": ["restaurant", "tourist_attraction", "park", "food", "point_of_interest", "establishment"], "place_id": "ChIJwY7d5MFHWBQRl1nMXlW_tUY"}, {"name": "Arouset Lebanon Atelier", "formatted_address": "94 ش المطرية، El-Bostan, Heliopolis, Cairo Governorate, Egypt", "lat": 30.1000004, "lng": 31.3283183, "types": ["point_of_interest", "establishment"], "place_id": "ChIJ3yXsqo0VWBQRTOMcHIwRJc4"}, {"name": "Porto Heliopolis", "formatted_address": "Almazah, Heliopolis, Cairo Governorate, Egypt", "lat": 30.0827031, "lng": 31.348709, "types": ["lodging", "point_of_interest", "establishment"], "place_id": "ChIJR5FCXgE-WBQR471eyuZuvGw"}]