[{"name": "مؤسسة علاج الخيرية لرعاية أطفال السكري", "formatted_address": "٦١ شارع فتحي القشلان عمارات ألماظة أمام مطار ألماظة الجوي من، Hussein Kamel, سليم، Egypt", "lat": 31.3568954, "types": ["point_of_interest", "establishment"], "place_id": "ChIJuWH5fzk9WBQRhaRF9PzRvNQ"}, {"name": "Ittihadia Palace", "formatted_address": "Al Nadi، El-Montaza, Heliopolis, Cairo Governorate, Egypt", "lat": 31.3193929, "types": ["tourist_attraction", "premise", "point_of_interest", "establishment"], "place_id": "ChIJuftqUS8-WBQRtM7fDk0QcPk"}, {"name": "Bon Voyage", "formatted_address": "16 Adly, Al Fawalah, Abdeen, Cairo Governorate, Egypt", "lat": 31.244439, "types": ["tourist_attraction", "point_of_interest", "establishment"], "place_id": "ChIJJZ3TEL5AWBQRc-PhG_sO-S0"}, {"name": "Baron Empain Palace", "formatted_address": "El-Orouba, El-Montaza, Heliopolis, Cairo Governorate 11757, Egypt", "lat": 31.3303332, "types": ["point_of_interest", "establishment"], "place_id": "ChIJ1_GM8iE-WBQRLNVi-RT7vDA"}, {"name": "El Sadaqa Showroom For Shoes", "formatted_address": "6 ش مسجد الصداقة، سيدى بشر قبلى، الاسكندرية، Cairo Governorate, Egypt", "lat": 31.35412419999999, "types": ["point_of_interest", "establishment"], "place_id": "ChIJBUrmgQA-WBQRmWdJlebPxKo"}, {"name": "مسجد الجمعية الشرعية", "formatted_address": "Almazah, Heliopolis, Cairo Governorate, Egypt", "lat": 31.35444739999999, "types": ["mosque", "place_of_worship", "point_of_interest", "establishment"], "place_id": "ChIJKcKZK_49WBQR-k46eN8NtoY"}, {"name": "Omar Omran Central", "formatted_address": "561 ش مسجد الصداقة، سيدى بشر قبلى، الاسكندرية، Cairo Governorate, Egypt", "lat": 31.35412419999999, "types": ["point_of_interest", "establishment"], "place_id": "ChIJBUrmgQA-WBQRvYvHg2-aAd8"}, {"name": "Our Lady of Heliopolis Co-Cathedral", "formatted_address": "Nazih Khalifa crossroad، Al Ahram, Heliopolis, Cairo Governorate, Egypt", "lat": 31.3251828, "types": ["church", "place_of_worship", "point_of_interest", "establishment"], "place_id": "ChIJJdgh-okVWBQR5TqTmKuQ0IM"}, {"name": "Fabco Co. For Trade", "formatted_address": "310 Al Rahman Mosque St.، Almazah, Heliopolis, Cairo Governorate, Egypt", "lat": 31.35412419999999, "types": ["point_of_interest", "establishment"], "place_id": "ChIJDUHCgYBAWBQR6CMfHXradXw"}, {"name": "Artillery Officers House", "formatted_address": "26 El-Thawra St, Masaken Al Mohandesin, Nasr City, Cairo Governorate, Egypt", "lat": 31.3538881, "types": ["point_of_interest", "establishment"], "place_id": "ChIJ_we0WBs-WBQRnpOK6RpDB_0"}, {"name": "Teriesta", "formatted_address": "8 ش مسجد الصداقة، سيدى بشر، الاسكندرية، Cairo Governorate, Egypt", "lat": 31.35412419999999, "types": ["point_of_interest", "establishment"], "place_id": "ChIJBUrmgQA-WBQRZFFJpPYhLcU"}, {"name": "Citystars Heliopolis", "formatted_address": "Citystars, Cairo Governorate 11771, Egypt", "lat": 31.3458082, "types": ["shopping_mall", "point_of_interest", "establishment"], "place_id": "ChIJo0ecE_gVWBQRGGrouhZFdME"}, {"name": "City Centre Almaza", "formatted_address": "Passage Inside Almaza Airport, Sheraton Al Matar, El Nozha, Cairo Governorate, Egypt", "lat": 31.3651812, "types": ["shopping_mall", "point_of_interest", "establishment"], "place_id": "ChIJae0gF_g9WBQRz6pWyx0wl7U"}, {"name": "Computer & Communication Concept - C & CC", "formatted_address": "6 Aflaton St.، Masaken Al Mohandesin, Heliopolis, Cairo Governorate, Egypt", "lat": 31.344988, "types": ["point_of_interest", "establishment"], "place_id": "ChIJVznwLfEVWBQR_2KCGtndzME"}, {"name": "Dr. Mohamed Heliopolis Clinic", "formatted_address": "Mosteshfa Heleobles, Almazah, Heliopolis, Cairo Governorate, Egypt", "lat": 31.3540834, "types": ["health", "point_of_interest", "establishment"], "place_id": "ChIJDU7AgQA-WBQRA1P1LRIiNj0"}, {"name": "Madbouly Fathy Bayoumi", "formatted_address": "13 ش ابو الحسن، العتبة، El Mosky, Cairo Governorate, Egypt", "lat": 31.24647969999999, "types": ["point_of_interest", "establishment"], "place_id": "ChIJLyLEbpZAWBQRzhK5iRoDsMI"}, {"name": "Maadi Island", "formatted_address": "Dar Al Salam, Giza Governorate, Egypt", "lat": 31.239237, "types": ["restaurant", "tourist_attraction", "park", "food", "point_of_interest", "establishment"], "place_id": "ChIJwY7d5MFHWBQRl1nMXlW_tUY"}, {"name": "InterContinental Citystars Cairo, an IHG Hotel", "formatted_address": "Omar Ibn El Khattab، Street، Cairo Governorate 11737, Egypt", "lat": 31.3478955, "types": ["lodging", "point_of_interest", "establishment"], "place_id": "ChIJJYCniw4-WBQRDaNySSZ_iuI"}, {"name": "Loleate Almaza", "formatted_address": "Almazah, Heliopolis, Cairo Governorate, Egypt", "lat": 31.3540873, "types": ["cafe", "food", "point_of_interest", "establishment"], "place_id": "ChIJmS0ChQA-WBQRkde7RLgmioc"}, {"name": "The Great Pyramid of Giza", "formatted_address": "Al Haram, Nazlet El-Semman, Al Giza Desert, Giza Governorate, Egypt", "lat": 31.1342019, "types": ["tourist_attraction", "premise", "point_of_interest", "establishment"], "place_id": "ChIJGymPrIdFWBQRJCSloj8vDIE"}, {"name": "Sharei’a Association Hospital For Premature Infants & Newborns", "formatted_address": "ش الشهيد اسماعيل موسى، Almazah, Heliopolis, Cairo Governorate, Egypt", "lat": 31.3545047, "types": ["hospital", "health", "point_of_interest", "establishment"], "place_id": "ChIJA_GC0_89WBQR5tsT1zXMxTs"}, {"name": "مستشفي ألماظة الجكعية الخيرية للحضانات", "formatted_address": "87 إسماعيل موسى، الماظة، قسم مصر الجديدة، محافظة القاهرة‬،، Egypt", "lat": 31.3544834, "types": ["hospital", "health", "point_of_interest", "establishment"], "place_id": "ChIJB53IDNc9WBQRmF8vjBy-_xo"}, {"name": "حضانات الجمعيه الشرعيه ألماظه", "formatted_address": "79-81 إسماعيل موسى، الماظة، قسم مصر الجديدة، محافظة القاهرة‬،، Egypt", "lat": 31.3545866, "types": ["hospital", "health", "point_of_interest", "establishment"], "place_id": "ChIJv4z8CK89WBQRGVf0fHktVj8"}, {"name": "Almaza koshk", "formatted_address": "42 Ismail Mousa, Almazah, Heliopolis, Cairo Governorate, Egypt", "lat": 31.3548946, "types": ["cafe", "food", "point_of_interest", "store", "establishment"], "place_id": "ChIJeUJys2M9WBQRJUh68BTpiyc"}, {"name": "Almaza Neonatal Hospital", "formatted_address": "79-81 Ismail Mousa, Almazah, Heliopolis, Cairo Governorate, Egypt", "lat": 31.3545639, "types": ["hospital", "health", "point_of_interest", "establishment"], "place_id": "ChIJUR9m0_89WBQR1TuuFwVpz-w"}, {"name": "صوت الفن", "formatted_address": "16 Adly, Bab Al Louq, Abdeen, Cairo Governorate, Egypt", "lat": 31.244439, "types": ["point_of_interest", "establishment"], "place_id": "ChIJ__8vEb5AWBQRqaCYbvGsNWU"}, {"name": "Hadis El Madinh", "formatted_address": "Almazah, Heliopolis, Cairo Governorate, Egypt", "lat": 31.35398919999999, "types": ["point_of_interest", "establishment"], "place_id": "ChIJsRmCgQA-WBQR3pthDKzzT2o"}, {"name": "Heliopolis Towers Hotel", "formatted_address": "El Shaheed Sayed Zakaria, Sheraton Al Matar, El Nozha, Cairo Governorate 11736, Egypt", "lat": 31.3661798, "types": ["lodging", "point_of_interest", "establishment"], "place_id": "ChIJZ9p3820WWBQRmZh2M_MSzOQ"}, {"name": "Radisson Blu Hotel, Cairo Heliopolis", "formatted_address": "Abdel Hamid Badawi St Heliopolis, Cairo Governorate 11787, Egypt", "lat": 31.3753121, "types": ["lodging", "point_of_interest", "establishment"], "place_id": "ChIJQZJ8fWUWWBQRAUPO9I6SxPg"}, {"name": "El Hoda", "formatted_address": "24 Kasr Al Nile, Al Fawalah, Abdeen, Cairo Governorate, Egypt", "lat": 31.2452942, "types": ["point_of_interest", "establishment"], "place_id": "ChIJFZPhA5ZAWBQRP4koznlYeUU"}, {"name": "Layale Zman", "formatted_address": "Almazah, Heliopolis, Cairo Governorate, Egypt", "lat": 31.3538559, "types": ["point_of_interest", "establishment"], "place_id": "ChIJNxOQgwA-WBQRZxteUEyoeh4"}, {"name": "Ego Cafe", "formatted_address": "Fathi Al Ashlan, Almazah, Heliopolis, Cairo Governorate, Egypt", "lat": 31.3535824, "types": ["cafe", "food", "point_of_interest", "establishment"], "place_id": "ChIJY0dPhAA-WBQR2ess2XWBSQc"}, {"name": "Misr El Dawleya", "formatted_address": "96 ش محمد فريد، وسط البلد، Abdeen, Cairo Governorate, Egypt", "lat": 31.2442814, "types": ["point_of_interest", "establishment"], "place_id": "ChIJYaZ29JVAWBQRfDHDvqzkKAg"}, {"name": "IDP Education & IELTS Testing - Cairo", "formatted_address": "31 Omar Bekir St off Othman Ibn Afan St, Othman Ibn Affan, Nozha, Cairo Governorate 11361, Egypt", "lat": 31.348553, "types": ["point_of_interest", "establishment"], "place_id": "ChIJYWJmM-EVWBQRsRn2yOGljFo"}, {"name": "Golden Park Hotel", "formatted_address": "شارع الحجاز ، مصر الجديده، 221 شارع الحجاز ، هيليوبوليس ،، El Nozha, Cairo Governorate, Egypt", "lat": 31.3525102, "types": ["lodging", "point_of_interest", "establishment"], "place_id": "ChIJsQQdRNgVWBQRss6fVxNFk_8"}, {"name": "TOLIP El Galaa - Heliopolis", "formatted_address": "El Orouba St, Sheraton Al Matar, El Nozha, Cairo Governorate, Egypt", "lat": 31.3490226, "types": ["lodging", "point_of_interest", "establishment"], "place_id": "ChIJvyeGu-QVWBQRkPqc2rg6IsE"}, {"name": "Gold Watch", "formatted_address": "23 Adly St.، DOWNTOWN، Abdeen, Cairo Governorate, Egypt", "lat": 31.2438927, "types": ["point_of_interest", "establishment"], "place_id": "ChIJ410GPb5AWBQRbuArHVt4z0s"}, {"name": "Baron Hotel Heliopolis", "formatted_address": "14 Al Baroon, El-Montaza, Heliopolis, Cairo Governorate, Egypt", "lat": 31.3314609, "types": ["lodging", "point_of_interest", "establishment"], "place_id": "ChIJUbVOACI-WBQRWsi5B7gYfxs"}, {"name": "Hedeya Heliopolis Branch", "formatted_address": "25 El-Horreya St. - off, El-Nozha, Cairo Governorate 11757, Egypt", "lat": 31.3394971, "types": ["point_of_interest", "clothing_store", "store", "establishment"], "place_id": "ChIJzXYzCrE_WBQRFRjWzFCKNaE"}, {"name": "Queens Hospital _ Cleopatra Hospitals Group", "formatted_address": "4 Sheikh Nour Eldin, off Thawra St., Heliopolis, 11345, Egypt", "lat": 31.3318691, "types": ["hospital", "doctor", "health", "point_of_interest", "establishment"], "place_id": "ChIJ65q6gh8-WBQRb6VXdsqqg4w"}, {"name": "Dr. Remonda Pharmacy", "formatted_address": "89 Omar Ibn El-Khattab, Almazah, Heliopolis, Cairo Governorate, Egypt", "lat": 31.343466, "types": ["pharmacy", "health", "point_of_interest", "store", "establishment"], "place_id": "ChIJlTmZEPgVWBQRsrxoSnFEHPQ"}, {"name": "Cairo International Airport", "formatted_address": "Oruba، Road، El Nozha, Cairo Governorate, Egypt", "lat": 31.3997904, "types": ["airport", "point_of_interest", "establishment"], "place_id": "ChIJQU-oLggXWBQRhhPiUSGvZeA"}, {"name": "City Stars Cinema", "formatted_address": "Masaken Al Mohandesin, Nasr City, Cairo Governorate, Egypt", "lat": 31.3440642, "types": ["movie_theater", "point_of_interest", "establishment"], "place_id": "ChIJeQM7kA4-WBQRl3pI9iYM-BQ"}, {"name": "Post Office - West Heliopolis", "formatted_address": "El-Nozha, El Nozha, Cairo Governorate, Egypt", "lat": 31.33018539999999, "types": ["post_office", "finance", "point_of_interest", "establishment"], "place_id": "ChIJ-1tRxpIVWBQR8pyCMmqAgXM"}, {"name": "New Society Service Association", "formatted_address": "18 Adly St.، DOWNTOWN، Abdeen, Cairo Governorate, Egypt", "lat": 31.2438927, "types": ["point_of_interest", "establishment"], "place_id": "ChIJtZcaApZAWBQRXp74iGF8f3E"}, {"name": "Heliopolis Sporting Club (HSC)", "formatted_address": "17 El-Sayed El-Marghany, Mansheya El-Bakry, Heliopolis, Cairo Governorate, Egypt", "lat": 31.3164398, "types": ["point_of_interest", "establishment"], "place_id": "ChIJB9zy8B4-WBQRz_zRpJte8sA"}, {"name": "Snow City", "formatted_address": "Omar Ibn El-Khattab, Masaken Al Mohandesin, Nasr City, Cairo Governorate, Egypt", "lat": 31.3473596, "types": ["point_of_interest", "establishment"], "place_id": "ChIJO2P_FPI_WBQRZUDU6pdE4Ow"}, {"name": "Khattab Paper Point", "formatted_address": "4 ش صلاح الدين، Almazah, Heliopolis, Cairo Governorate, Egypt", "lat": 31.3341, "types": ["point_of_interest", "establishment"], "place_id": "ChIJx9lCdfUVWBQRkBpdq15VFcs"}, {"name": "Lemon Spaces sheraton Heliopolis", "formatted_address": "Building # 19، El-Safa, Sheraton Al Matar, El Nozha, Cairo Governorate, Egypt", "lat": 31.3667492, "types": ["lodging", "point_of_interest", "establishment"], "place_id": "ChIJ0dUH_3oXWBQRT1ZYgsJShvE"}, {"name": "Aswaf New Look", "formatted_address": "1 Adly St.، DOWNTOWN، Abdeen, Cairo Governorate, Egypt", "lat": 31.2438927, "types": ["point_of_interest", "establishment"], "place_id": "ChIJ410GPb5AWBQRCycdTIOC3Do"}, {"name": "Il Parco", "formatted_address": "El-Thawra St, Almazah, Heliopolis, Cairo Governorate 11757, Egypt", "lat": 31.3425007, "types": ["cafe", "food", "point_of_interest", "establishment"], "place_id": "ChIJi08Bsd0_WBQRdCBBEBr-qRw"}, {"name": "Sonesta Hotel Tower & Casino Cairo", "formatted_address": "3 El Tayaran St, Ash Sharekat, Nasr City, Cairo Governorate, Egypt", "lat": 31.3175599, "types": ["casino", "lodging", "point_of_interest", "establishment"], "place_id": "ChIJKYApCUc-WBQROTn4JL8ozhI"}, {"name": "Dr. Sherif Fathy Pharmacy", "formatted_address": "7 El-Thawra St, Masaken Al Mohandesin, Heliopolis, Cairo Governorate, Egypt", "lat": 31.3416736, "types": ["pharmacy", "health", "point_of_interest", "store", "establishment"], "place_id": "ChIJ_we0WBs-WBQRItCt6wiJ3SE"}, {"name": "Sha'ar Hashamayim Synagogue", "formatted_address": "18 شارع عدلي، الفوالة، عابدين، محافظة القاهرة‬،، Egypt", "lat": 31.2436791, "types": ["synagogue", "place_of_worship", "point_of_interest", "establishment"], "place_id": "ChIJDVLmR6hBWBQR6vKEPq4Bl6M"}, {"name": "Cooper For Aluminum", "formatted_address": "54 ش محمد فريد، Al Fawalah, Abdeen, Cairo Governorate, Egypt", "lat": 31.2442814, "types": ["point_of_interest", "establishment"], "place_id": "ChIJYaZ29JVAWBQRAE2cOU0iLTg"}, {"name": "Khodeir heliopolis stationary", "formatted_address": "ناصيه أسماء فهمى و ابن حجر العسقلانى، Egypt", "lat": 31.3304285, "types": ["point_of_interest", "store", "establishment"], "place_id": "ChIJU5YMOLI_WBQR7pnyTA5Ch0A"}, {"name": "Heliopolis Clinics", "formatted_address": "El-Nozha 7 Saudia Co. Buildings - Infront Of Air Defence House عمارات الشركة السعودية شارع النزهة مدينة نصر امام دار الدفاع الجوى, Nasr City, Cairo Governorate, Egypt", "lat": 31.3396388, "types": ["health", "point_of_interest", "establishment"], "place_id": "ChIJ23F8CRE-WBQR10pu0gOfOc0"}, {"name": "Mohamed Hosny El Qashlan", "formatted_address": "56 Abdel Khalek Tharwat St.، DOWNTOWN، Abdeen, Cairo Governorate, Egypt", "lat": 31.2421347, "types": ["doctor", "health", "point_of_interest", "establishment"], "place_id": "ChIJe9F0sr9AWBQREYBGnOjPKik"}, {"name": "Il Pennello Ceramic Café & Restaurant", "formatted_address": "Omar Ibn El-Khattab, El-Bostan, Heliopolis, Cairo Governorate, Egypt", "lat": 31.33329, "types": ["cafe", "restaurant", "food", "point_of_interest", "establishment"], "place_id": "ChIJA9aGkfIVWBQR6C-ilXdzmvM"}, {"name": "Hilton Cairo Heliopolis", "formatted_address": "El-Orouba, Sheraton Al Matar, El Nozha, Cairo Governorate, Egypt", "lat": 31.3646213, "types": ["lodging", "point_of_interest", "establishment"], "place_id": "ChIJUYFpLCELRRQRzCxbUHFt6Vs"}][{"name": "مؤسسة علاج الخيرية لرعاية أطفال السكري", "formatted_address": "٦١ شارع فتحي القشلان عمارات ألماظة أمام مطار ألماظة الجوي من، Hussein Kamel, سليم، Egypt", "lat": 31.3568954, "types": ["point_of_interest", "establishment"], "place_id": "ChIJuWH5fzk9WBQRhaRF9PzRvNQ"}, {"name": "Ittihadia Palace", "formatted_address": "Al Nadi، El-Montaza, Heliopolis, Cairo Governorate, Egypt", "lat": 31.3193929, "types": ["tourist_attraction", "premise", "point_of_interest", "establishment"], "place_id": "ChIJuftqUS8-WBQRtM7fDk0QcPk"}, {"name": "Bon Voyage", "formatted_address": "16 Adly, Al Fawalah, Abdeen, Cairo Governorate, Egypt", "lat": 31.244439, "types": ["tourist_attraction", "point_of_interest", "establishment"], "place_id": "ChIJJZ3TEL5AWBQRc-PhG_sO-S0"}, {"name": "Baron Empain Palace", "formatted_address": "El-Orouba, El-Montaza, Heliopolis, Cairo Governorate 11757, Egypt", "lat": 31.3303332, "types": ["point_of_interest", "establishment"], "place_id": "ChIJ1_GM8iE-WBQRLNVi-RT7vDA"}, {"name": "El Sadaqa Showroom For Shoes", "formatted_address": "6 ش مسجد الصداقة، سيدى بشر قبلى، الاسكندرية، Cairo Governorate, Egypt", "lat": 31.35412419999999, "types": ["point_of_interest", "establishment"], "place_id": "ChIJBUrmgQA-WBQRmWdJlebPxKo"}, {"name": "Omar Omran Central", "formatted_address": "561 ش مسجد الصداقة، سيدى بشر قبلى، الاسكندرية، Cairo Governorate, Egypt", "lat": 31.35412419999999, "types": ["point_of_interest", "establishment"], "place_id": "ChIJBUrmgQA-WBQRvYvHg2-aAd8"}, {"name": "احمد عبدالعزيز ...ساكن", "formatted_address": "فتحي القشلان، الماظة، قسم مصر الجديدة،، Cairo Governorate, Egypt", "lat": 31.3515871, "types": ["grocery_or_supermarket", "food", "point_of_interest", "store", "establishment"], "place_id": "ChIJSTGb0HI_WBQRBuhTtywLOXU"}, {"name": "مسجد الجمعية الشرعية", "formatted_address": "Almazah, Heliopolis, Cairo Governorate, Egypt", "lat": 31.35444739999999, "types": ["mosque", "place_of_worship", "point_of_interest", "establishment"], "place_id": "ChIJKcKZK_49WBQR-k46eN8NtoY"}, {"name": "Fabco Co. For Trade", "formatted_address": "310 Al Rahman Mosque St.، Almazah, Heliopolis, Cairo Governorate, Egypt", "lat": 31.35412419999999, "types": ["point_of_interest", "establishment"], "place_id": "ChIJDUHCgYBAWBQR6CMfHXradXw"}, {"name": "Artillery Officers House", "formatted_address": "26 El-Thawra St, Masaken Al Mohandesin, Nasr City, Cairo Governorate, Egypt", "lat": 31.3538881, "types": ["point_of_interest", "establishment"], "place_id": "ChIJ_we0WBs-WBQRnpOK6RpDB_0"}, {"name": "Teriesta", "formatted_address": "8 ش مسجد الصداقة، سيدى بشر، الاسكندرية، Cairo Governorate, Egypt", "lat": 31.35412419999999, "types": ["point_of_interest", "establishment"], "place_id": "ChIJBUrmgQA-WBQRZFFJpPYhLcU"}, {"name": "Citystars Heliopolis", "formatted_address": "Citystars, Cairo Governorate 11771, Egypt", "lat": 31.3458082, "types": ["shopping_mall", "point_of_interest", "establishment"], "place_id": "ChIJo0ecE_gVWBQRGGrouhZFdME"}, {"name": "Our Lady of Heliopolis Co-Cathedral", "formatted_address": "Nazih Khalifa crossroad، Al Ahram, Heliopolis, Cairo Governorate, Egypt", "lat": 31.3251828, "types": ["church", "place_of_worship", "point_of_interest", "establishment"], "place_id": "ChIJJdgh-okVWBQR5TqTmKuQ0IM"}, {"name": "Porto Heliopolis", "formatted_address": "Almazah, Heliopolis, Cairo Governorate, Egypt", "lat": 31.348709, "types": ["lodging", "point_of_interest", "establishment"], "place_id": "ChIJR5FCXgE-WBQR471eyuZuvGw"}, {"name": "City Centre Almaza", "formatted_address": "Passage Inside Almaza Airport, Sheraton Al Matar, El Nozha, Cairo Governorate, Egypt", "lat": 31.3651812, "types": ["shopping_mall", "point_of_interest", "establishment"], "place_id": "ChIJae0gF_g9WBQRz6pWyx0wl7U"}, {"name": "Dr. Mohamed Heliopolis Clinic", "formatted_address": "Mosteshfa Heleobles, Almazah, Heliopolis, Cairo Governorate, Egypt", "lat": 31.3540834, "types": ["health", "point_of_interest", "establishment"], "place_id": "ChIJDU7AgQA-WBQRA1P1LRIiNj0"}, {"name": "Maadi Island", "formatted_address": "Dar Al Salam, Giza Governorate, Egypt", "lat": 31.239237, "types": ["restaurant", "tourist_attraction", "park", "food", "point_of_interest", "establishment"], "place_id": "ChIJwY7d5MFHWBQRl1nMXlW_tUY"}, {"name": "Computer & Communication Concept - C & CC", "formatted_address": "6 Aflaton St.، Masaken Al Mohandesin, Heliopolis, Cairo Governorate, Egypt", "lat": 31.344988, "types": ["point_of_interest", "establishment"], "place_id": "ChIJVznwLfEVWBQR_2KCGtndzME"}, {"name": "Elailat", "formatted_address": "Almazah, Heliopolis, Cairo Governorate, Egypt", "lat": 31.3540266, "types": ["point_of_interest", "establishment"], "place_id": "ChIJDRhQgAA-WBQRfQFtJFno7RU"}, {"name": "InterContinental Citystars Cairo, an IHG Hotel", "formatted_address": "Omar Ibn El Khattab، Street، Cairo Governorate 11737, Egypt", "lat": 31.3478955, "types": ["lodging", "point_of_interest", "establishment"], "place_id": "ChIJJYCniw4-WBQRDaNySSZ_iuI"}, {"name": "Sharei’a Association Hospital For Premature Infants & Newborns", "formatted_address": "ش الشهيد اسماعيل موسى، Almazah, Heliopolis, Cairo Governorate, Egypt", "lat": 31.3545047, "types": ["hospital", "health", "point_of_interest", "establishment"], "place_id": "ChIJA_GC0_89WBQR5tsT1zXMxTs"}, {"name": "Hadis El Madinh", "formatted_address": "Almazah, Heliopolis, Cairo Governorate, Egypt", "lat": 31.35398919999999, "types": ["point_of_interest", "establishment"], "place_id": "ChIJsRmCgQA-WBQR3pthDKzzT2o"}, {"name": "Radisson Blu Hotel, Cairo Heliopolis", "formatted_address": "Abdel Hamid Badawi St Heliopolis, Cairo Governorate 11787, Egypt", "lat": 31.3753121, "types": ["lodging", "point_of_interest", "establishment"], "place_id": "ChIJQZJ8fWUWWBQRAUPO9I6SxPg"}, {"name": "Almaza koshk", "formatted_address": "42 Ismail Mousa, Almazah, Heliopolis, Cairo Governorate, Egypt", "lat": 31.3548946, "types": ["cafe", "food", "point_of_interest", "store", "establishment"], "place_id": "ChIJeUJys2M9WBQRJUh68BTpiyc"}, {"name": "Almaza Neonatal Hospital", "formatted_address": "79-81 Ismail Mousa, Almazah, Heliopolis, Cairo Governorate, Egypt", "lat": 31.3545639, "types": ["hospital", "health", "point_of_interest", "establishment"], "place_id": "ChIJUR9m0_89WBQR1TuuFwVpz-w"}, {"name": "مستشفي ألماظة الجكعية الخيرية للحضانات", "formatted_address": "87 إسماعيل موسى، الماظة، قسم مصر الجديدة، محافظة القاهرة‬،، Egypt", "lat": 31.3544834, "types": ["hospital", "health", "point_of_interest", "establishment"], "place_id": "ChIJB53IDNc9WBQRmF8vjBy-_xo"}, {"name": "حضانات الجمعيه الشرعيه ألماظه", "formatted_address": "79-81 إسماعيل موسى، الماظة، قسم مصر الجديدة، محافظة القاهرة‬،، Egypt", "lat": 31.3545866, "types": ["hospital", "health", "point_of_interest", "establishment"], "place_id": "ChIJv4z8CK89WBQRGVf0fHktVj8"}, {"name": "Heliopolis Towers Hotel", "formatted_address": "El Shaheed Sayed Zakaria, Sheraton Al Matar, El Nozha, Cairo Governorate 11736, Egypt", "lat": 31.3661798, "types": ["lodging", "point_of_interest", "establishment"], "place_id": "ChIJZ9p3820WWBQRmZh2M_MSzOQ"}, {"name": "صوت الفن", "formatted_address": "16 Adly, Bab Al Louq, Abdeen, Cairo Governorate, Egypt", "lat": 31.244439, "types": ["point_of_interest", "establishment"], "place_id": "ChIJ__8vEb5AWBQRqaCYbvGsNWU"}, {"name": "Layale Zman", "formatted_address": "Almazah, Heliopolis, Cairo Governorate, Egypt", "lat": 31.3538559, "types": ["point_of_interest", "establishment"], "place_id": "ChIJNxOQgwA-WBQRZxteUEyoeh4"}, {"name": "St. Mark Coptic Orthodox Church Cleopatra", "formatted_address": "35 كيلوباترا، الماظة، قسم مصر الجديدة،، Cairo Governorate, Egypt", "lat": 31.3296246, "types": ["church", "place_of_worship", "point_of_interest", "establishment"], "place_id": "ChIJH3kNmooVWBQRfL4z5mf-KXU"}, {"name": "Misr El Dawleya", "formatted_address": "96 ش محمد فريد، وسط البلد، Abdeen, Cairo Governorate, Egypt", "lat": 31.2442814, "types": ["point_of_interest", "establishment"], "place_id": "ChIJYaZ29JVAWBQRfDHDvqzkKAg"}, {"name": "Ego Cafe", "formatted_address": "Fathi Al Ashlan, Almazah, Heliopolis, Cairo Governorate, Egypt", "lat": 31.3535824, "types": ["cafe", "food", "point_of_interest", "establishment"], "place_id": "ChIJY0dPhAA-WBQR2ess2XWBSQc"}, {"name": "IDP Education & IELTS Testing - Cairo", "formatted_address": "31 Omar Bekir St off Othman Ibn Afan St, Othman Ibn Affan, Nozha, Cairo Governorate 11361, Egypt", "lat": 31.348553, "types": ["point_of_interest", "establishment"], "place_id": "ChIJYWJmM-EVWBQRsRn2yOGljFo"}, {"name": "Cairo International Airport", "formatted_address": "Oruba، Road، El Nozha, Cairo Governorate, Egypt", "lat": 31.3997904, "types": ["airport", "point_of_interest", "establishment"], "place_id": "ChIJQU-oLggXWBQRhhPiUSGvZeA"}, {"name": "Golden Park Hotel", "formatted_address": "شارع الحجاز ، مصر الجديده، 221 شارع الحجاز ، هيليوبوليس ،، El Nozha, Cairo Governorate, Egypt", "lat": 31.3525102, "types": ["lodging", "point_of_interest", "establishment"], "place_id": "ChIJsQQdRNgVWBQRss6fVxNFk_8"}, {"name": "TOLIP El Galaa - Heliopolis", "formatted_address": "El Orouba St, Sheraton Al Matar, El Nozha, Cairo Governorate, Egypt", "lat": 31.3490226, "types": ["lodging", "point_of_interest", "establishment"], "place_id": "ChIJvyeGu-QVWBQRkPqc2rg6IsE"}, {"name": "City Stars Cinema", "formatted_address": "Masaken Al Mohandesin, Nasr City, Cairo Governorate, Egypt", "lat": 31.3440642, "types": ["movie_theater", "point_of_interest", "establishment"], "place_id": "ChIJeQM7kA4-WBQRl3pI9iYM-BQ"}, {"name": "Queens Hospital _ Cleopatra Hospitals Group", "formatted_address": "4 Sheikh Nour Eldin, off Thawra St., Heliopolis, 11345, Egypt", "lat": 31.3318691, "types": ["hospital", "doctor", "health", "point_of_interest", "establishment"], "place_id": "ChIJ65q6gh8-WBQRb6VXdsqqg4w"}, {"name": "Heliopolis Sporting Club (HSC)", "formatted_address": "17 El-Sayed El-Marghany, Mansheya El-Bakry, Heliopolis, Cairo Governorate, Egypt", "lat": 31.3164398, "types": ["point_of_interest", "establishment"], "place_id": "ChIJB9zy8B4-WBQRz_zRpJte8sA"}, {"name": "Gold Watch", "formatted_address": "23 Adly St.، DOWNTOWN، Abdeen, Cairo Governorate, Egypt", "lat": 31.2438927, "types": ["point_of_interest", "establishment"], "place_id": "ChIJ410GPb5AWBQRbuArHVt4z0s"}, {"name": "Baron Hotel Heliopolis", "formatted_address": "14 Al Baroon, El-Montaza, Heliopolis, Cairo Governorate, Egypt", "lat": 31.3314609, "types": ["lodging", "point_of_interest", "establishment"], "place_id": "ChIJUbVOACI-WBQRWsi5B7gYfxs"}, {"name": "Khattab Paper Point", "formatted_address": "4 ش صلاح الدين، Almazah, Heliopolis, Cairo Governorate, Egypt", "lat": 31.3341, "types": ["point_of_interest", "establishment"], "place_id": "ChIJx9lCdfUVWBQRkBpdq15VFcs"}, {"name": "Aswaf New Look", "formatted_address": "1 Adly St.، DOWNTOWN، Abdeen, Cairo Governorate, Egypt", "lat": 31.2438927, "types": ["point_of_interest", "establishment"], "place_id": "ChIJ410GPb5AWBQRCycdTIOC3Do"}, {"name": "Hedeya Heliopolis Branch", "formatted_address": "25 El-Horreya St. - off, El-Nozha, Cairo Governorate 11757, Egypt", "lat": 31.3394971, "types": ["point_of_interest", "clothing_store", "store", "establishment"], "place_id": "ChIJzXYzCrE_WBQRFRjWzFCKNaE"}, {"name": "Post Office - West Heliopolis", "formatted_address": "El-Nozha, El Nozha, Cairo Governorate, Egypt", "lat": 31.33018539999999, "types": ["post_office", "finance", "point_of_interest", "establishment"], "place_id": "ChIJ-1tRxpIVWBQR8pyCMmqAgXM"}, {"name": "Lemon Spaces sheraton Heliopolis", "formatted_address": "Building # 19، El-Safa, Sheraton Al Matar, El Nozha, Cairo Governorate, Egypt", "lat": 31.3667492, "types": ["lodging", "point_of_interest", "establishment"], "place_id": "ChIJ0dUH_3oXWBQRT1ZYgsJShvE"}, {"name": "American Eagle", "formatted_address": "City Stars, Masaken Al Mohandesin, Nasr City, Cairo Governorate, Egypt", "lat": 31.34515, "types": ["clothing_store", "point_of_interest", "store", "establishment"], "place_id": "ChIJOWFD8Q4-WBQRA2q7tAb9wiA"}, {"name": "New Society Service Association", "formatted_address": "18 Adly St.، DOWNTOWN، Abdeen, Cairo Governorate, Egypt", "lat": 31.2438927, "types": ["point_of_interest", "establishment"], "place_id": "ChIJtZcaApZAWBQRXp74iGF8f3E"}, {"name": "Heliopolis Clinics", "formatted_address": "El-Nozha 7 Saudia Co. Buildings - Infront Of Air Defence House عمارات الشركة السعودية شارع النزهة مدينة نصر امام دار الدفاع الجوى, Nasr City, Cairo Governorate, Egypt", "lat": 31.3396388, "types": ["health", "point_of_interest", "establishment"], "place_id": "ChIJ23F8CRE-WBQR10pu0gOfOc0"}, {"name": "Snow City", "formatted_address": "Omar Ibn El-Khattab, Masaken Al Mohandesin, Nasr City, Cairo Governorate, Egypt", "lat": 31.3473596, "types": ["point_of_interest", "establishment"], "place_id": "ChIJO2P_FPI_WBQRZUDU6pdE4Ow"}, {"name": "Bozo", "formatted_address": "3 26 يوليو، المهندسين، Giza District, Cairo Governorate, Egypt", "lat": 31.2451698, "types": ["point_of_interest", "establishment"], "place_id": "ChIJS0-a45VAWBQRHKWunDn7Wnk"}, {"name": "Khodeir heliopolis stationary", "formatted_address": "ناصيه أسماء فهمى و ابن حجر العسقلانى، Egypt", "lat": 31.3304285, "types": ["point_of_interest", "store", "establishment"], "place_id": "ChIJU5YMOLI_WBQR7pnyTA5Ch0A"}, {"name": "Sonesta Hotel Tower & Casino Cairo", "formatted_address": "3 El Tayaran St, Ash Sharekat, Nasr City, Cairo Governorate, Egypt", "lat": 31.3175599, "types": ["casino", "lodging", "point_of_interest", "establishment"], "place_id": "ChIJKYApCUc-WBQROTn4JL8ozhI"}, {"name": "Cooper For Aluminum", "formatted_address": "54 ش محمد فريد، Al Fawalah, Abdeen, Cairo Governorate, Egypt", "lat": 31.2442814, "types": ["point_of_interest", "establishment"], "place_id": "ChIJYaZ29JVAWBQRAE2cOU0iLTg"}, {"name": "French Cultural Center", "formatted_address": "ش Shafeek El-Deeb, Al Golf, Heliopolis, Cairo Governorate, Egypt", "lat": 31.333122, "types": ["point_of_interest", "establishment"], "place_id": "ChIJC7Q07Bg-WBQRtUSb6gtP1Go"}, {"name": "Hilton Cairo Heliopolis", "formatted_address": "El-Orouba, Sheraton Al Matar, El Nozha, Cairo Governorate, Egypt", "lat": 31.3646213, "types": ["lodging", "point_of_interest", "establishment"], "place_id": "ChIJUYFpLCELRRQRzCxbUHFt6Vs"}, {"name": "Operational Unit for Development Assistance", "formatted_address": "46 El-Thawra St, Almazah, Heliopolis, Cairo Governorate, Egypt", "lat": 31.3365718, "types": ["insurance_agency", "point_of_interest", "establishment"], "place_id": "ChIJ89QeBt5AWBQRKBchDQZhBYE"}, {"name": "Sha'ar Hashamayim Synagogue", "formatted_address": "18 شارع عدلي، الفوالة، عابدين، محافظة القاهرة‬،، Egypt", "lat": 31.2436791, "types": ["synagogue", "place_of_worship", "point_of_interest", "establishment"], "place_id": "ChIJDVLmR6hBWBQR6vKEPq4Bl6M"}, {"name": "El Amana-Haberdashery", "formatted_address": "Al Fawalah, Abdin, Cairo Governorate, Egypt", "lat": 31.24520159999999, "types": ["point_of_interest", "establishment"], "place_id": "ChIJo604Ab5AWBQRde9ys4nZq1s"}]