[{"name": "Ittihadia Palace", "formatted_address": "Al Nadi، El-Montaza, Heliopolis, Cairo Governorate, Egypt", "lat": 31.3193929, "types": ["tourist_attraction", "premise", "point_of_interest", "establishment"], "place_id": "ChIJuftqUS8-WBQRtM7fDk0QcPk"}, {"name": "Bon Voyage", "formatted_address": "16 Adly, Al Fawalah, Abdeen, Cairo Governorate, Egypt", "lat": 31.244439, "types": ["tourist_attraction", "point_of_interest", "establishment"], "place_id": "ChIJJZ3TEL5AWBQRc-PhG_sO-S0"}, {"name": "Baron Empain Palace", "formatted_address": "El-Orouba, El-Montaza, Heliopolis, Cairo Governorate 11757, Egypt", "lat": 31.3303332, "types": ["point_of_interest", "establishment"], "place_id": "ChIJ1_GM8iE-WBQRLNVi-RT7vDA"}, {"name": "Our Lady of Heliopolis Co-Cathedral", "formatted_address": "Nazih Khalifa crossroad، Al Ahram, Heliopolis, Cairo Governorate, Egypt", "lat": 31.3251828, "types": ["church", "place_of_worship", "point_of_interest", "establishment"], "place_id": "ChIJJdgh-okVWBQR5TqTmKuQ0IM"}, {"name": "Tlemisr-Home Tools", "formatted_address": "Al Bustan, Heliopolis, Cairo Governorate, Egypt", "lat": 31.3212112, "types": ["point_of_interest", "establishment"], "place_id": "ChIJgwCKmI8VWBQR1de9LEDZTss"}, {"name": "الاتحاد للتجارة والصناعة", "formatted_address": "6 أ Al Sebaq, Al Matar, El Nozha, Cairo Governorate, Egypt", "lat": 31.3223085, "types": ["point_of_interest", "establishment"], "place_id": "ChIJQa-ato8VWBQR_VP0YmXAXKY"}, {"name": "الناجي لتكييف السيارة", "formatted_address": "فؤاد زمزم، El-Bostan, قسم مصر الجديدة،، Cairo Governorate, Egypt", "lat": 31.3208889, "types": ["car_repair", "point_of_interest", "establishment"], "place_id": "ChIJ6THUrLoVWBQR0PKCmSnOSQ8"}, {"name": "Sito Tours Helioplis", "formatted_address": "El-Bostan, Heliopolis, Cairo Governorate, Egypt", "lat": 31.3211548, "types": ["travel_agency", "point_of_interest", "establishment"], "place_id": "ChIJze-LoLgVWBQRB_IM8Hw9YEk"}, {"name": "شعبان فرش وكماليات السيارات", "formatted_address": "Fouad Zamzam, El-Bostan, Heliopolis, Cairo Governorate, Egypt", "lat": 31.3209456, "types": ["car_repair", "point_of_interest", "store", "establishment"], "place_id": "ChIJH7FhZRIVWBQRxzNSiQxwCuc"}, {"name": "Milad el khrb2y", "formatted_address": "113 Fouad Zamzam, El-Bostan, Heliopolis, Cairo Governorate, Egypt", "lat": 31.3208071, "types": ["point_of_interest", "store", "establishment"], "place_id": "ChIJ62JrCDMVWBQRCpHKO4pbDCY"}, {"name": "Sima Tours", "formatted_address": "4 ش رياض السنباطى متفرع من, Al Sebaq, الميريلاند, Heliopolis, Cairo Governorate, Egypt", "lat": 31.3210719, "types": ["travel_agency", "point_of_interest", "establishment"], "place_id": "ChIJBRPA0GcVWBQRRiiBrAgp0sw"}, {"name": "Heliopolis Group", "formatted_address": "10 Al Sebaq, El-Bostan, Heliopolis, Cairo Governorate, Egypt", "lat": 31.3223513, "types": ["food", "point_of_interest", "establishment"], "place_id": "ChIJe1udrI8VWBQRm8bCI22FWzI"}, {"name": "St. Mark Coptic Orthodox Church Cleopatra", "formatted_address": "35 كيلوباترا، الماظة، قسم مصر الجديدة،، Cairo Governorate, Egypt", "lat": 31.3296246, "types": ["church", "place_of_worship", "point_of_interest", "establishment"], "place_id": "ChIJH3kNmooVWBQRfL4z5mf-KXU"}, {"name": "Buffy Bean Bag", "formatted_address": "2C Al Sebaq, 15ب شارع السباق خلف حديقة الميريلاند بجوار بنك اسكندرية ومؤمن الميريلاند, Al Sebaq, El-Bostan, Heliopolis, Cairo Governorate 11351, Egypt", "lat": 31.3210955, "types": ["furniture_store", "home_goods_store", "point_of_interest", "store", "establishment"], "place_id": "ChIJOVH82vwVWBQRD51eE0rJaP0"}, {"name": "Lumber Land", "formatted_address": "El-Bostan, Heliopolis, Cairo Governorate, Egypt", "lat": 31.3208668, "types": ["point_of_interest", "establishment"], "place_id": "ChIJRyFvk48VWBQRocnLr3d8soI"}, {"name": "كشك اولاد فرحات", "formatted_address": "El-Zaytoun El-Bahareya, Zeitoun, Cairo Governorate, Egypt", "lat": 31.3206006, "types": ["point_of_interest", "establishment"], "place_id": "ChIJOULMXZ8VWBQRnt99fanmVn4"}, {"name": "DotPrintadv", "formatted_address": "2C Al Sebaq, 3 شارع يحي توفيق متفرع من جسر السويس امام، Egypt", "lat": 31.3210787, "types": ["point_of_interest", "establishment"], "place_id": "ChIJt855BGAVWBQRa9uFtuaDarY"}, {"name": "Radisson Blu Hotel, Cairo Heliopolis", "formatted_address": "Abdel Hamid Badawi St Heliopolis, Cairo Governorate 11787, Egypt", "lat": 31.3753121, "types": ["lodging", "point_of_interest", "establishment"], "place_id": "ChIJQZJ8fWUWWBQRAUPO9I6SxPg"}, {"name": "2C Al Sebaq", "formatted_address": "Maryland Buildings, Gesr Al Suez, Al Manteqah as Sadesah, Heliopolis, Cairo Governorate, Egypt", "lat": 31.3209607, "types": ["point_of_interest", "establishment"], "place_id": "ChIJAb4ElI8VWBQR-oX1XWyDMOg"}, {"name": "Heliopolis Sporting Club (HSC)", "formatted_address": "17 El-Sayed El-Marghany, Mansheya El-Bakry, Heliopolis, Cairo Governorate, Egypt", "lat": 31.3164398, "types": ["point_of_interest", "establishment"], "place_id": "ChIJB9zy8B4-WBQRz_zRpJte8sA"}, {"name": "Abdeen Palace Museum", "formatted_address": "شارع جمعه عابدين،، El-Gomhoreya Square, Rahbet Abdin, Abdeen, Cairo Governorate, Egypt", "lat": 31.248544, "types": ["tourist_attraction", "museum", "point_of_interest", "establishment"], "place_id": "ChIJF_ZR9bpAWBQR_WeDJloU-7o"}, {"name": "Citystars Heliopolis", "formatted_address": "Citystars, Cairo Governorate 11771, Egypt", "lat": 31.3458082, "types": ["shopping_mall", "point_of_interest", "establishment"], "place_id": "ChIJo0ecE_gVWBQRGGrouhZFdME"}, {"name": "صوت الفن", "formatted_address": "16 Adly, Bab Al Louq, Abdeen, Cairo Governorate, Egypt", "lat": 31.244439, "types": ["point_of_interest", "establishment"], "place_id": "ChIJ__8vEb5AWBQRqaCYbvGsNWU"}, {"name": "Heliopolis Towers Hotel", "formatted_address": "El Shaheed Sayed Zakaria, Sheraton Al Matar, El Nozha, Cairo Governorate 11736, Egypt", "lat": 31.3661798, "types": ["lodging", "point_of_interest", "establishment"], "place_id": "ChIJZ9p3820WWBQRmZh2M_MSzOQ"}, {"name": "Centeral Heliopolis ( Gesr Al Suez )", "formatted_address": "El-Bostan, Heliopolis, Cairo Governorate, Egypt", "lat": 31.321724, "types": ["transit_station", "point_of_interest", "establishment"], "place_id": "ChIJD_uh2I8VWBQRLcTYF1zhlM0"}, {"name": "Il Pennello Ceramic Café & Restaurant", "formatted_address": "Omar Ibn El-Khattab, El-Bostan, Heliopolis, Cairo Governorate, Egypt", "lat": 31.33329, "types": ["cafe", "restaurant", "food", "point_of_interest", "establishment"], "place_id": "ChIJA9aGkfIVWBQR6C-ilXdzmvM"}, {"name": "Capo cafe", "formatted_address": "El-Bostan, Heliopolis, Cairo Governorate, Egypt", "lat": 31.3204158, "types": ["cafe", "food", "point_of_interest", "establishment"], "place_id": "ChIJSyVwhY8VWBQRT53CF0RKvqo"}, {"name": "San Marino Pasta & Pizza", "formatted_address": "100-, 101 Shehab Al Din Khafaga, El-Maryland, Heliopolis, Cairo Governorate, Cairo, Cairo Governorate, Egypt", "lat": 31.3222052, "types": ["restaurant", "food", "point_of_interest", "establishment"], "place_id": "ChIJ7SRfHI8VWBQRmoUOl8dCskU"}, {"name": "El Mostakbal Library", "formatted_address": "Gesr Al Suez, El-Bostan, Heliopolis, Cairo Governorate, Egypt", "lat": 31.3214739, "types": ["library", "point_of_interest", "establishment"], "place_id": "ChIJg7jRw48VWBQRNQWRbC5j6xE"}, {"name": "EGYPT INTL FOR LOGISTICS & TRADE", "formatted_address": "2 (B Al Sebaq, St، Heliopolis, Cairo Governorate, Egypt", "lat": 31.3209194, "types": ["finance", "point_of_interest", "establishment"], "place_id": "ChIJ3ZV7k48VWBQRPvjVnho7x8E"}, {"name": "وجيه نجيب للتجارة", "formatted_address": "113 ش Gesr Al Suez, El-Bostan, Heliopolis, Cairo Governorate, Egypt", "lat": 31.3207985, "types": ["car_dealer", "point_of_interest", "store", "establishment"], "place_id": "ChIJfdLreZEWWBQR2UAKlWuaUW4"}, {"name": "Melange", "formatted_address": "Nehro, El-Bostan, Heliopolis, Cairo Governorate, Egypt", "lat": 31.3213851, "types": ["cafe", "food", "point_of_interest", "establishment"], "place_id": "ChIJ6bnxoo8VWBQRDIU5sXS0yHk"}, {"name": "الرقمية لحلول التسويق", "formatted_address": "2 ب Al Sebaq, El-Bostan, Heliopolis, Cairo Governorate 11757, Egypt", "lat": 31.320903, "types": ["point_of_interest", "store", "establishment"], "place_id": "ChIJDbKPl3AVWBQRCoWEye5JNZE"}, {"name": "Rocket", "formatted_address": "21 القبه، El-Bostan, Heliopolis, Cairo Governorate, Egypt", "lat": 31.3208691, "types": ["car_rental", "point_of_interest", "establishment"], "place_id": "ChIJUSlxk48VWBQRY7Sse14T4OY"}, {"name": "Tivoli Dome", "formatted_address": "Omar Ibn El-Khattab, Almazah, Heliopolis, Cairo Governorate, Egypt", "lat": 31.3479517, "types": ["food", "point_of_interest", "establishment"], "place_id": "ChIJsSxOPgI-WBQRz6H2FJMg2uE"}, {"name": "Baron Hotel Heliopolis", "formatted_address": "14 Al Baroon, El-Montaza, Heliopolis, Cairo Governorate, Egypt", "lat": 31.3314609, "types": ["lodging", "point_of_interest", "establishment"], "place_id": "ChIJUbVOACI-WBQRWsi5B7gYfxs"}, {"name": "Hilton Cairo Heliopolis", "formatted_address": "El-Orouba, Sheraton Al Matar, El Nozha, Cairo Governorate, Egypt", "lat": 31.3646213, "types": ["lodging", "point_of_interest", "establishment"], "place_id": "ChIJUYFpLCELRRQRzCxbUHFt6Vs"}, {"name": "Golden Park Hotel", "formatted_address": "شارع الحجاز ، مصر الجديده، 221 شارع الحجاز ، هيليوبوليس ،، El Nozha, Cairo Governorate, Egypt", "lat": 31.3525102, "types": ["lodging", "point_of_interest", "establishment"], "place_id": "ChIJsQQdRNgVWBQRss6fVxNFk_8"}, {"name": "Pubg Car care", "formatted_address": "ش Abd Al Aziz Al Beshri, El-Bostan, Heliopolis, Cairo Governorate, Egypt", "lat": 31.3217948, "types": ["car_wash", "point_of_interest", "establishment"], "place_id": "ChIJYW68JygVWBQRQwRNHvUPkhQ"}, {"name": "Foreign Ministry Legalization Office", "formatted_address": "el merryland st, El-Bostan, Heliopolis, Cairo Governorate, Egypt", "lat": 31.3219118, "types": ["point_of_interest", "establishment"], "place_id": "ChIJ9z8rD48VWBQRPU2af70skEQ"}, {"name": "The Smokery Heliopolis", "formatted_address": "58 Beirut, Almazah, Heliopolis, Cairo Governorate, Egypt", "lat": 31.3281763, "types": ["restaurant", "food", "point_of_interest", "establishment"], "place_id": "ChIJn98YfYoVWBQRLbLvJihB23Y"}, {"name": "Laila hegazy", "formatted_address": "5 Al Sebaq, El-Bostan, Heliopolis, Cairo Governorate, Egypt", "lat": 31.3215952, "types": ["hospital", "health", "point_of_interest", "establishment"], "place_id": "ChIJy49ihkwVWBQRM55sy-wRO24"}, {"name": "Factory Outlet", "formatted_address": "1 Al Sebaq, El-Bostan, Heliopolis, Cairo Governorate, Egypt", "lat": 31.3199669, "types": ["shoe_store", "point_of_interest", "clothing_store", "store", "establishment"], "place_id": "ChIJZ8ARh48VWBQR9FAghq8pGxo"}, {"name": "TOLIP El Galaa - Heliopolis", "formatted_address": "El Orouba St, Sheraton Al Matar, El Nozha, Cairo Governorate, Egypt", "lat": 31.3490226, "types": ["lodging", "point_of_interest", "establishment"], "place_id": "ChIJvyeGu-QVWBQRkPqc2rg6IsE"}, {"name": "zero car care center", "formatted_address": "Nehro, El-Bostan, Heliopolis, Cairo Governorate, Egypt", "lat": 31.3217187, "types": ["car_wash", "point_of_interest", "establishment"], "place_id": "ChIJMyQvwhcVWBQRZgWZAs5dn2U"}, {"name": "Sonesta Hotel Tower & Casino Cairo", "formatted_address": "3 El Tayaran St, Ash Sharekat, Nasr City, Cairo Governorate, Egypt", "lat": 31.3175599, "types": ["casino", "lodging", "point_of_interest", "establishment"], "place_id": "ChIJKYApCUc-WBQROTn4JL8ozhI"}, {"name": "CIB Bank- Gesr El Suez Branch", "formatted_address": "Al Sebaq, El-Bostan, Heliopolis, Cairo Governorate, Egypt", "lat": 31.32065609999999, "types": ["bank", "finance", "point_of_interest", "establishment"], "place_id": "ChIJU_olhY8VWBQRbN8zWyc4cWQ"}, {"name": "British Council", "formatted_address": "4 Minya, El-Bostan, Heliopolis, Cairo Governorate, Egypt", "lat": 31.3236016, "types": ["point_of_interest", "establishment"], "place_id": "ChIJz8iNp4kVWBQRdB9ba3Xvh0M"}, {"name": "Secrets", "formatted_address": "15 Al Sebak St.Heliopolis , Cairo, Egypt, Egypt", "lat": 31.322377, "types": ["point_of_interest", "clothing_store", "store", "establishment"], "place_id": "ChIJObn4rY8VWBQRpwY5ECSzUgM"}, {"name": "InterContinental Citystars Cairo, an IHG Hotel", "formatted_address": "Omar Ibn El Khattab، Street، Cairo Governorate 11737, Egypt", "lat": 31.3478955, "types": ["lodging", "point_of_interest", "establishment"], "place_id": "ChIJJYCniw4-WBQRDaNySSZ_iuI"}, {"name": "مغسله فابريكا غسيل السيارات", "formatted_address": "شارع اسماعيل اباظة، El-Bostan, Heliopolis, Cairo Governorate, Egypt", "lat": 31.3219209, "types": ["point_of_interest", "establishment"], "place_id": "ChIJtQT7pkcVWBQR2KP5umPNUS8"}, {"name": "(Heliopolis Public library)", "formatted_address": "Beirut, Almazah, Heliopolis, Cairo Governorate, Egypt", "lat": 31.3328428, "types": ["library", "point_of_interest", "establishment"], "place_id": "ChIJd3h9YvUVWBQR2Oi9DLQTI8E"}, {"name": "ازازتي Ezazty", "formatted_address": "4 Al Sebaq, El-Bostan, Heliopolis, Cairo Governorate 11531, Egypt", "lat": 31.3216439, "types": ["store", "point_of_interest", "establishment"], "place_id": "ChIJmxrEVo4VWBQRqggEAKdTI54"}, {"name": "صيدلية السباق", "formatted_address": "7 Al Sebaq, El-Bostan, Heliopolis, Cairo Governorate, Egypt", "lat": 31.320332, "types": ["pharmacy", "health", "point_of_interest", "store", "establishment"], "place_id": "ChIJobCMhY8VWBQRY7N13NWZNc8"}, {"name": "New Society Service Association", "formatted_address": "18 Adly St.، DOWNTOWN، Abdeen, Cairo Governorate, Egypt", "lat": 31.2438927, "types": ["point_of_interest", "establishment"], "place_id": "ChIJtZcaApZAWBQRXp74iGF8f3E"}, {"name": "Qeshta Restaurant مطعم قشطة", "formatted_address": "121 Gesr Al Suez, El-Bostan, Heliopolis, Cairo Governorate, Egypt", "lat": 31.3215142, "types": ["restaurant", "food", "point_of_interest", "establishment"], "place_id": "ChIJm3qw3Y8VWBQRMBlTuJt3BlM"}, {"name": "د. عبد السلام موسى", "formatted_address": "138 Gesr Al Suez, El-Bostan, Heliopolis, Cairo Governorate, Cairo, Cairo Governorate 11321, Egypt", "lat": 31.31987, "types": ["dentist", "health", "point_of_interest", "establishment"], "place_id": "ChIJKbgEi48VWBQRCpEvLUqocj0"}, {"name": "Roma Group", "formatted_address": "Egypt, Cairo Governorate, Abdeen, Al Fawalah, محمد فريد، 邮政编码: 11111", "lat": 31.2445284, "types": ["point_of_interest", "establishment"], "place_id": "ChIJweGhHr5AWBQRXT3ZtAgs6CE"}, {"name": "Sha'ar Hashamayim Synagogue", "formatted_address": "18 شارع عدلي، الفوالة، عابدين، محافظة القاهرة‬،، Egypt", "lat": 31.2436791, "types": ["synagogue", "place_of_worship", "point_of_interest", "establishment"], "place_id": "ChIJDVLmR6hBWBQR6vKEPq4Bl6M"}, {"name": "Gold Watch", "formatted_address": "23 Adly St.، DOWNTOWN، Abdeen, Cairo Governorate, Egypt", "lat": 31.2438927, "types": ["point_of_interest", "establishment"], "place_id": "ChIJ410GPb5AWBQRbuArHVt4z0s"}]