[{"name": "Fostat city", "formatted_address": "Al Fostat St, Kom Ghorab, Old Cairo, Cairo Governorate, Egypt", "lat": 31.2480281, "types": ["park", "point_of_interest", "establishment"], "place_id": "ChIJhwJcljdHWBQRtQT373yhruU"}, {"name": "Fustat Park", "formatted_address": "Salah Salem St, Ad Deyorah, Old Cairo, Cairo Governorate, Egypt", "lat": 31.2451234, "types": ["tourist_attraction", "park", "point_of_interest", "establishment"], "place_id": "ChIJXfx280FHWBQRd9oXbVklV0M"}, {"name": "Ancient museum.fostat", "formatted_address": "Fostat city, Al Fostat St, Kom Ghorab, Old Cairo, Cairo Governorate, Egypt", "lat": 31.24780609999999, "types": ["museum", "point_of_interest", "establishment"], "place_id": "ChIJHQ9ftDJHWBQR33JE0zUl38M"}, {"name": "Darb 1718", "formatted_address": "159 محور 26 يوليو، 11211, Egypt", "lat": 31.231792, "types": ["tourist_attraction", "point_of_interest", "establishment"], "place_id": "ChIJybfNOxBHWBQRldPrJsqISqE"}, {"name": "The National Museum of Egyptian Civilization", "formatted_address": "Ein as Seirah, Old Cairo, Cairo Governorate, Egypt", "lat": 31.2482604, "types": ["museum", "tourist_attraction", "point_of_interest", "establishment"], "place_id": "ChIJj57jY2hHWBQRXRSPb0RY4MI"}, {"name": "البوابة الجنوبية لحديقة الفسطاط", "formatted_address": "Ahmed Emara, Ad Deyorah, Old Cairo, Cairo Governorate, Egypt", "lat": 31.2464184, "types": ["park", "point_of_interest", "establishment"], "place_id": "ChIJGzXwkW9HWBQRrxuPwhXYKNg"}, {"name": "The National Museum of Egyptian Civilization", "formatted_address": "Al Fostat St, Ad Deyorah, Old Cairo, Cairo Governorate, Egypt", "lat": 31.2490476, "types": ["museum", "point_of_interest", "establishment"], "place_id": "ChIJiXaNQ-NHWBQRZWBXM1_wl14"}, {"name": "متحف الحضارة", "formatted_address": "شارع الفسطاط، الديورة، حي مصر القديمة، محافظة القاهرة‬،، كوم غراب، حي مصر القديمة، محافظة القاهرة‬،، Egypt", "lat": 31.2507941, "types": ["museum", "point_of_interest", "establishment"], "place_id": "ChIJV460uTFHWBQRi5ZXfH9K_uk"}, {"name": "الفسطاط الجديدة", "formatted_address": "Fostat city, شارع الفسطاط، كوم غراب، حي مصر القديمة، محافظة القاهرة‬،، Egypt", "lat": 31.248036, "types": ["point_of_interest", "establishment"], "place_id": "ChIJNUxaMHFHWBQRSRQdmo7_KPU"}, {"name": "Cairo House", "formatted_address": "Al Fostat St, Ad Deyorah, Old Cairo, Cairo Governorate, Egypt", "lat": 31.2444574, "types": ["point_of_interest", "establishment"], "place_id": "ChIJu6QQDmxHWBQRCkveF-zSp88"}, {"name": "Foustat Traditional Crafts Center", "formatted_address": "El-Imam Malik, Ad Deyorah, Old Cairo, Cairo Governorate, Egypt", "lat": 31.23532719999999, "types": ["museum", "tourist_attraction", "point_of_interest", "establishment"], "place_id": "ChIJQRYE1RZHWBQR-W1G9T-XM4M"}, {"name": "The Egyptian Museum", "formatted_address": "شارع ماريت باشا، ميدان التحرير، Egypt", "lat": 31.23361389999999, "types": ["museum", "tourist_attraction", "point_of_interest", "establishment"], "place_id": "ChIJw741VYhBWBQRD2Z6OiulDVI"}, {"name": "Synagogue Ben Ezra", "formatted_address": "Kom Ghorab, Old Cairo, Cairo Governorate, Egypt", "lat": 31.2310336, "types": ["synagogue", "tourist_attraction", "place_of_worship", "point_of_interest", "establishment"], "place_id": "ChIJd37-VBBHWBQRXjbwRwh6nHE"}, {"name": "Al Azhar Park", "formatted_address": "Salah Salem St, El-Darb El-Ahmar, Cairo Governorate, Egypt", "lat": 31.2647327, "types": ["tourist_attraction", "park", "point_of_interest", "establishment"], "place_id": "ChIJcdNCwlg_WBQRsqBpd7z8tbQ"}, {"name": "Abouelnaga. Studio", "formatted_address": "Al Fostat St, Kom Ghorab, Old Cairo, Cairo Governorate, Egypt", "lat": 31.2357331, "types": ["point_of_interest", "establishment"], "place_id": "ChIJM4sihsBHWBQR20hFsGXA9ME"}, {"name": "Salah Al-Din Al-Ayoubi Castle, Salah Salem Street, Cairo", "formatted_address": "Salah Salem St, Al Abageyah, El-Khalifa, Cairo Governorate, Egypt", "lat": 31.2594688, "types": ["point_of_interest", "establishment"], "place_id": "ChIJY-3CkKxAWBQRby736eSW2y8"}, {"name": "Rodet AlFustat Mosque", "formatted_address": "طريق مصر القديمه، Kom Ghorab, Old Cairo, Cairo Governorate, Egypt", "lat": 31.246013, "types": ["mosque", "place_of_worship", "point_of_interest", "establishment"], "place_id": "ChIJfYXUhW5HWBQRfFMeHL75-L8"}, {"name": "A'mr ibn Al-A'as Mosque", "formatted_address": "الكفور ميدان جامع عمرو بن العاص، Old Cairo, Egypt", "lat": 31.23313679999999, "types": ["point_of_interest", "establishment"], "place_id": "ChIJI5Co-XtHWBQRawUwEcSA844"}, {"name": "نادي العاملين بوزارة الأثار", "formatted_address": "الديورة، مصر القديمة،، Cairo Governorate, Egypt", "lat": 31.24236419999999, "types": ["museum", "point_of_interest", "establishment"], "place_id": "ChIJ5S9GCPZHWBQRbBwTB21jnIQ"}, {"name": "نادي هيئه الاثار", "formatted_address": "بجوار وحدة رصد، Al Fostat St, Ad Deyorah, Old Cairo, Cairo Governorate, Egypt", "lat": 31.2414231, "types": ["point_of_interest", "establishment"], "place_id": "ChIJkUZH0StHWBQRXw8j8lWphhU"}, {"name": "Bon Voyage", "formatted_address": "16 Adly, Al Fawalah, Abdeen, Cairo Governorate, Egypt", "lat": 31.244439, "types": ["tourist_attraction", "point_of_interest", "establishment"], "place_id": "ChIJJZ3TEL5AWBQRc-PhG_sO-S0"}, {"name": "Fortress of Babylon", "formatted_address": "مار جرجس، كوم غراب، مصر القديمة، محافظة القاهرة‬،،، Egypt", "lat": 31.2299174, "types": ["point_of_interest", "establishment"], "place_id": "ChIJ2fWo76FHWBQRTsKDdLTv9Nc"}, {"name": "Maadi Island", "formatted_address": "Dar Al Salam, Giza Governorate, Egypt", "lat": 31.239237, "types": ["restaurant", "tourist_attraction", "park", "food", "point_of_interest", "establishment"], "place_id": "ChIJwY7d5MFHWBQRl1nMXlW_tUY"}, {"name": "Mosque of Ibn Tulun", "formatted_address": "Tolon, El-Sayeda Zainab, Cairo Governorate, Egypt", "lat": 31.2493941, "types": ["mosque", "tourist_attraction", "place_of_worship", "point_of_interest", "establishment"], "place_id": "ChIJp0luK01HWBQRUtnkQJOsgkA"}, {"name": "Central Fustat", "formatted_address": "Kom Ghorab, Old Cairo, Cairo Governorate, Egypt", "lat": 31.2436321, "types": ["point_of_interest", "establishment"], "place_id": "ChIJL1FesW1HWBQR_cy6s_yNExM"}, {"name": "برج الوفا - الكومى", "formatted_address": "Al Fostat St, Kom Ghorab, Old Cairo, Cairo Governorate, Egypt", "lat": 31.242426, "types": ["home_goods_store", "point_of_interest", "store", "establishment"], "place_id": "ChIJ-wayieVHWBQRsdP45y8K2Vc"}, {"name": "Dr. Hisham Acharaky clinic", "formatted_address": "مصر القديمه شارع الفسطاط مدينه الفسطاط الجديده مجاوره أولى عماره ٣س، Old Cairo, Egypt", "lat": 31.2470996, "types": ["health", "point_of_interest", "establishment"], "place_id": "ChIJ25XumG5HWBQRFGTmD7laYMw"}, {"name": "Sculpture & Carving", "formatted_address": "Al Fostat St, Kom Ghorab, Old Cairo, Cairo Governorate, Egypt", "lat": 31.2414556, "types": ["point_of_interest", "establishment"], "place_id": "ChIJ9xLZ3ydHWBQR78xf3sN_5-A"}, {"name": "مركز شباب الفسطاط", "formatted_address": "دار السلام، كوم غراب، حي مصر القديمة،، Cairo Governorate, Egypt", "lat": 31.2314188, "types": ["point_of_interest", "establishment"], "place_id": "ChIJ3aIZtPlHWBQRDE4_g-kbXNQ"}, {"name": "Ittihadia Palace", "formatted_address": "Al Nadi، El-Montaza, Heliopolis, Cairo Governorate, Egypt", "lat": 31.3193929, "types": ["tourist_attraction", "premise", "point_of_interest", "establishment"], "place_id": "ChIJuftqUS8-WBQRtM7fDk0QcPk"}, {"name": "دكتور هشام الشراكى _ مخ واعصاب اطفال", "formatted_address": "شارع الفسطاط المجاورة الاولى عماره ٣س امام دار الوثائق القوميه مصر القديمه _مدينه الفسطاط الجديده امام دار الوثائق القوميه, Cairo Governorate, Egypt", "lat": 31.2472189, "types": ["doctor", "health", "point_of_interest", "establishment"], "place_id": "ChIJq8RdmG5HWBQR9c8da5eDv-w"}, {"name": "حاتي ابو اشرف", "formatted_address": "شارع الفسطاط الجديد مدينة الفسطاط, Cairo Governorate, Egypt", "lat": 31.24366479999999, "types": ["restaurant", "food", "point_of_interest", "establishment"], "place_id": "ChIJpUhzfw5HWBQRA_uWfposlxM"}, {"name": "Fustat", "formatted_address": "Fustat, Kom Ghorab, Old Cairo, Cairo Governorate, Egypt", "lat": 31.23333299999999, "types": ["locality", "political"], "place_id": "ChIJIT_Thw5HWBQRDljEB163jQ0"}, {"name": "سور مجري العيون", "formatted_address": "القاهرة، عين الصيرة، حي مصر القديمة،، Cairo Governorate, Egypt", "lat": 31.2447041, "types": ["point_of_interest", "establishment"], "place_id": "ChIJOTEHUMBHWBQRV0u3vpB_7hM"}, {"name": "Cairo Land - Gulf For Investment & Development", "formatted_address": "1 Salah Salem St, Abu as Saoud Al Madabegh, Old Cairo, Cairo Governorate, Egypt", "lat": 31.2376581, "types": ["point_of_interest", "establishment"], "place_id": "ChIJhWg5xThHWBQRTFVQrkQN6ms"}, {"name": "Atelier De Sculpture", "formatted_address": "Al Fostat St, Kom Ghorab, Old Cairo, Cairo Governorate, Egypt", "lat": 31.2414556, "types": ["point_of_interest", "establishment"], "place_id": "ChIJy13Jt5BHWBQRGE86E-p1I1M"}, {"name": "شركة الصفاء لصناعة الفخار والفيبر جلاس", "formatted_address": "شارع الفسطاط، مصر القديمة،، Cairo Governorate, Egypt", "lat": 31.23950929999999, "types": ["point_of_interest", "establishment"], "place_id": "ChIJTV9O1BJHWBQRgoNDlADA70Y"}, {"name": "Baron Empain Palace", "formatted_address": "El-Orouba, El-Montaza, Heliopolis, Cairo Governorate 11757, Egypt", "lat": 31.3303332, "types": ["point_of_interest", "establishment"], "place_id": "ChIJ1_GM8iE-WBQRLNVi-RT7vDA"}, {"name": "Our Lady of Heliopolis Co-Cathedral", "formatted_address": "Nazih Khalifa crossroad، Al Ahram, Heliopolis, Cairo Governorate, Egypt", "lat": 31.3251828, "types": ["church", "place_of_worship", "point_of_interest", "establishment"], "place_id": "ChIJJdgh-okVWBQR5TqTmKuQ0IM"}, {"name": "عصائر جمال القبيصي مللك المانجو و الفراولة", "formatted_address": "امام المتحف القومي للحضارات، 3 Al Fostat St, Kom Ghorab, Old Cairo, Cairo Governorate 11632, Egypt", "lat": 31.2428132, "types": ["food", "point_of_interest", "establishment"], "place_id": "ChIJ6USixGlHWBQRkQsoTIeDlBY"}, {"name": "Raneen - El Fustat", "formatted_address": "كوم غراب، حي مصر القديمة،، Cairo Governorate, Egypt", "lat": 31.2425201, "types": ["home_goods_store", "point_of_interest", "store", "establishment"], "place_id": "ChIJF7YBrlpHWBQRd6pByKZf_bk"}, {"name": "معرض تاكى الفسطاط", "formatted_address": "كوم غراب، حي مصر القديمة،، Cairo Governorate, Egypt", "lat": 31.2432926, "types": ["home_goods_store", "point_of_interest", "store", "establishment"], "place_id": "ChIJ82sYrZxHWBQR_1Hy24ufCdg"}, {"name": "معرض الفسطاط للمراتب تاكى", "formatted_address": "كوم غراب، حي مصر القديمة،، Cairo Governorate, Egypt", "lat": 31.2432437, "types": ["point_of_interest", "establishment"], "place_id": "ChIJD5wbIKdHWBQR_FsPt-ER94E"}, {"name": "Misr El Dawleya", "formatted_address": "96 ش محمد فريد، وسط البلد، Abdeen, Cairo Governorate, Egypt", "lat": 31.2442814, "types": ["point_of_interest", "establishment"], "place_id": "ChIJYaZ29JVAWBQRfDHDvqzkKAg"}, {"name": "صوت الفن", "formatted_address": "16 Adly, Bab Al Louq, Abdeen, Cairo Governorate, Egypt", "lat": 31.244439, "types": ["point_of_interest", "establishment"], "place_id": "ChIJ__8vEb5AWBQRqaCYbvGsNWU"}, {"name": "The Great Pyramid of Giza", "formatted_address": "Al Haram, Nazlet El-Semman, Al Giza Desert, Giza Governorate, Egypt", "lat": 31.1342019, "types": ["tourist_attraction", "premise", "point_of_interest", "establishment"], "place_id": "ChIJGymPrIdFWBQRJCSloj8vDIE"}, {"name": "مكتب بريد - الفسطاط", "formatted_address": "Kom Ghorab, Old Cairo, Cairo Governorate, Egypt", "lat": 31.2498318, "types": ["point_of_interest", "establishment"], "place_id": "ChIJiTdlazpHWBQR8KhtYHqNzGw"}, {"name": "الفسطاط سنتر", "formatted_address": "city, Kom Ghorab, Old Cairo, Cairo Governorate, Egypt", "lat": 31.2509476, "types": ["shopping_mall", "point_of_interest", "establishment"], "place_id": "ChIJlVc0mjNHWBQR2NVr8aFJ9rc"}, {"name": "Centeral Al Fustat", "formatted_address": "Ad Deyorah, Old Cairo, Cairo Governorate, Egypt", "lat": 31.242682, "types": ["transit_station", "point_of_interest", "establishment"], "place_id": "ChIJI1E-VmxHWBQR57wfVe05Sc8"}, {"name": "Family Park", "formatted_address": "مدخل الرحاب 2 ) الكيلو 26،، Suez Rd, Egypt", "lat": 31.5013244, "types": ["park", "tourist_attraction", "point_of_interest", "establishment"], "place_id": "ChIJ97tx7voYWBQR-q4kFfGwYYo"}, {"name": "Sha'ar Hashamayim Synagogue", "formatted_address": "18 شارع عدلي، الفوالة، عابدين، محافظة القاهرة‬،، Egypt", "lat": 31.2436791, "types": ["synagogue", "place_of_worship", "point_of_interest", "establishment"], "place_id": "ChIJDVLmR6hBWBQR6vKEPq4Bl6M"}, {"name": "Enviro Egypt", "formatted_address": "34 ش عدلى، وسط البلد، Abdeen, Cairo Governorate, Egypt", "lat": 31.2438927, "types": ["point_of_interest", "establishment"], "place_id": "ChIJtZcaApZAWBQR8B1wlb7EUNU"}, {"name": "Souq el Fustat", "formatted_address": "Al Kafour, Old Cairo, Cairo Governorate, Egypt", "lat": 31.2312927, "types": ["point_of_interest", "establishment"], "place_id": "ChIJ4VjX1RZHWBQRL6AyTZYMOvc"}, {"name": "كوبري عين الصيرة الجديد", "formatted_address": "Salah Salem St, Ein as Seirah, Old Cairo, Cairo Governorate, Egypt", "lat": 31.2395342, "types": ["point_of_interest", "establishment"], "place_id": "ChIJVaWpMNZHWBQRKuL0a4R3hZM"}, {"name": "New Society Service Association", "formatted_address": "18 Adly St.، DOWNTOWN، Abdeen, Cairo Governorate, Egypt", "lat": 31.2438927, "types": ["point_of_interest", "establishment"], "place_id": "ChIJtZcaApZAWBQRXp74iGF8f3E"}, {"name": "Directorate Of Supply & Internal Trading - Cairo", "formatted_address": "Kom Ghorab, Old Cairo, Cairo Governorate, Egypt", "lat": 31.24975199999999, "types": ["point_of_interest", "establishment"], "place_id": "ChIJZzsHwGhHWBQRtKW51eD77yc"}, {"name": "NOON ART", "formatted_address": "مول سوق الفسطاط بجوار جامع عمرو بن العاص، Old Cairo, Egypt", "lat": 31.2313374, "types": ["point_of_interest", "establishment"], "place_id": "ChIJO8DP615HWBQRU-f4AGUbfB0"}, {"name": "سنترال الفسطاط ghmrawy", "formatted_address": "كوم غراب، مصر القديمة،، Cairo Governorate, Egypt", "lat": 31.243585, "types": ["atm", "finance", "point_of_interest", "establishment"], "place_id": "ChIJnfXqm2JHWBQRoAQHiVQ2OAE"}, {"name": "Roma Group", "formatted_address": "Egypt, Cairo Governorate, Abdeen, Al Fawalah, محمد فريد، 邮政编码: 11111", "lat": 31.2445284, "types": ["point_of_interest", "establishment"], "place_id": "ChIJweGhHr5AWBQRXT3ZtAgs6CE"}, {"name": "Cooper For Aluminum", "formatted_address": "54 ش محمد فريد، Al Fawalah, Abdeen, Cairo Governorate, Egypt", "lat": 31.2442814, "types": ["point_of_interest", "establishment"], "place_id": "ChIJYaZ29JVAWBQRAE2cOU0iLTg"}]