[{"name": "Ittihadia Palace", "formatted_address": "Al Nadi، El-Montaza, Heliopolis, Cairo Governorate, Egypt", "lat": 30.0888643, "lng": 31.3193929, "types": ["tourist_attraction", "premise", "point_of_interest", "establishment"], "place_id": "ChIJuftqUS8-WBQRtM7fDk0QcPk"}, {"name": "Our Lady of Heliopolis Co-Cathedral", "formatted_address": "Nazih Khalifa crossroad، Al Ahram, Heliopolis, Cairo Governorate, Egypt", "lat": 30.0935707, "lng": 31.3251828, "types": ["church", "place_of_worship", "point_of_interest", "establishment"], "place_id": "ChIJJdgh-okVWBQR5TqTmKuQ0IM"}, {"name": "The Child Museum", "formatted_address": "34 Abou Bakr El-Sedeek, El-Bostan, Heliopolis, Cairo Governorate, Egypt", "lat": 30.1022381, "lng": 31.33694599999999, "types": ["tourist_attraction", "museum", "point_of_interest", "establishment"], "place_id": "ChIJz-2ngvIVWBQR0usMZT-HkR8"}, {"name": "Al Kholafaa Al Rashdeen Mosque", "formatted_address": "El Hegaz St, El-Bostan, Heliopolis, Cairo Governorate, Egypt", "lat": 30.1010215, "lng": 31.3243996, "types": ["mosque", "place_of_worship", "point_of_interest", "establishment"], "place_id": "ChIJufJ9io4VWBQRRErdNLAMvpM"}, {"name": "The Egyptian Museum", "formatted_address": "شارع ماريت باشا، ميدان التحرير، Egypt", "lat": 30.0475781, "lng": 31.23361389999999, "types": ["museum", "tourist_attraction", "point_of_interest", "establishment"], "place_id": "ChIJw741VYhBWBQRD2Z6OiulDVI"}, {"name": "Ahmed Abdo Mostafa", "formatted_address": "Al Bustan, Heliopolis, Cairo Governorate, Egypt", "lat": 30.0970809, "lng": 31.32558939999999, "types": ["point_of_interest", "establishment"], "place_id": "ChIJ50M_4osVWBQRBQ7MTmuP6qg"}, {"name": "Heliopolis Evangelical Church", "formatted_address": "18 Cleopatra, Almazah, Heliopolis, Cairo Governorate, Egypt", "lat": 30.0913153, "lng": 31.3280276, "types": ["church", "place_of_worship", "point_of_interest", "establishment"], "place_id": "ChIJibHnjiA-WBQRs_geaF2cbjU"}, {"name": "Gamal Eldin Al Afhghani Masjed", "formatted_address": "Al Gamea Sq., El-Bostan, Heliopolis, Cairo Governorate, Egypt", "lat": 30.0964855, "lng": 31.3283783, "types": ["mosque", "place_of_worship", "point_of_interest", "establishment"], "place_id": "ChIJwQPloosVWBQRrZF7XUAY2IQ"}, {"name": "Go Heliopolis - Khozam The First Compound In Heliopolis", "formatted_address": "شارع النزهة، مصر الجديدة،، Egypt", "lat": 30.0732268, "lng": 31.3397646, "types": ["lodging", "point_of_interest", "establishment"], "place_id": "ChIJZ7ZHBKs_WBQRJD3Ntp2Q_ww"}, {"name": "Abdeen Palace Museum", "formatted_address": "شارع جمعه عابدين،، El-Gomhoreya Square, Rahbet Abdin, Abdeen, Cairo Governorate, Egypt", "lat": 30.0422696, "lng": 31.248544, "types": ["tourist_attraction", "museum", "point_of_interest", "establishment"], "place_id": "ChIJF_ZR9bpAWBQR_WeDJloU-7o"}, {"name": "HELIOPOLIS GROUP - Narcotics Anonymous Fellowshiop Egypt I مجموعة هليوبليس- زمالة المدمنين المجهولين مصر", "formatted_address": "workspace, ٤٤ شارع صلاح الدين، مصر الجديدة، الدور التانى، 404, Cairo Governorate 11737, Egypt", "lat": 30.094678, "lng": 31.3300818, "types": ["point_of_interest", "establishment"], "place_id": "ChIJcX0lhI4VWBQR9LM3DWhj-Os"}, {"name": "Porto Heliopolis", "formatted_address": "Almazah, Heliopolis, Cairo Governorate, Egypt", "lat": 30.0827031, "lng": 31.348709, "types": ["lodging", "point_of_interest", "establishment"], "place_id": "ChIJR5FCXgE-WBQR471eyuZuvGw"}, {"name": "Alshafey", "formatted_address": "60 Damascus, El-Bostan, Heliopolis, Cairo Governorate, Egypt", "lat": 30.0958667, "lng": 31.3260749, "types": ["point_of_interest", "establishment"], "place_id": "ChIJYQqL0IsVWBQRahD57h3xnHQ"}, {"name": "El Ragaa Center", "formatted_address": "26 ش اسماعيل صبرى، El-Bostan, Heliopolis, Cairo Governorate, Egypt", "lat": 30.096876, "lng": 31.327179, "types": ["point_of_interest", "establishment"], "place_id": "ChIJk9NhkosVWBQRCNkUWoWo-Fg"}, {"name": "ساحة ونس Wanas", "formatted_address": "8 شارع عثمان بن عفان ميدان، Salah El-Din St., Heliopolis, Cairo Governorate, Egypt", "lat": 30.094441, "lng": 31.32762679999999, "types": ["point_of_interest", "establishment"], "place_id": "ChIJF1cxUooVWBQROX4KlNHDnDc"}, {"name": "Saint Mary Church - Ard El-Golf", "formatted_address": "Shams Al Din Al Zahabi, Al Golf, Nasr City, Cairo Governorate, Egypt", "lat": 30.0825805, "lng": 31.33328239999999, "types": ["church", "place_of_worship", "point_of_interest", "establishment"], "place_id": "ChIJz961RBg-WBQR2HK25harflQ"}, {"name": "Sheffield", "formatted_address": "30 Beirut, St, Heliopolis, Cairo Governorate, Egypt", "lat": 30.0957341, "lng": 31.3247985, "types": ["home_goods_store", "point_of_interest", "store", "establishment"], "place_id": "ChIJ0VQmeYkVWBQRb0W0XU754LE"}, {"name": "مسجد حفيظة الألفى", "formatted_address": "El-Bostan, Heliopolis, Cairo Governorate, Egypt", "lat": 30.0946092, "lng": 31.3255197, "types": ["mosque", "place_of_worship", "point_of_interest", "establishment"], "place_id": "ChIJP_Y3J4oVWBQRZnJ8P7B5fGs"}, {"name": "Balcon Heliopolis", "formatted_address": "26 Sohag, El-Bostan, Heliopolis, Cairo Governorate, Egypt", "lat": 30.0994071, "lng": 31.3324821, "types": ["point_of_interest", "establishment"], "place_id": "ChIJVQnP3PIVWBQR-BFcoaXdkc0"}, {"name": "Lighthouse Training لايت هاوس للتدريب", "formatted_address": "شارع اسماعيل رمزي رقم 35, 35 Ismail Ramzy Street Heliopolis, Egypt", "lat": 30.0994113, "lng": 31.3244517, "types": ["point_of_interest", "establishment"], "place_id": "ChIJ2S_bvo4VWBQR76rnZcTfjrc"}, {"name": "Esparanza Educational Pre-School", "formatted_address": "5 متفرع من ش بيروت، El-Bostan, Heliopolis, Cairo Governorate, Egypt", "lat": 30.09605209999999, "lng": 31.3256663, "types": ["school", "point_of_interest", "establishment"], "place_id": "ChIJ2cDGBSA-WBQRL3-vsLH7Hnc"}, {"name": "British Council", "formatted_address": "4 Minya, El-Bostan, Heliopolis, Cairo Governorate, Egypt", "lat": 30.0959119, "lng": 31.3236016, "types": ["point_of_interest", "establishment"], "place_id": "ChIJz8iNp4kVWBQRdB9ba3Xvh0M"}, {"name": "شارع هارون مصر الجديدة - Haroun Street Heliopolis", "formatted_address": "43-45 Abou Bakr El-Sedeek, El-Bostan, Heliopolis, Cairo Governorate, Egypt", "lat": 30.1012259, "lng": 31.3322984, "types": ["shopping_mall", "point_of_interest", "establishment"], "place_id": "ChIJf4zEpvIVWBQRSSrLyqFS-NI"}, {"name": "(Heliopolis Public library)", "formatted_address": "Beirut, Almazah, Heliopolis, Cairo Governorate, Egypt", "lat": 30.090914, "lng": 31.3328428, "types": ["library", "point_of_interest", "establishment"], "place_id": "ChIJd3h9YvUVWBQR2Oi9DLQTI8E"}, {"name": "Radisson Blu Hotel, Cairo Heliopolis", "formatted_address": "Abdel Hamid Badawi St Heliopolis, Cairo Governorate 11787, Egypt", "lat": 30.1065093, "lng": 31.3753121, "types": ["lodging", "point_of_interest", "establishment"], "place_id": "ChIJQZJ8fWUWWBQRAUPO9I6SxPg"}, {"name": "Golden Park Hotel", "formatted_address": "شارع الحجاز ، مصر الجديده، 221 شارع الحجاز ، هيليوبوليس ،، El Nozha, Cairo Governorate, Egypt", "lat": 30.1153686, "lng": 31.3525102, "types": ["lodging", "point_of_interest", "establishment"], "place_id": "ChIJsQQdRNgVWBQRss6fVxNFk_8"}, {"name": "Teachers Syndicate Heliopolis Branch", "formatted_address": "1 شارع غرناطة ، شارع ابراهيم اللقانى ، روكسى، Heliopolis, Cairo Governorate, Egypt", "lat": 30.0925119, "lng": 31.3177426, "types": ["point_of_interest", "establishment"], "place_id": "ChIJlS5HVig-WBQRk-sRVLziuKs"}, {"name": "Sodic 46 El Thawra Street, Heliopolis", "formatted_address": "46 El-Thawra St, Almazah, Heliopolis, Cairo Governorate, Egypt", "lat": 30.086013, "lng": 31.3365718, "types": ["real_estate_agency", "point_of_interest", "establishment"], "place_id": "ChIJa3_JAiU_WBQRoarMzyMWRUc"}, {"name": "Howeedy Engineering Consultations", "formatted_address": "No. 64 Beirut Street, Heliopolis، شارع Beirut, El-Nozha, Cairo Governorate 11341, Egypt", "lat": 30.0924596, "lng": 31.3289364, "types": ["point_of_interest", "establishment"], "place_id": "ChIJmY4WhIoVWBQRgt0p3NqmpxY"}, {"name": "El Nomrosy", "formatted_address": "16 Ismail Ramzy, El-Bostan, Heliopolis, Cairo Governorate, Egypt", "lat": 30.0963244, "lng": 31.3274925, "types": ["point_of_interest", "store", "establishment"], "place_id": "ChIJQ5NBmosVWBQRDaqVTwcsTvw"}, {"name": "Hamdy Lada Real", "formatted_address": "62 Damascus, El-Bostan, Heliopolis, Cairo Governorate, Egypt", "lat": 30.09602779999999, "lng": 31.3265071, "types": ["car_repair", "point_of_interest", "store", "establishment"], "place_id": "ChIJhzo7xIsVWBQRlaUH4xdBz34"}, {"name": "TiE HOUSE", "formatted_address": "Merryland Park, 26 El Hegaz St, El-Bostan, Heliopolis, Cairo Governorate, Egypt", "lat": 30.0987802, "lng": 31.3231775, "types": ["shoe_store", "point_of_interest", "clothing_store", "store", "establishment"], "place_id": "ChIJi86qod5GWBQRcozRUEuCJp0"}, {"name": "Max Fashion, Al-Hegaz st, Heliopolis,Cairo", "formatted_address": "El Hegaz St, El-Bostan, Heliopolis, Cairo Governorate, Egypt", "lat": 30.0984072, "lng": 31.3228241, "types": ["clothing_store", "point_of_interest", "store", "establishment"], "place_id": "ChIJuTPyxI4VWBQRbTsZYCNfBAI"}, {"name": "العالمية لقطع غيار السيارات", "formatted_address": "60 Damascus, El-Bostan, Heliopolis, Cairo Governorate, Egypt", "lat": 30.095949, "lng": 31.32621899999999, "types": ["car_repair", "point_of_interest", "store", "establishment"], "place_id": "ChIJx54Z1XUVWBQRHC-UqsVcTTQ"}, {"name": "Post Office - West Heliopolis", "formatted_address": "El-Nozha, El Nozha, Cairo Governorate, Egypt", "lat": 30.1036179, "lng": 31.33018539999999, "types": ["post_office", "finance", "point_of_interest", "establishment"], "place_id": "ChIJ-1tRxpIVWBQR8pyCMmqAgXM"}, {"name": "El Ahd El Gadid", "formatted_address": "68 Damascus, El-Bostan, Heliopolis, Cairo Governorate, Egypt", "lat": 30.0962109, "lng": 31.3270433, "types": ["restaurant", "food", "point_of_interest", "establishment"], "place_id": "ChIJ4eCdv4sVWBQRCU5hRUT7vf8"}, {"name": "Bank Audi", "formatted_address": "54 ش دمشق، El-Bostan, Heliopolis, Cairo Governorate, Egypt", "lat": 30.0955728, "lng": 31.3252756, "types": ["bank", "finance", "point_of_interest", "establishment"], "place_id": "ChIJqxK_NIgVWBQRZP8XBsAfzwY"}, {"name": "El Shabrawy", "formatted_address": "16 Al Gamea Sq Heliopolis، Cairo Governorate, Egypt", "lat": 30.0964727, "lng": 31.3276541, "types": ["restaurant", "food", "point_of_interest", "establishment"], "place_id": "ChIJm2mEeIsVWBQRBWg3IbX8pjU"}, {"name": "بنك امارات دبى الوطنى", "formatted_address": "9 Beirut, El-Bostan, Heliopolis, Cairo Governorate, Egypt", "lat": 30.0963578, "lng": 31.3251261, "types": ["bank", "finance", "point_of_interest", "establishment"], "place_id": "ChIJ4ez9JYoVWBQRMQK0UaWkK38"}, {"name": "El Asema Hospital Heliopolis", "formatted_address": "12 Shebeen, El-Bostan, Heliopolis, Cairo Governorate, Egypt", "lat": 30.0960332, "lng": 31.3307213, "types": ["hospital", "health", "point_of_interest", "establishment"], "place_id": "ChIJ58RJTIsVWBQRT0Oog1-ibwA"}, {"name": "Capital Hospital Heliopolis", "formatted_address": "ميدان صلاح الدين، El-Bostan, Heliopolis, Cairo Governorate, Egypt", "lat": 30.0956967, "lng": 31.3309065, "types": ["hospital", "health", "point_of_interest", "establishment"], "place_id": "ChIJ-UxPTIsVWBQRtB4WWX5rP_Y"}, {"name": "Zaki Girguis Sons", "formatted_address": "60 Damascus, El-Bostan, Heliopolis, Cairo Governorate, Egypt", "lat": 30.0959835, "lng": 31.3260603, "types": ["car_repair", "point_of_interest", "store", "establishment"], "place_id": "ChIJQXyuxYsVWBQRF9g_N3JBE10"}, {"name": "Heliopolis Family Court", "formatted_address": "58 El Hegaz St, El-Nozha, Heliopolis, Cairo Governorate, Egypt", "lat": 30.10326, "lng": 31.3297672, "types": ["courthouse", "local_government_office", "point_of_interest", "establishment"], "place_id": "ChIJNxzB6pIVWBQRQx6kT15XA74"}, {"name": "Heliolido Club", "formatted_address": "ش Al Maahad Eshtraki, El-Montaza, Heliopolis, Cairo Governorate, Egypt", "lat": 30.0947827, "lng": 31.314453, "types": ["point_of_interest", "establishment"], "place_id": "ChIJT-7Tk4cVWBQRsVhVdJCc9WM"}, {"name": "فندق الحرية", "formatted_address": "14 El-Horeya, Almazah, Heliopolis, Cairo Governorate, Egypt", "lat": 30.0875576, "lng": 31.3393105, "types": ["lodging", "bar", "restaurant", "food", "point_of_interest", "establishment"], "place_id": "ChIJB4CF9-8VWBQRFMbaca5VaWk"}, {"name": "9 Beirut Street", "formatted_address": "9 Beirut, El-Bostan, Heliopolis, Cairo Governorate, Egypt", "lat": 30.0963729, "lng": 31.3248466, "types": ["point_of_interest", "establishment"], "place_id": "ChIJ4xWQ_QoVWBQRgCnGNa-aaJE"}, {"name": "Banque Misr For Islamic Transactions", "formatted_address": "30 ش بيروت، El-Bostan, Heliopolis, Cairo Governorate, Egypt", "lat": 30.0959061, "lng": 31.3252585, "types": ["bank", "finance", "point_of_interest", "establishment"], "place_id": "ChIJUzIuf4kVWBQR9bQa-gUoeSc"}, {"name": "الشهابى", "formatted_address": "49 intersection of beirut st.، El-Bostan, Heliopolis, Cairo Governorate, Egypt", "lat": 30.0953724, "lng": 31.3256297, "types": ["car_repair", "point_of_interest", "store", "establishment"], "place_id": "ChIJYREQ1YsVWBQRbGbQ0k3H860"}, {"name": "Real Estate Taxes Mission - Heliopolis", "formatted_address": "32 El Hegaz St, El-Nozha, El Nozha, Cairo Governorate, Egypt", "lat": 30.1050968, "lng": 31.3300895, "types": ["accounting", "finance", "local_government_office", "point_of_interest", "establishment"], "place_id": "ChIJV27e45IVWBQRtWfzvf6Odgc"}, {"name": "Kababgy El Azhar Farahat", "formatted_address": "27 شارع الحجاز ،مصر الجديدة _(امام الميريلاند 21 شارع الطاقة ( مدينة نصر، خلف، النادي الأهلي، Heliopolis, Cairo Governorate, Egypt", "lat": 30.0986427, "lng": 31.3229307, "types": ["restaurant", "food", "point_of_interest", "establishment"], "place_id": "ChIJ06TYwusVWBQRWOjTtDOzh5k"}, {"name": "العزازي للطباعة", "formatted_address": "20 Damanhour, El-Bostan, Heliopolis, Cairo Governorate, Egypt", "lat": 30.0980181, "lng": 31.3294301, "types": ["point_of_interest", "establishment"], "place_id": "ChIJN7vok4wVWBQRWDTYod0D160"}, {"name": "El Sheikh Aly", "formatted_address": "60 ش دمشق، El-Bostan, Heliopolis, Cairo Governorate, Egypt", "lat": 30.0953451, "lng": 31.3243841, "types": ["car_repair", "point_of_interest", "store", "establishment"], "place_id": "ChIJQXyuxYsVWBQRddY3CQ3P6bA"}, {"name": "Maronite Patriarchate", "formatted_address": "50 ش بيروت، Almazah, القاهرة، Cairo Governorate, Egypt", "lat": 30.093678, "lng": 31.3270573, "types": ["church", "place_of_worship", "point_of_interest", "establishment"], "place_id": "ChIJwzyxfYoVWBQRTGDAje688Oo"}, {"name": "Maadi Island", "formatted_address": "Dar Al Salam, Giza Governorate, Egypt", "lat": 29.965527, "lng": 31.239237, "types": ["restaurant", "tourist_attraction", "park", "food", "point_of_interest", "establishment"], "place_id": "ChIJwY7d5MFHWBQRl1nMXlW_tUY"}, {"name": "Health Bureau Heliopolis", "formatted_address": "38 Beirut, El-Bostan, Heliopolis, Cairo Governorate, Egypt", "lat": 30.0950899, "lng": 31.3260085, "types": ["local_government_office", "health", "point_of_interest", "establishment"], "place_id": "ChIJo29lKYoVWBQRs6yYAZXlZSs"}, {"name": "Noor for renault", "formatted_address": "34,damascus street heliopolis, ٣٤ شارع، Damascus, Heliopolis, Cairo Governorate, Egypt", "lat": 30.0947767, "lng": 31.3232471, "types": ["point_of_interest", "establishment"], "place_id": "ChIJ606ysFsVWBQR-MSN3kBNdbM"}, {"name": "El Horreya Mall", "formatted_address": "42 Al Ahram, El-Montaza, Heliopolis, Cairo Governorate, Egypt", "lat": 30.0935327, "lng": 31.3238339, "types": ["shopping_mall", "point_of_interest", "establishment"], "place_id": "ChIJVWkOpSc-WBQRPL9Ie5jLK-I"}, {"name": "Koll Shiaa", "formatted_address": "٧ شارع، Ismail Ramzy, ميدان الجامع, Heliopolis, Cairo Governorate, Egypt", "lat": 30.0959952, "lng": 31.3287233, "types": ["hardware_store", "point_of_interest", "clothing_store", "store", "establishment"], "place_id": "ChIJsy-A84sVWBQReQjVBREswSQ"}, {"name": "Mohamed Gaber & Brothers", "formatted_address": "55 Demascus St.، El-Bostan, Heliopolis, Cairo Governorate, Egypt", "lat": 30.095742, "lng": 31.326444, "types": ["car_repair", "point_of_interest", "store", "establishment"], "place_id": "ChIJqxK_NIgVWBQRviCdDWmZ9so"}, {"name": "Tanmet Al Sahaa WA Al Beaa", "formatted_address": "Al Bustan, Heliopolis, Cairo Governorate, Egypt", "lat": 30.0946501, "lng": 31.3248877, "types": ["hospital", "health", "point_of_interest", "establishment"], "place_id": "ChIJSeH7g4kVWBQR1RrRgiPR6Ts"}]