[{"name": "Ittihadia Palace", "formatted_address": "Al Nadi، El-Montaza, Heliopolis, Cairo Governorate, Egypt", "lat": 31.3193929, "types": ["tourist_attraction", "premise", "point_of_interest", "establishment"], "place_id": "ChIJuftqUS8-WBQRtM7fDk0QcPk"}, {"name": "Baron Empain Palace", "formatted_address": "El-Orouba, El-Montaza, Heliopolis, Cairo Governorate 11757, Egypt", "lat": 31.3303332, "types": ["point_of_interest", "establishment"], "place_id": "ChIJ1_GM8iE-WBQRLNVi-RT7vDA"}, {"name": "Al Kholafaa Al Rashdeen Mosque", "formatted_address": "El Hegaz St, El-Bostan, Heliopolis, Cairo Governorate, Egypt", "lat": 31.3243996, "types": ["mosque", "place_of_worship", "point_of_interest", "establishment"], "place_id": "ChIJufJ9io4VWBQRRErdNLAMvpM"}, {"name": "Integrated System Organization", "formatted_address": "21 El Fariq Helmy El Masry St.، Almazah, Heliopolis, Cairo Governorate, Egypt", "lat": 31.3434862, "types": ["point_of_interest", "establishment"], "place_id": "ChIJRZTtjfgVWBQRwvwb_r8zakI"}, {"name": "Baron Hotel Heliopolis", "formatted_address": "14 Al Baroon, El-Montaza, Heliopolis, Cairo Governorate, Egypt", "lat": 31.3314609, "types": ["lodging", "point_of_interest", "establishment"], "place_id": "ChIJUbVOACI-WBQRWsi5B7gYfxs"}, {"name": "Caesars Palace", "formatted_address": "45 Abd El-Aziz Fahmy, El-Nozha, El Nozha, Cairo Governorate, Egypt", "lat": 31.3355425, "types": ["lodging", "point_of_interest", "establishment"], "place_id": "ChIJHbvcjOgVWBQR5ieEdosTsKs"}, {"name": "Asfour Crystal - City Stars Mall", "formatted_address": "City Stars Mall, Masaken Al Mohandesin, Nasr City, Cairo Governorate 11765, Egypt", "lat": 31.344333, "types": ["home_goods_store", "point_of_interest", "store", "establishment"], "place_id": "ChIJrZK3GG8_WBQRUKM_cgtrCt8"}, {"name": "The Guard Hotel", "formatted_address": "Sheraton Al Matar, El Nozha, Cairo Governorate, Egypt", "lat": 31.3796222, "types": ["lodging", "point_of_interest", "establishment"], "place_id": "ChIJvTts2yMWWBQR0eJ3XrRMYWE"}, {"name": "Faisal Islamic Bank", "formatted_address": "82 Othman Ibn Affan, El-Nozha, El Nozha, Cairo Governorate, Egypt", "lat": 31.3411868, "types": ["bank", "finance", "point_of_interest", "establishment"], "place_id": "ChIJDfNd3O8VWBQRxXw1uS_-C9k"}, {"name": "Asfour Crystal", "formatted_address": "Sheraton Al Matar, El Nozha, Cairo Governorate, Egypt", "lat": 31.3646686, "types": ["home_goods_store", "point_of_interest", "store", "establishment"], "place_id": "ChIJrdfRxcE9WBQRrKEpaHpJAE8"}, {"name": "Suez Canal Bank", "formatted_address": "El-Montaza, Heliopolis, Cairo Governorate, Egypt", "lat": 31.322843, "types": ["bank", "finance", "point_of_interest", "establishment"], "place_id": "ChIJVVVF9iY-WBQRMxLQntP_E0w"}, {"name": "ELARABY Group", "formatted_address": "11 Menof, Almazah, Heliopolis, Cairo Governorate, Egypt", "lat": 31.3317168, "types": ["electronics_store", "point_of_interest", "store", "establishment"], "place_id": "ChIJ87P4-jgVWBQRbJ23lR0zB8o"}, {"name": "Suez Canal Bank", "formatted_address": "12 ش بغداد، Almazah, Heliopolis, Cairo Governorate, Egypt", "lat": 31.3267754, "types": ["atm", "finance", "point_of_interest", "establishment"], "place_id": "ChIJmUbmrSA-WBQRoqsK8bZbpbA"}, {"name": "Jotun Multicolor Centre – Normandy", "formatted_address": "7 Othman Ebn Afan، street, Salah Eldin square، Egypt", "lat": 31.3282631, "types": ["painter", "home_goods_store", "point_of_interest", "store", "establishment"], "place_id": "ChIJ23VoO4sVWBQRv8Zdcl4HhaY"}, {"name": "Helnan Landmark Hotel", "formatted_address": "87 South 90 st New Cairo، Cairo، Egypt", "lat": 31.4312153, "types": ["lodging", "point_of_interest", "establishment"], "place_id": "ChIJ907IPMZAWBQRrQ--CMcNmnI"}, {"name": "Jotun Multicolor Centre – Blue Deco", "formatted_address": "46 Ammar Ibn Yasser, Al Matar, El Nozha, Cairo Governorate, Egypt", "lat": 31.3538073, "types": ["painter", "home_goods_store", "point_of_interest", "store", "establishment"], "place_id": "ChIJ16cuTncWWBQRRqW54dt4tfY"}, {"name": "Radio Shack - Delta RS", "formatted_address": "17 El Nozha St.، Al Golf, Nasr City, Cairo Governorate, Egypt", "lat": 31.3382425, "types": ["electronics_store", "point_of_interest", "store", "establishment"], "place_id": "ChIJ6Xs8nAAVWBQRKiXJF7EURBI"}, {"name": "Asfour Crystal", "formatted_address": "4 Hashem Al Ashkar, Huckstep, El Nozha, Cairo Governorate, Egypt", "lat": 31.3761008, "types": ["home_goods_store", "point_of_interest", "store", "establishment"], "place_id": "ChIJAbStJMoXWBQRrAmH3AdkmEk"}, {"name": "Jotun Multicolor Centre – Blue MCI", "formatted_address": "2 Abd El-Hameed Badawi, Sheraton Al Matar, El Nozha, Cairo Governorate, Egypt", "lat": 31.372414, "types": ["painter", "home_goods_store", "point_of_interest", "store", "establishment"], "place_id": "ChIJbzivPGkWWBQROjMzuTlFKzw"}, {"name": "ELARABY Group", "formatted_address": "9 شارع عدلى، Sherif Basha, Egypt", "lat": 31.2451544, "types": ["home_goods_store", "point_of_interest", "store", "establishment"], "place_id": "ChIJDVvpPMZAWBQRyHZHN6qZaNg"}, {"name": "بنك المشرق", "formatted_address": "21 Dareeh Saad St.، KASR EL AINY، El-Sayeda Zainab, Cairo Governorate, Egypt", "lat": 31.2350411, "types": ["bank", "finance", "point_of_interest", "establishment"], "place_id": "ChIJfRgm-8tAWBQRcbVW2-wp2JY"}, {"name": "Misr Insurance", "formatted_address": "ش 23 يوليو، الزقازيق، El Matareya, Ash Sharqia Governorate, Egypt", "lat": 31.3124021, "types": ["point_of_interest", "establishment"], "place_id": "ChIJ5769XFQUWBQR57fOeQe9bNc"}, {"name": "Suez Canal Bank ATM", "formatted_address": "21 Street 9, Al Abageyah, El-Khalifa, Cairo Governorate, Egypt", "lat": 31.2845296, "types": ["atm", "finance", "point_of_interest", "establishment"], "place_id": "ChIJL_cmGgA5WBQRHOtO-LLJbQA"}, {"name": "AMIDEAST", "formatted_address": "38 Mohee Eldin Abu Elezz, Dokki, Giza District, Dokki 12411, Egypt", "lat": 31.2005763, "types": ["point_of_interest", "establishment"], "place_id": "ChIJq6oWY8xGWBQRTL9u26KfHhQ"}, {"name": "ٍSuez canal bank", "formatted_address": "34-20 Syria, Gazirat Mit Oqbah, Agouza, Giza Governorate, Egypt", "lat": 31.1969416, "types": ["bank", "finance", "point_of_interest", "establishment"], "place_id": "ChIJaY0CdTdBWBQRNLF0qQHa9mk"}, {"name": "Mashreq Bank", "formatted_address": "17 Off Shehab St.، MOHANDESEEN، Giza District, Giza Governorate, Egypt", "lat": 31.195095, "types": ["bank", "finance", "point_of_interest", "establishment"], "place_id": "ChIJXUmQkjdBWBQRbuXgcTXMR0U"}, {"name": "Mobaco Cottons", "formatted_address": "248 شارع السودان ،المهندسين،قسم، Al Agouzah, Egypt", "lat": 31.1899766, "types": ["clothing_store", "point_of_interest", "store", "establishment"], "place_id": "ChIJ8S4sCkFBWBQRP7wvCCST4jo"}, {"name": "Mashreq Bank", "formatted_address": "35 ش ابو الفدا، Mohammed Mazhar, Zamalek, Cairo Governorate, Egypt", "lat": 31.2197699, "types": ["atm", "finance", "point_of_interest", "establishment"], "place_id": "ChIJLSObO_1AWBQRoDryv_b0rOA"}, {"name": "Faisal Islamic Bank of Egypt", "formatted_address": "3 Ahmed Al Sakandari, Boulaq Num.1, Bulaq, Cairo Governorate, Egypt", "lat": 31.2271464, "types": ["atm", "finance", "point_of_interest", "establishment"], "place_id": "ChIJry_rYfpAWBQRHSQncNsRSqo"}, {"name": "بنك قناة السويس", "formatted_address": "شارع الجيزة الدقي قسم، Egypt", "lat": 31.217659, "types": ["atm", "finance", "point_of_interest", "establishment"], "place_id": "ChIJGUxoZSpHWBQR1toCApSriBk"}, {"name": "Radioshack", "formatted_address": "21 Mourad, Oula, Giza District, Giza Governorate, Egypt", "lat": 31.21576679999999, "types": ["home_goods_store", "point_of_interest", "store", "establishment"], "place_id": "ChIJibfZc6dHWBQRYBvWTp2W3Fw"}, {"name": "مصر للتأمين", "formatted_address": "4 Naim St, El-Hariry, Zakazik First, Ash Sharqia Governorate, Egypt", "lat": 31.5061338, "types": ["insurance_agency", "point_of_interest", "establishment"], "place_id": "ChIJrag0Uhzx9xQR1bHxKX4ee7U"}, {"name": "NEN - National Education Network", "formatted_address": "121 Street 2, First 6th of October, Giza Governorate, Egypt", "lat": 30.9208054, "types": ["point_of_interest", "establishment"], "place_id": "ChIJB320DQtWWBQR6IZQAfKsGNc"}, {"name": "Misr Petroleum , Zagazig", "formatted_address": "El-Hariry, Zakazik First, Ash Sharqia Governorate, Egypt", "lat": 31.5062364, "types": ["point_of_interest", "establishment"], "place_id": "ChIJwcqmouXw9xQRT7Iy_MP9nI0"}, {"name": "Duomo di Milano", "formatted_address": "P.za del Duomo, 20122 Milano MI, Italy", "lat": 9.1919265, "types": ["tourist_attraction", "church", "place_of_worship", "point_of_interest", "establishment"], "place_id": "ChIJoTZGw67GhkcREy4aECdOf6s"}, {"name": "things to do in dubai", "formatted_address": "Office number 1, Dubai Marina Walk next to pier 7 - Dubai Marina - Dubai - United Arab Emirates", "lat": 55.1381969, "types": ["travel_agency", "point_of_interest", "establishment"], "place_id": "ChIJu5llXl1tXz4Rv-qKrUkfM_Q"}, {"name": "Peak District National Park", "formatted_address": "Castleton, Hope Valley S33 8WS, United Kingdom", "lat": -1.7837383, "types": ["park", "point_of_interest", "establishment"], "place_id": "ChIJ-0tfftstekgR6oITC6qZoHk"}, {"name": "Grand Canyon National Park", "formatted_address": "Arizona, United States", "lat": -112.1129484, "types": ["tourist_attraction", "park", "point_of_interest", "establishment"], "place_id": "ChIJFU2bda4SM4cRKSCRyb6pOB8"}, {"name": "Visit York Information Centre", "formatted_address": "1 Museum St, York YO1 7DT, United Kingdom", "lat": -1.0852434, "types": ["travel_agency", "point_of_interest", "establishment"], "place_id": "ChIJrYM8w6cxeUgR3pp3wKNdHRM"}, {"name": "VisitScotland Pitlochry iCentre", "formatted_address": "22 Atholl Rd, Pitlochry PH16 5BX, United Kingdom", "lat": -3.7296338, "types": ["travel_agency", "point_of_interest", "establishment"], "place_id": "ChIJl2fk9LsChkgRgypyz4EcqUQ"}, {"name": "Discover Lancaster", "formatted_address": "501 Greenfield Rd, Lancaster, PA 17601, United States", "lat": -76.2547491, "types": ["travel_agency", "point_of_interest", "establishment"], "place_id": "ChIJ-86Ublk7xokRDweNwbMOSis"}]