[{"name": "Baron Empain Palace", "formatted_address": "El-Orouba, El-Montaza, Heliopolis, Cairo Governorate 11757, Egypt", "lat": 30.0866701, "lng": 31.3303332, "types": ["point_of_interest", "establishment"], "place_id": "ChIJ1_GM8iE-WBQRLNVi-RT7vDA"}, {"name": "El Korba Square - الكوربة مصر الجديدة", "formatted_address": "7 Abo Al Houl ST., Korba Square, المنتزه، قسم مصر الجديدة، محافظة القاهرة‬،, المنتزه، قسم مصر الجديدة، محافظة, القاهرة‬،, Egypt", "lat": 30.0910293, "lng": 31.324302, "types": ["point_of_interest", "establishment"], "place_id": "ChIJUduKY5k_WBQRwgxGmYZDrhU"}, {"name": "Faraya", "formatted_address": "5 Hassan Sadek، El-Sayed El-Merghany, st، Heliopolis, Cairo Governorate 11757, Egypt", "lat": 30.0850628, "lng": 31.3264716, "types": ["restaurant", "food", "point_of_interest", "establishment"], "place_id": "ChIJK7_qnSM-WBQRVUEnzokmWmM"}, {"name": "Our Lady of Heliopolis Co-Cathedral", "formatted_address": "Nazih Khalifa crossroad، Al Ahram, Heliopolis, Cairo Governorate, Egypt", "lat": 30.0935707, "lng": 31.3251828, "types": ["church", "place_of_worship", "point_of_interest", "establishment"], "place_id": "ChIJJdgh-okVWBQR5TqTmKuQ0IM"}, {"name": "Makani", "formatted_address": "27 حسن صادق، El-Montaza, Heliopolis, Cairo Governorate, Egypt", "lat": 30.0852576, "lng": 31.32994769999999, "types": ["restaurant", "food", "point_of_interest", "establishment"], "place_id": "ChIJu_OgFSI-WBQR1ucwr6WLFdI"}, {"name": "Unknown Soldier Memorial", "formatted_address": "El-Nasr Rd, Al Estad, Nasr City, Cairo Governorate, Egypt", "lat": 30.0653787, "lng": 31.313947, "types": ["tourist_attraction", "point_of_interest", "establishment"], "place_id": "ChIJ_YLB_E0-WBQR3J5BQdBsT3Y"}, {"name": "Azza Fahmy", "formatted_address": "ش حسن صادق، El-Montaza, Heliopolis, Cairo Governorate, Egypt", "lat": 30.0853102, "lng": 31.3292712, "types": ["jewelry_store", "point_of_interest", "store", "establishment"], "place_id": "ChIJ13A4RiI-WBQRwAgZ-SNuDzc"}, {"name": "El Hazek - Egyptian Union For Construction", "formatted_address": "12 ش حسن صادق، El-Montaza, Heliopolis, Cairo Governorate, Egypt", "lat": 30.0857054, "lng": 31.3294067, "types": ["general_contractor", "point_of_interest", "establishment"], "place_id": "ChIJN_VoOSI-WBQRQGpdOEb7fDA"}, {"name": "مؤسسة الهلال للمحاماة والتحكيم الدولى", "formatted_address": "٣ شارع حسن صادق, El-Orouba, Heliopolis, Cairo Governorate, Egypt", "lat": 30.0857684, "lng": 31.3260351, "types": ["point_of_interest", "establishment"], "place_id": "ChIJl02iYvRBWBQR7BU3AS4Iu1U"}, {"name": "Baron Hotel Heliopolis", "formatted_address": "14 Al Baroon, El-Montaza, Heliopolis, Cairo Governorate, Egypt", "lat": 30.0860748, "lng": 31.3314609, "types": ["lodging", "point_of_interest", "establishment"], "place_id": "ChIJUbVOACI-WBQRWsi5B7gYfxs"}, {"name": "Ramsis Barbershop", "formatted_address": "3 حسن صادق، El-Montaza, Heliopolis, Cairo Governorate, Egypt", "lat": 30.0850523, "lng": 31.3296249, "types": ["hair_care", "health", "point_of_interest", "establishment"], "place_id": "ChIJ81kQQSI-WBQR1nyj5OZaDwU"}, {"name": "Saint Mary Church - Ard El-Golf", "formatted_address": "Shams Al Din Al Zahabi, Al Golf, Nasr City, Cairo Governorate, Egypt", "lat": 30.0825805, "lng": 31.33328239999999, "types": ["church", "place_of_worship", "point_of_interest", "establishment"], "place_id": "ChIJz961RBg-WBQR2HK25harflQ"}, {"name": "دكتور إبراهيم حمدي بيان استشاري الجراحة العامه و جراحات المناظير و السمنة المفرطة", "formatted_address": "٢٧ شارع حسن صادق مصر الجديدة الدور الثالث, حسن صادق، El-Montaza, Heliopolis, Cairo Governorate, Egypt", "lat": 30.085191, "lng": 31.329481, "types": ["doctor", "health", "point_of_interest", "establishment"], "place_id": "ChIJI_otdX0_WBQRB-9H61FASV4"}, {"name": "Nshape ارض الجولف", "formatted_address": "Asmaa Fahmi, Al Golf, Nasr City, Cairo Governorate, Egypt", "lat": 30.079046, "lng": 31.3382582, "types": ["point_of_interest", "establishment"], "place_id": "ChIJK24uUhc-WBQROSbDAGuBic8"}, {"name": "Korba Posta Office", "formatted_address": "البوسطة، المنتزه، مصر الجديدة،، Cairo Governorate, Egypt", "lat": 30.0894726, "lng": 31.3216349, "types": ["post_office", "finance", "point_of_interest", "establishment"], "place_id": "ChIJX8nHbSY-WBQRDrUhlxkHb-M"}, {"name": "Dune Raider", "formatted_address": "3 Amin Zaki, Al Golf, Nasr City, Cairo Governorate, Egypt", "lat": 30.083292, "lng": 31.32286539999999, "types": ["travel_agency", "point_of_interest", "establishment"], "place_id": "ChIJ77p62gI-WBQR92_NPFTVA1g"}, {"name": "Sonesta Hotel Tower & Casino Cairo", "formatted_address": "3 El Tayaran St, Ash Sharekat, Nasr City, Cairo Governorate, Egypt", "lat": 30.0789591, "lng": 31.3175599, "types": ["casino", "lodging", "point_of_interest", "establishment"], "place_id": "ChIJKYApCUc-WBQROTn4JL8ozhI"}, {"name": "مكتب بريد هليوبوليس", "formatted_address": "Al Bostah, El-Montaza, Heliopolis, Cairo Governorate, Egypt", "lat": 30.0895658, "lng": 31.32145289999999, "types": ["post_office", "finance", "point_of_interest", "establishment"], "place_id": "ChIJUxT4bCY-WBQReH-iJrJAbDM"}, {"name": "Hyundai Egypco", "formatted_address": "13 ش حسن صادق، Al Khosous, Heliopolis, Cairo Governorate, Egypt", "lat": 30.1385184, "lng": 31.3362412, "types": ["car_dealer", "point_of_interest", "store", "establishment"], "place_id": "ChIJP5ScxTYUWBQRX3za-jfFY8g"}, {"name": "NewLifeHR.com", "formatted_address": "12 عمارات المروة شارع أحمد تيسير متفرع من المرغنى مصر الجديدة ارض الجولف، القاهرة، Cairo Governorate, Egypt", "lat": 30.0781568, "lng": 31.3279468, "types": ["lawyer", "local_government_office", "point_of_interest", "establishment"], "place_id": "ChIJsRMN6DtBWBQRPC-5WIeMwmM"}, {"name": "Al Masa Hotel", "formatted_address": "جامعة الأزهر، Gameat Al Azhar, Qesm Than Madinet Nasr, Cairo Governorate, Egypt", "lat": 30.0616389, "lng": 31.3164126, "types": ["lodging", "point_of_interest", "establishment"], "place_id": "ChIJFQY8EFE-WBQRvIynVOw668I"}, {"name": "Dr. Mohamed Ahmed Hashish", "formatted_address": "52 Othman Ibn Affan, Almazah, Heliopolis, Cairo Governorate, Egypt", "lat": 30.0974839, "lng": 31.3364789, "types": ["doctor", "health", "point_of_interest", "establishment"], "place_id": "ChIJzUuMOu4VWBQRoA77yR0ty-w"}, {"name": "The Theater House", "formatted_address": "27 Abd El-Khalik Tharwat, Al Fawalah, Abdeen, Cairo Governorate, Egypt", "lat": 30.0503464, "lng": 31.2427292, "types": ["point_of_interest", "establishment"], "place_id": "ChIJod9-Tb5AWBQRRYn4rj8AbQo"}, {"name": "Massa Hotel", "formatted_address": "Abd El-Aziz, Sherif, Elsahel, Cairo Governorate, Egypt", "lat": 30.094508, "lng": 31.2515331, "types": ["lodging", "point_of_interest", "establishment"], "place_id": "ChIJ1Wiphg1AWBQRoCH-GaQnyAw"}, {"name": "Egyptian Businessmen Association - EBA", "formatted_address": "21 ش شارل ديجول - ش الجيزة سابقا، Oula, Giza District, Giza Governorate, Egypt", "lat": 30.021677, "lng": 31.21654, "types": ["point_of_interest", "establishment"], "place_id": "ChIJOyOQXt9GWBQRUKwYttR7TUQ"}, {"name": "Dr Maged Zaitoun - دكتور ماجد زيتون استشاري السمنة والنحافة", "formatted_address": "مركز CMC, N Teseen, First New Cairo, Cairo Governorate 11835, Egypt", "lat": 30.0202828, "lng": 31.4341106, "types": ["hospital", "doctor", "health", "point_of_interest", "establishment"], "place_id": "ChIJ5wWbBxE9WBQRz68Uj0mXSg4"}, {"name": "LuLu Hypermarket, Twin Plaza", "formatted_address": "Opposite Police Academy, Zakir Hussein road extension 1st settlement of، Egypt", "lat": 30.0533679, "lng": 31.4307569, "types": ["supermarket", "grocery_or_supermarket", "food", "point_of_interest", "store", "establishment"], "place_id": "ChIJRaAkjJcjWBQR6Fyw0wX44Pc"}]