[{"name": "Al Kholafaa Al Rashdeen Mosque", "formatted_address": "El Hegaz St, El-Bostan, Heliopolis, Cairo Governorate, Egypt", "lat": 30.1010215, "lng": 31.3243996, "types": ["mosque", "place_of_worship", "point_of_interest", "establishment"], "place_id": "ChIJufJ9io4VWBQRRErdNLAMvpM"}, {"name": "Egyptian Swiss Co.", "formatted_address": "125 El Hegaz St, Al Matar, El Nozha, Cairo Governorate, Egypt", "lat": 30.10670739999999, "lng": 31.3361584, "types": ["point_of_interest", "establishment"], "place_id": "ChIJVVXl6OsVWBQRH0wVEo7jnHg"}, {"name": "NOKA", "formatted_address": "93 El Hegaz St, El-Nozha, El Nozha, Cairo Governorate, Egypt", "lat": 30.1050333, "lng": 31.3324871, "types": ["point_of_interest", "establishment"], "place_id": "ChIJ22aEwOwVWBQRqkxMyVwTuyk"}, {"name": "Golden Park Hotel", "formatted_address": "شارع الحجاز ، مصر الجديده، 221 شارع الحجاز ، هيليوبوليس ،، El Nozha, Cairo Governorate, Egypt", "lat": 30.1153686, "lng": 31.3525102, "types": ["lodging", "point_of_interest", "establishment"], "place_id": "ChIJsQQdRNgVWBQRss6fVxNFk_8"}, {"name": "Brickzey", "formatted_address": "57 El Hegaz St, Al Matar, El Nozha, Cairo Governorate, Egypt", "lat": 30.1068188, "lng": 31.3351715, "types": ["point_of_interest", "establishment"], "place_id": "ChIJNSJQkesVWBQRfThqiNbDG1U"}, {"name": "Delicate", "formatted_address": "122 El Hegaz St, El-Nozha, El Nozha, Cairo Governorate, Egypt", "lat": 30.1067766, "lng": 31.3356247, "types": ["point_of_interest", "establishment"], "place_id": "ChIJ06TYwusVWBQRFuTXUQleTl8"}, {"name": "New Planet Association", "formatted_address": "58 El Hegaz St, El-Nozha, El Nozha, Cairo Governorate, Egypt", "lat": 30.106974, "lng": 31.335119, "types": ["point_of_interest", "establishment"], "place_id": "ChIJ06TYwusVWBQRt__N_d-V_Ic"}, {"name": "غير موجود", "formatted_address": "121 El Hegaz St, El-Nozha, El Nozha, Cairo Governorate, Egypt", "lat": 30.1064864, "lng": 31.3356893, "types": ["point_of_interest", "establishment"], "place_id": "ChIJQ8EHwuoVWBQRsaPGYIGVmU8"}, {"name": "The Child Museum", "formatted_address": "34 Abou Bakr El-Sedeek, El-Bostan, Heliopolis, Cairo Governorate, Egypt", "lat": 30.1022381, "lng": 31.33694599999999, "types": ["tourist_attraction", "museum", "point_of_interest", "establishment"], "place_id": "ChIJz-2ngvIVWBQR0usMZT-HkR8"}, {"name": "Heliopolis Trade", "formatted_address": "Al Matar, El Nozha, Cairo Governorate, Egypt", "lat": 30.1116162, "lng": 31.345718, "types": ["point_of_interest", "establishment"], "place_id": "ChIJAeBmGKEVWBQRTfc6aDYQQa4"}, {"name": "Interface Hr Solutions", "formatted_address": "158 El Hegaz St, Al Matar, El Nozha, Cairo Governorate, Egypt", "lat": 30.1069549, "lng": 31.3360022, "types": ["point_of_interest", "establishment"], "place_id": "ChIJ5fZCeI4VWBQRBXZWDdLNM-Y"}, {"name": "Original Cars", "formatted_address": "172 El Hegaz St, El-Nozha, El Nozha, Cairo Governorate, Egypt", "lat": 30.10703359999999, "lng": 31.3361689, "types": ["point_of_interest", "establishment"], "place_id": "ChIJ06TYwusVWBQRHrkoy9s8B2w"}, {"name": "الشركة السعودية المصرية للاستثمار السياحى", "formatted_address": "158 El Hegaz St, Al Matar, El Nozha, Cairo Governorate, Egypt", "lat": 30.1069549, "lng": 31.3360022, "types": ["point_of_interest", "establishment"], "place_id": "ChIJ5fZCeI4VWBQR_hSkiGrKOWk"}, {"name": "Al Azabawy Motors", "formatted_address": "214 El Hegaz St, El-Nozha, El Nozha, Cairo Governorate, Egypt", "lat": 30.1063067, "lng": 31.3354859, "types": ["point_of_interest", "establishment"], "place_id": "ChIJ06TYwusVWBQROmJNTi-hJnY"}, {"name": "ايجى تورز", "formatted_address": "64 شارع الحجاز امام مستشفى هليوبلس مصر الجديده مصر الجديده القاهره القاهرة، 11511, Egypt", "lat": 30.107387, "lng": 31.335715, "types": ["travel_agency", "point_of_interest", "establishment"], "place_id": "ChIJK3pYU8oVWBQRSW2H4d6U1ls"}, {"name": "عصام عبد الخالق", "formatted_address": "121 El Hegaz St, El-Nozha, El Nozha, Cairo Governorate, Egypt", "lat": 30.1064864, "lng": 31.3356893, "types": ["point_of_interest", "establishment"], "place_id": "ChIJHTUue5QVWBQRSssVyOyH_rQ"}, {"name": "ميدان هليوبوليس - Heliopolis Square", "formatted_address": "النزهة، قسم النزهة، Cairo القاهرة، 11351, Egypt", "lat": 30.108239, "lng": 31.3379725, "types": ["point_of_interest", "establishment"], "place_id": "ChIJC5Rvlq0VWBQRdR0mJwW9pfE"}, {"name": "Knouz For Trade & Distribution", "formatted_address": "41 El Hegaz St, El-Nozha, El Nozha, Cairo Governorate, Egypt", "lat": 30.1063067, "lng": 31.3354859, "types": ["point_of_interest", "establishment"], "place_id": "ChIJ06TYwusVWBQRSX_wi0ILpUY"}, {"name": "الشركة المصرية السويسرية", "formatted_address": "125 El Hegaz St, Al Matar, El Nozha, Cairo Governorate, Egypt", "lat": 30.10670739999999, "lng": 31.3361584, "types": ["point_of_interest", "establishment"], "place_id": "ChIJVVXl6OsVWBQRXF0-6eNNYYs"}, {"name": "Heliopark Hotel", "formatted_address": "102 El Hegaz St, Al Matar, El Nozha, Cairo Governorate, Egypt", "lat": 30.10972039999999, "lng": 31.3411589, "types": ["lodging", "point_of_interest", "establishment"], "place_id": "ChIJ06TYwusVWBQRLwyHc9i84cY"}, {"name": "Fouda Motors", "formatted_address": "97 El Hegaz St, Al Matar, El Nozha, Cairo Governorate, Egypt", "lat": 30.10584399999999, "lng": 31.3336124, "types": ["point_of_interest", "establishment"], "place_id": "ChIJTXRYhOwVWBQRxElz8ty30Lk"}, {"name": "Flowers Garden", "formatted_address": "40 El Hegaz St, El-Nozha, El Nozha, Cairo Governorate, Egypt", "lat": 30.105988, "lng": 31.332681, "types": ["point_of_interest", "establishment"], "place_id": "ChIJd0eaouwVWBQREzXoDMofITo"}, {"name": "Care Dental Clinic", "formatted_address": "179 El Hegaz St, El-Nozha, El Nozha, Cairo Governorate, Egypt", "lat": 30.1063067, "lng": 31.3354859, "types": ["point_of_interest", "establishment"], "place_id": "ChIJ06TYwusVWBQRB2717lhwmTY"}, {"name": "ITAC - International Trade & Agencies Corporation", "formatted_address": "158 El Hegaz St, El-Nozha, El Nozha, Cairo Governorate, Egypt", "lat": 30.10703359999999, "lng": 31.3361689, "types": ["point_of_interest", "establishment"], "place_id": "ChIJ06TYwusVWBQR7iz9d77HNqU"}, {"name": "توكيل راية", "formatted_address": "50 El Hegaz St, Al Matar, El Nozha, Cairo Governorate, Egypt", "lat": 30.106467, "lng": 31.333935, "types": ["point_of_interest", "establishment"], "place_id": "ChIJz3XbfusVWBQRuqzNnT5997M"}, {"name": "Max Fashion, Al-Hegaz st, Heliopolis,Cairo", "formatted_address": "El Hegaz St, El-Bostan, Heliopolis, Cairo Governorate, Egypt", "lat": 30.0984072, "lng": 31.3228241, "types": ["clothing_store", "point_of_interest", "store", "establishment"], "place_id": "ChIJuTPyxI4VWBQRbTsZYCNfBAI"}, {"name": "Heliopolis Family Court", "formatted_address": "58 El Hegaz St, El-Nozha, Heliopolis, Cairo Governorate, Egypt", "lat": 30.10326, "lng": 31.3297672, "types": ["courthouse", "local_government_office", "point_of_interest", "establishment"], "place_id": "ChIJNxzB6pIVWBQRQx6kT15XA74"}, {"name": "NBK", "formatted_address": "فودافون، 72 شارع الحجاز، هليوبوليس امام مستشفى هليوبوليس ، القاهرة Vodafone - 72 Hegaz street, Heliopolis – in front of Heliopolis Hospital, Cairo, Cairo Governorate, Egypt", "lat": 30.1077186, "lng": 31.3366932, "types": ["atm", "finance", "point_of_interest", "establishment"], "place_id": "ChIJ5fZCeI4VWBQRULcDwTY4M_c"}, {"name": "مستشفى هليوبوليس", "formatted_address": "1 El Hegaz St, Al Matar, El Nozha, Cairo Governorate, Egypt", "lat": 30.0957579, "lng": 31.3183181, "types": ["hospital", "health", "point_of_interest", "establishment"], "place_id": "ChIJsXeXlIcVWBQRULBVwP3rAP8"}, {"name": "Olympiad Gym", "formatted_address": "60 El Hegaz St, El-Nozha, Heliopolis, Cairo Governorate, Egypt", "lat": 30.107187, "lng": 31.335199, "types": ["point_of_interest", "establishment"], "place_id": "ChIJxQj8vesVWBQRFlWhe4nPiMs"}, {"name": "هوليداي هوم", "formatted_address": "قسم مصر الجديدة, 63 El Hegaz St, El-Bostan, Heliopolis, Cairo Governorate 11351, Egypt", "lat": 30.1025281, "lng": 31.3275635, "types": ["lodging", "point_of_interest", "establishment"], "place_id": "ChIJD__keZIVWBQRaRwfB2gBVVo"}, {"name": "Real Estate Taxes Mission - Heliopolis", "formatted_address": "32 El Hegaz St, El-Nozha, El Nozha, Cairo Governorate, Egypt", "lat": 30.1050968, "lng": 31.3300895, "types": ["accounting", "finance", "local_government_office", "point_of_interest", "establishment"], "place_id": "ChIJV27e45IVWBQRtWfzvf6Odgc"}, {"name": "Future Academy", "formatted_address": "El Hegaz St, Al Matar, El Nozha, Cairo Governorate, Egypt", "lat": 30.1129346, "lng": 31.3470541, "types": ["university", "point_of_interest", "establishment"], "place_id": "ChIJzzcvC9wVWBQRdvGmIP0RKH8"}, {"name": "Glory Beauty Clinic", "formatted_address": "125 El Hegaz St, El-Nozha, El Nozha, Cairo Governorate, Egypt", "lat": 30.10670739999999, "lng": 31.3361584, "types": ["point_of_interest", "establishment"], "place_id": "ChIJVVXl6OsVWBQRk46DikoLa-M"}, {"name": "Kodak Express Heliopolis", "formatted_address": "56 El Hegaz St, An Nuzhah, El Nozha, Cairo Governorate, Egypt", "lat": 30.1067937, "lng": 31.3345958, "types": ["electronics_store", "home_goods_store", "point_of_interest", "store", "establishment"], "place_id": "ChIJ6bESm-sVWBQRdG-ZTMCD_Mo"}, {"name": "TiE HOUSE", "formatted_address": "Merryland Park, 26 El Hegaz St, El-Bostan, Heliopolis, Cairo Governorate, Egypt", "lat": 30.0987802, "lng": 31.3231775, "types": ["shoe_store", "point_of_interest", "clothing_store", "store", "establishment"], "place_id": "ChIJi86qod5GWBQRcozRUEuCJp0"}, {"name": "Dawi Clinics Hegaz Heliopolis", "formatted_address": "138 El Hegaz St, El-Bostan, Heliopolis, Cairo Governorate, Egypt", "lat": 30.102665, "lng": 31.3265276, "types": ["health", "point_of_interest", "establishment"], "place_id": "ChIJsRMsbk8VWBQR9mtDlZjkKN0"}, {"name": "Square", "formatted_address": "123 El Hegaz St, El-Nozha, El Nozha, Cairo Governorate, Egypt", "lat": 30.1066975, "lng": 31.3359034, "types": ["cafe", "food", "point_of_interest", "establishment"], "place_id": "ChIJ06TYwusVWBQRkJym7RIIoEY"}, {"name": "Grand Egypt Travel", "formatted_address": "54 El Hegaz St, El-Nozha, El Nozha, Cairo Governorate, Egypt", "lat": 30.10703359999999, "lng": 31.3361689, "types": ["travel_agency", "point_of_interest", "establishment"], "place_id": "ChIJ06TYwusVWBQRhwWaX-M7cZM"}, {"name": "Costa Coffee", "formatted_address": "Mahkama - Heliopolis - Cairo - Egypt، 44 El Hegaz St, An Nuzhah, Qesm an Nuzhah, Cairo Governorate 11351, Egypt", "lat": 30.1061612, "lng": 31.3331637, "types": ["cafe", "food", "point_of_interest", "store", "establishment"], "place_id": "ChIJr24F0dYVWBQRLOL0nTKA3cc"}, {"name": "Kababgy El Azhar Farahat", "formatted_address": "27 شارع الحجاز ،مصر الجديدة _(امام الميريلاند 21 شارع الطاقة ( مدينة نصر، خلف، النادي الأهلي، Heliopolis, Cairo Governorate, Egypt", "lat": 30.0986427, "lng": 31.3229307, "types": ["restaurant", "food", "point_of_interest", "establishment"], "place_id": "ChIJ06TYwusVWBQRWOjTtDOzh5k"}, {"name": "Vodafone", "formatted_address": "72 El Hegaz St, El-Nozha, El Nozha, Cairo Governorate, Egypt", "lat": 30.107751, "lng": 31.3365852, "types": ["point_of_interest", "establishment"], "place_id": "ChIJ92hu0OsVWBQRF-JT0MJQpQQ"}, {"name": "Lavida Hotels And Resorts", "formatted_address": "16 El Hegaz St, El-Nozha, El Nozha, Cairo Governorate, Egypt", "lat": 30.106662, "lng": 31.335382, "types": ["travel_agency", "point_of_interest", "establishment"], "place_id": "ChIJS-AysYsVWBQRliy_8K4Mt5c"}, {"name": "Heliopolis Metro Station", "formatted_address": "El-Montaza St, El-Nozha, El Nozha, Cairo Governorate, Egypt", "lat": 30.108687, "lng": 31.3388436, "types": ["point_of_interest", "establishment"], "place_id": "ChIJVZQlkkMVWBQRv6qlPNqC_qA"}, {"name": "الركن الرياضى", "formatted_address": "125 El Hegaz St, Al Matar, El Nozha, Cairo Governorate, Egypt", "lat": 30.10670739999999, "lng": 31.3361584, "types": ["point_of_interest", "establishment"], "place_id": "ChIJVVXl6OsVWBQR0Cp63K2-zA4"}, {"name": "معرض ماسترز فرع الحجاز", "formatted_address": "103 El Hegaz St. Heliopolis, Cairo Governorate, El-Nozha, Cairo, Cairo Governorate 11771, 4th Floor Suite 11 103, شارع الحجاز، النزهة، قسم النزهة، محافظة القاهرة‬،، Egypt", "lat": 30.1058092, "lng": 31.3339747, "types": ["car_dealer", "point_of_interest", "store", "establishment"], "place_id": "ChIJ4d_v8Z8VWBQRq3Tu13MNxrM"}, {"name": "Misr Elhegaz Group", "formatted_address": "198 El Hegaz St, Al Matar, El Nozha, Cairo Governorate, Egypt", "lat": 30.116182, "lng": 31.352208, "types": ["point_of_interest", "store", "establishment"], "place_id": "ChIJ06TYwusVWBQRw8jS8PXm6Aw"}, {"name": "Tactic", "formatted_address": "103 El Hegaz St. Heliopolis, Cairo Governorate, El-Nozha, Cairo, Cairo Governorate 11771, 4th Floor Suite 11 103, El Hegaz St, El-Nozha, El Nozha, Cairo Governorate, Egypt", "lat": 30.1058383, "lng": 31.334033, "types": ["point_of_interest", "establishment"], "place_id": "ChIJ3eIzh-wVWBQRZ1Vde84YQ6M"}, {"name": "Heliopolis Hospital", "formatted_address": "ميدان هليوبوليس، El-Nozha, El Nozha, Cairo Governorate, Egypt", "lat": 30.1066724, "lng": 31.337074, "types": ["hospital", "health", "point_of_interest", "establishment"], "place_id": "ChIJR8gu2esVWBQREEO6QdYQy80"}, {"name": "Dr Menan Abd El Maksoud Rabie, Psychiatric Clinic", "formatted_address": "34 (a) Alhegaz st ٣٤ أ شارع الحجاز، Almahkama sq, Heliopolis ميدان المحكمة مصر الجديدة، Cairo، Cairo Governorate, Egypt", "lat": 30.1060264, "lng": 31.3317592, "types": ["doctor", "health", "point_of_interest", "establishment"], "place_id": "ChIJy5lDsewVWBQRgkFI9K68f6c"}, {"name": "Iris Optics Heliopolis", "formatted_address": "14 El Hegaz St, El-Montaza, Heliopolis, Cairo Governorate, Egypt", "lat": 30.102704, "lng": 31.3266072, "types": ["point_of_interest", "store", "establishment"], "place_id": "ChIJJ1uiVUMVWBQR8yf0GkBfJ18"}, {"name": "Mercado", "formatted_address": "٣ب، El Hegaz St, روكسي، Heliopolis, Cairo Governorate, Egypt", "lat": 30.0961243, "lng": 31.3199622, "types": ["cafe", "food", "point_of_interest", "store", "establishment"], "place_id": "ChIJgdGwd4gVWBQR33RTrCfIVlQ"}, {"name": "Heliopolis Hospital", "formatted_address": "El-Nozha, El Nozha, Cairo Governorate, Egypt", "lat": 30.10716, "lng": 31.336462, "types": ["transit_station", "point_of_interest", "establishment"], "place_id": "ChIJN7Z_2-sVWBQR2cANj7fWUL0"}, {"name": "Sesame Club Nursery", "formatted_address": "كوم امبو, off, court square، 8 El Hegaz St, Heliopolis, Egypt", "lat": 30.100531, "lng": 31.3263325, "types": ["school", "point_of_interest", "establishment"], "place_id": "ChIJsZYDzY0VWBQRMQ6MfeKYrU8"}, {"name": "Holidays", "formatted_address": "27 El Hegaz St, El-Bostan, Heliopolis, Cairo Governorate, Egypt", "lat": 30.098398, "lng": 31.322737, "types": ["restaurant", "food", "point_of_interest", "establishment"], "place_id": "ChIJ06TYwusVWBQRnsCqbwJQ0xs"}, {"name": "Orient Takaful - Heliopolis", "formatted_address": "138 El Hegaz St, El-Bostan, Heliopolis, Cairo Governorate, Egypt", "lat": 30.1027004, "lng": 31.3266167, "types": ["point_of_interest", "establishment"], "place_id": "ChIJazbUPQMVWBQRmsNw76OMvSM"}, {"name": "Misr El Hegaz Co.", "formatted_address": "151 El Hegaz St, Al Matar, Qesm Al Matareyah, Cairo Governorate, Egypt", "lat": 30.10952799999999, "lng": 31.3426816, "types": ["point_of_interest", "establishment"], "place_id": "ChIJ06TYwusVWBQRCgD3P0CyQFg"}, {"name": "جروب سب إيجيبت توكيل تيفال و مولينكس", "formatted_address": "121 El Hegaz St, El-Nozha, El Nozha, Cairo Governorate, Egypt", "lat": 30.1064864, "lng": 31.3356893, "types": ["electronics_store", "point_of_interest", "store", "establishment"], "place_id": "ChIJAQAU7esVWBQR5fwCH5jrRWw"}, {"name": "الروضة", "formatted_address": "62 El Hegaz St, El-Nozha, El Nozha, Cairo Governorate, Egypt", "lat": 30.107302, "lng": 31.3354436, "types": ["restaurant", "food", "point_of_interest", "establishment"], "place_id": "ChIJ06TYwusVWBQRQNCwpI7SkJg"}, {"name": "Coya Lounge", "formatted_address": "El Hegaz St, Al Matar, El Nozha, Cairo Governorate 11757, Egypt", "lat": 30.10956909999999, "lng": 31.3412891, "types": ["night_club", "cafe", "food", "point_of_interest", "establishment"], "place_id": "ChIJTaY3Nd0VWBQRCFPJfSZSsXY"}]