[{"name": "Ittihadia Palace", "formatted_address": "Al Nadi، El-Montaza, Heliopolis, Cairo Governorate, Egypt", "lat": 31.3193929, "types": ["tourist_attraction", "premise", "point_of_interest", "establishment"], "place_id": "ChIJuftqUS8-WBQRtM7fDk0QcPk"}, {"name": "Our Lady of Heliopolis Co-Cathedral", "formatted_address": "Nazih Khalifa crossroad، Al Ahram, Heliopolis, Cairo Governorate, Egypt", "lat": 31.3251828, "types": ["church", "place_of_worship", "point_of_interest", "establishment"], "place_id": "ChIJJdgh-okVWBQR5TqTmKuQ0IM"}, {"name": "Delicate", "formatted_address": "122 El Hegaz St, El-Nozha, El Nozha, Cairo Governorate, Egypt", "lat": 31.3356247, "types": ["point_of_interest", "establishment"], "place_id": "ChIJ06TYwusVWBQRFuTXUQleTl8"}, {"name": "Golden Park Hotel", "formatted_address": "شارع الحجاز ، مصر الجديده، 221 شارع الحجاز ، هيليوبوليس ،، El Nozha, Cairo Governorate, Egypt", "lat": 31.3525102, "types": ["lodging", "point_of_interest", "establishment"], "place_id": "ChIJsQQdRNgVWBQRss6fVxNFk_8"}, {"name": "Heliopolis Trade", "formatted_address": "Al Matar, El Nozha, Cairo Governorate, Egypt", "lat": 31.345718, "types": ["point_of_interest", "establishment"], "place_id": "ChIJAeBmGKEVWBQRTfc6aDYQQa4"}, {"name": "Youssef El Sahaby Masjed", "formatted_address": "El-Higaz، HELIOPOLIS، El Nozha, Cairo Governorate, Egypt", "lat": 31.3471512, "types": ["mosque", "place_of_worship", "point_of_interest", "establishment"], "place_id": "ChIJs7u2UdwVWBQRBOoah_XC0qM"}, {"name": "Baron Empain Palace", "formatted_address": "El-Orouba, El-Montaza, Heliopolis, Cairo Governorate 11757, Egypt", "lat": 31.3303332, "types": ["point_of_interest", "establishment"], "place_id": "ChIJ1_GM8iE-WBQRLNVi-RT7vDA"}, {"name": "New Planet Association", "formatted_address": "58 El Hegaz St, El-Nozha, El Nozha, Cairo Governorate, Egypt", "lat": 31.335119, "types": ["point_of_interest", "establishment"], "place_id": "ChIJ06TYwusVWBQRt__N_d-V_Ic"}, {"name": "غير موجود", "formatted_address": "121 El Hegaz St, El-Nozha, El Nozha, Cairo Governorate, Egypt", "lat": 31.3356893, "types": ["point_of_interest", "establishment"], "place_id": "ChIJQ8EHwuoVWBQRsaPGYIGVmU8"}, {"name": "Heliopark Hotel", "formatted_address": "102 El Hegaz St, Al Matar, El Nozha, Cairo Governorate, Egypt", "lat": 31.3411589, "types": ["lodging", "point_of_interest", "establishment"], "place_id": "ChIJ06TYwusVWBQRLwyHc9i84cY"}, {"name": "ايجى تورز", "formatted_address": "64 شارع الحجاز امام مستشفى هليوبلس مصر الجديده مصر الجديده القاهره القاهرة، 11511, Egypt", "lat": 31.335715, "types": ["travel_agency", "point_of_interest", "establishment"], "place_id": "ChIJK3pYU8oVWBQRSW2H4d6U1ls"}, {"name": "Original Cars", "formatted_address": "172 El Hegaz St, El-Nozha, El Nozha, Cairo Governorate, Egypt", "lat": 31.3361689, "types": ["point_of_interest", "establishment"], "place_id": "ChIJ06TYwusVWBQRHrkoy9s8B2w"}, {"name": "الشركة السعودية المصرية للاستثمار السياحى", "formatted_address": "158 El Hegaz St, Al Matar, El Nozha, Cairo Governorate, Egypt", "lat": 31.3360022, "types": ["point_of_interest", "establishment"], "place_id": "ChIJ5fZCeI4VWBQR_hSkiGrKOWk"}, {"name": "Business Arab Consultants - BAC", "formatted_address": "158 El Hegaz St, El-Nozha, El Nozha, Cairo Governorate, Egypt", "lat": 31.3360022, "types": ["point_of_interest", "establishment"], "place_id": "ChIJjx0KwusVWBQRj69KlC8NJ6Y"}, {"name": "El Shourbagy For General Contractors", "formatted_address": "145 El Hegaz St, El-Nozha, El Nozha, Cairo Governorate, Egypt", "lat": 31.3361689, "types": ["point_of_interest", "establishment"], "place_id": "ChIJ06TYwusVWBQR-pxZuo-Ba_w"}, {"name": "عصام عبد الخالق", "formatted_address": "121 El Hegaz St, El-Nozha, El Nozha, Cairo Governorate, Egypt", "lat": 31.3356893, "types": ["point_of_interest", "establishment"], "place_id": "ChIJHTUue5QVWBQRSssVyOyH_rQ"}, {"name": "Knouz For Trade & Distribution", "formatted_address": "41 El Hegaz St, El-Nozha, El Nozha, Cairo Governorate, Egypt", "lat": 31.3354859, "types": ["point_of_interest", "establishment"], "place_id": "ChIJ06TYwusVWBQRSX_wi0ILpUY"}, {"name": "Tharwa Petroleum", "formatted_address": "2 El Hegaz St, El-Nozha, Heliopolis, Cairo Governorate, Egypt", "lat": 31.3361689, "types": ["point_of_interest", "establishment"], "place_id": "ChIJ06TYwusVWBQRPYdPPRhay5A"}, {"name": "Sporty International", "formatted_address": "192 El Hegaz St, El-Nozha, El Nozha, Cairo Governorate, Egypt", "lat": 31.3361689, "types": ["point_of_interest", "establishment"], "place_id": "ChIJ06TYwusVWBQR8VS9iRVdll8"}, {"name": "Care Dental Clinic", "formatted_address": "179 El Hegaz St, El-Nozha, El Nozha, Cairo Governorate, Egypt", "lat": 31.3354859, "types": ["point_of_interest", "establishment"], "place_id": "ChIJ06TYwusVWBQRB2717lhwmTY"}, {"name": "توكيل راية", "formatted_address": "50 El Hegaz St, Al Matar, El Nozha, Cairo Governorate, Egypt", "lat": 31.333935, "types": ["point_of_interest", "establishment"], "place_id": "ChIJz3XbfusVWBQRuqzNnT5997M"}, {"name": "Egypt", "formatted_address": "٦ شارع محمد مأمون متفرع من شارع عبدالعظيم عوض الله -خلف مطعم جاد ميدان الحجاز, Egypt", "lat": 31.3424551, "types": ["point_of_interest", "establishment"], "place_id": "ChIJC17-PcMVWBQRUNid6oGFCjM"}, {"name": "Abdeen Palace Museum", "formatted_address": "شارع جمعه عابدين،، El-Gomhoreya Square, Rahbet Abdin, Abdeen, Cairo Governorate, Egypt", "lat": 31.248544, "types": ["tourist_attraction", "museum", "point_of_interest", "establishment"], "place_id": "ChIJF_ZR9bpAWBQR_WeDJloU-7o"}, {"name": "Hossam Shawkey", "formatted_address": "158 El Hegaz St, El-Nozha, El Nozha, Cairo Governorate, Egypt", "lat": 31.3356615, "types": ["point_of_interest", "establishment"], "place_id": "ChIJS0ro7OsVWBQRCj4hNI5bpXo"}, {"name": "El Dar", "formatted_address": "42 Omar Ibn El-Khattab, Almazah, Heliopolis, Cairo Governorate, Egypt", "lat": 31.3365537, "types": ["point_of_interest", "establishment"], "place_id": "ChIJO7vPBvQVWBQRRoYNoH5epvc"}, {"name": "Olympiad Gym", "formatted_address": "60 El Hegaz St, El-Nozha, Heliopolis, Cairo Governorate, Egypt", "lat": 31.335199, "types": ["point_of_interest", "establishment"], "place_id": "ChIJxQj8vesVWBQRFlWhe4nPiMs"}, {"name": "مستشفى مصر الجديدة التخصصي", "formatted_address": "11 محمد والي, متفرع من شارع الحجاز, Cairo Governorate, Egypt", "lat": 31.3411778, "types": ["hospital", "health", "point_of_interest", "establishment"], "place_id": "ChIJxfpF6MIVWBQR520C587qroo"}, {"name": "Glory Beauty Clinic", "formatted_address": "125 El Hegaz St, El-Nozha, El Nozha, Cairo Governorate, Egypt", "lat": 31.3361584, "types": ["point_of_interest", "establishment"], "place_id": "ChIJVVXl6OsVWBQRk46DikoLa-M"}, {"name": "Kawmya bookshop", "formatted_address": "165 El Hegaz St, Al Matar, El Nozha, Cairo Governorate, Egypt", "lat": 31.3445128, "types": ["book_store", "point_of_interest", "store", "establishment"], "place_id": "ChIJIx2aF90VWBQRz00eHKhNyQU"}, {"name": "Heliopolis Metro Station", "formatted_address": "El-Montaza St, El-Nozha, El Nozha, Cairo Governorate, Egypt", "lat": 31.3388436, "types": ["point_of_interest", "establishment"], "place_id": "ChIJVZQlkkMVWBQRv6qlPNqC_qA"}, {"name": "هوليداي هوم", "formatted_address": "قسم مصر الجديدة, 63 El Hegaz St, El-Bostan, Heliopolis, Cairo Governorate 11351, Egypt", "lat": 31.3275635, "types": ["lodging", "point_of_interest", "establishment"], "place_id": "ChIJD__keZIVWBQRaRwfB2gBVVo"}, {"name": "Kodak Express Heliopolis", "formatted_address": "56 El Hegaz St, An Nuzhah, El Nozha, Cairo Governorate, Egypt", "lat": 31.3345958, "types": ["electronics_store", "home_goods_store", "point_of_interest", "store", "establishment"], "place_id": "ChIJ6bESm-sVWBQRdG-ZTMCD_Mo"}, {"name": "Wienerwald", "formatted_address": "El Hegaz St, Al Matar, El Nozha, Cairo Governorate, Egypt", "lat": 31.3451066, "types": ["restaurant", "food", "point_of_interest", "establishment"], "place_id": "ChIJH_8hA90VWBQR7MAhYU_vSuo"}, {"name": "Radisson Blu Hotel, Cairo Heliopolis", "formatted_address": "Abdel Hamid Badawi St Heliopolis, Cairo Governorate 11787, Egypt", "lat": 31.3753121, "types": ["lodging", "point_of_interest", "establishment"], "place_id": "ChIJQZJ8fWUWWBQRAUPO9I6SxPg"}, {"name": "Heliopolis Family Court", "formatted_address": "58 El Hegaz St, El-Nozha, Heliopolis, Cairo Governorate, Egypt", "lat": 31.3297672, "types": ["courthouse", "local_government_office", "point_of_interest", "establishment"], "place_id": "ChIJNxzB6pIVWBQRQx6kT15XA74"}, {"name": "Square", "formatted_address": "123 El Hegaz St, El-Nozha, El Nozha, Cairo Governorate, Egypt", "lat": 31.3359034, "types": ["cafe", "food", "point_of_interest", "establishment"], "place_id": "ChIJ06TYwusVWBQRkJym7RIIoEY"}, {"name": "الركن الرياضى", "formatted_address": "125 El Hegaz St, Al Matar, El Nozha, Cairo Governorate, Egypt", "lat": 31.3361584, "types": ["point_of_interest", "establishment"], "place_id": "ChIJVVXl6OsVWBQR0Cp63K2-zA4"}, {"name": "Misr Elhegaz Group", "formatted_address": "198 El Hegaz St, Al Matar, El Nozha, Cairo Governorate, Egypt", "lat": 31.352208, "types": ["point_of_interest", "store", "establishment"], "place_id": "ChIJ06TYwusVWBQRw8jS8PXm6Aw"}, {"name": "Kazaz Restaurant", "formatted_address": "163 El Hegaz St, Al Matar, El Nozha, Cairo Governorate, Egypt", "lat": 31.3438907, "types": ["restaurant", "food", "point_of_interest", "establishment"], "place_id": "ChIJ9VVEkTEVWBQRMF1MpdqvKr4"}, {"name": "NBK", "formatted_address": "فودافون، 72 شارع الحجاز، هليوبوليس امام مستشفى هليوبوليس ، القاهرة Vodafone - 72 Hegaz street, Heliopolis – in front of Heliopolis Hospital, Cairo, Cairo Governorate, Egypt", "lat": 31.3366932, "types": ["atm", "finance", "point_of_interest", "establishment"], "place_id": "ChIJ5fZCeI4VWBQRULcDwTY4M_c"}, {"name": "Heliopolis Hospital", "formatted_address": "ميدان هليوبوليس، El-Nozha, El Nozha, Cairo Governorate, Egypt", "lat": 31.337074, "types": ["hospital", "health", "point_of_interest", "establishment"], "place_id": "ChIJR8gu2esVWBQREEO6QdYQy80"}, {"name": "المكتبة القومية", "formatted_address": "132 El Hegaz St, Al Matar, El Nozha, Cairo Governorate, Egypt", "lat": 31.3444228, "types": ["book_store", "point_of_interest", "store", "establishment"], "place_id": "ChIJ469WF90VWBQRfHJ3xPASSTo"}, {"name": "Zone 100", "formatted_address": "100 El Hegaz St, El-Nozha, El Nozha, Cairo Governorate, Egypt", "lat": 31.3410528, "types": ["night_club", "bar", "point_of_interest", "establishment"], "place_id": "ChIJcxKvSt0VWBQR32cIdoq894k"}, {"name": "مؤسسة صناع الخير", "formatted_address": "بجوار مستشفى هيليوبوليس، 125 El Hegaz St, النزهة الدور4،، El Nozha, Egypt", "lat": 31.3361584, "types": ["point_of_interest", "establishment"], "place_id": "ChIJVVXl6OsVWBQRxvq3JfkWClU"}, {"name": "Heliopolis Towers Hotel", "formatted_address": "El Shaheed Sayed Zakaria, Sheraton Al Matar, El Nozha, Cairo Governorate 11736, Egypt", "lat": 31.3661798, "types": ["lodging", "point_of_interest", "establishment"], "place_id": "ChIJZ9p3820WWBQRmZh2M_MSzOQ"}, {"name": "Vodafone", "formatted_address": "72 El Hegaz St, El-Nozha, El Nozha, Cairo Governorate, Egypt", "lat": 31.3365852, "types": ["point_of_interest", "establishment"], "place_id": "ChIJ92hu0OsVWBQRF-JT0MJQpQQ"}, {"name": "مدرسة سانت فاتيما للغات", "formatted_address": "154 El Hegaz St, Al Matar, El Nozha, Cairo Governorate, Egypt", "lat": 31.3463328, "types": ["school", "point_of_interest", "establishment"], "place_id": "ChIJ06TYwusVWBQROEKdz7mPN20"}, {"name": "اولاد رجب Awlad Ragab", "formatted_address": "181 El Hegaz St, Al Matar, El Nozha, Cairo Governorate 11771, Egypt", "lat": 31.3480338, "types": ["supermarket", "grocery_or_supermarket", "food", "point_of_interest", "store", "establishment"], "place_id": "ChIJ4waAANwVWBQR0rwYPGLyVJk"}, {"name": "Max Fashion, Al-Hegaz st, Heliopolis,Cairo", "formatted_address": "El Hegaz St, El-Bostan, Heliopolis, Cairo Governorate, Egypt", "lat": 31.3228241, "types": ["clothing_store", "point_of_interest", "store", "establishment"], "place_id": "ChIJuTPyxI4VWBQRbTsZYCNfBAI"}, {"name": "Coya Lounge", "formatted_address": "El Hegaz St, Al Matar, El Nozha, Cairo Governorate 11757, Egypt", "lat": 31.3412891, "types": ["night_club", "cafe", "food", "point_of_interest", "establishment"], "place_id": "ChIJTaY3Nd0VWBQRCFPJfSZSsXY"}, {"name": "Heliopolis Hospital", "formatted_address": "El-Nozha, El Nozha, Cairo Governorate, Egypt", "lat": 31.336325, "types": ["transit_station", "point_of_interest", "establishment"], "place_id": "ChIJczK22usVWBQRptpaPYhXiOA"}, {"name": "جروب سب إيجيبت توكيل تيفال و مولينكس", "formatted_address": "121 El Hegaz St, El-Nozha, El Nozha, Cairo Governorate, Egypt", "lat": 31.3356893, "types": ["electronics_store", "point_of_interest", "store", "establishment"], "place_id": "ChIJAQAU7esVWBQR5fwCH5jrRWw"}, {"name": "معرض ماسترز فرع الحجاز", "formatted_address": "103 El Hegaz St. Heliopolis, Cairo Governorate, El-Nozha, Cairo, Cairo Governorate 11771, 4th Floor Suite 11 103, شارع الحجاز، النزهة، قسم النزهة، محافظة القاهرة‬،، Egypt", "lat": 31.3339747, "types": ["car_dealer", "point_of_interest", "store", "establishment"], "place_id": "ChIJ4d_v8Z8VWBQRq3Tu13MNxrM"}, {"name": "Diadora", "formatted_address": "138 El Hegaz St, Al Matar, El Nozha, Cairo Governorate, Egypt", "lat": 31.3444724, "types": ["bicycle_store", "point_of_interest", "store", "establishment"], "place_id": "ChIJ___b4dwVWBQRELFuKq4fnOA"}, {"name": "Al Watany Ophthalmology Hospital", "formatted_address": "٢١١, El Hegaz St, Cairo Governorate, Egypt", "lat": 31.3515542, "types": ["hospital", "health", "point_of_interest", "establishment"], "place_id": "ChIJ06TYwusVWBQRyKwcO2gaws4"}, {"name": "Mahaba medical center", "formatted_address": "181 El Hegaz St, Al Matar, El Nozha, Cairo Governorate, Egypt", "lat": 31.348751, "types": ["hospital", "health", "point_of_interest", "establishment"], "place_id": "ChIJq2PNVdkVWBQRfRr7UXnw6q0"}, {"name": "Arab Union For Trade & Contracting", "formatted_address": "197 El Hegaz St, El-Nozha, El Nozha, Cairo Governorate, Egypt", "lat": 31.3361689, "types": ["point_of_interest", "establishment"], "place_id": "ChIJ06TYwusVWBQRXgD30EtZsGg"}, {"name": "Ashraf requested by the lawyer", "formatted_address": "128 El Hegaz St, El-Nozha, El Nozha, Cairo Governorate 11351, Egypt", "lat": 31.3360022, "types": ["point_of_interest", "establishment"], "place_id": "ChIJv96HbngWWBQRvHq1fkjl87s"}, {"name": "مستشفى الحرية التخصصى", "formatted_address": "11 Latif Mansour St، Almazah, El Nozha, Cairo Governorate, Egypt", "lat": 31.3438507, "types": ["hospital", "health", "point_of_interest", "establishment"], "place_id": "ChIJq7jFPhw-WBQRx7wGgL_7bO8"}, {"name": "TOLIP El Galaa - Heliopolis", "formatted_address": "El Orouba St, Sheraton Al Matar, El Nozha, Cairo Governorate, Egypt", "lat": 31.3490226, "types": ["lodging", "point_of_interest", "establishment"], "place_id": "ChIJvyeGu-QVWBQRkPqc2rg6IsE"}]