[{"name": "Go Bus Almaza", "formatted_address": "11 Hussein Kamel, Almazah, Heliopolis, Cairo Governorate, Egypt", "lat": 30.0853421, "lng": 31.3536196, "types": ["travel_agency", "point_of_interest", "establishment"], "place_id": "ChIJEzJvAgA-WBQRZfuPE0O0dJA"}, {"name": "Baron Empain Palace", "formatted_address": "El-Orouba, El-Montaza, Heliopolis, Cairo Governorate 11757, Egypt", "lat": 30.0866701, "lng": 31.3303332, "types": ["point_of_interest", "establishment"], "place_id": "ChIJ1_GM8iE-WBQRLNVi-RT7vDA"}, {"name": "صيدلية د. محمد ابو الحجاج", "formatted_address": "14 شارع حسين كامل، Ezzat Mohammed Selim, الماظة،، Heliopolis, Cairo Governorate, Egypt", "lat": 30.0849627, "lng": 31.3539826, "types": ["pharmacy", "health", "point_of_interest", "store", "establishment"], "place_id": "ChIJndDXBgA-WBQRqAIZXADWEWs"}, {"name": "مؤسسة علاج الخيرية لرعاية أطفال السكري", "formatted_address": "٦١ شارع فتحي القشلان عمارات ألماظة أمام مطار ألماظة الجوي من، Hussein Kamel, سليم، Egypt", "lat": 30.0819686, "lng": 31.3568954, "types": ["point_of_interest", "establishment"], "place_id": "ChIJuWH5fzk9WBQRhaRF9PzRvNQ"}, {"name": "Prince Mohamed Ali Palace (Al Manial Palace)", "formatted_address": "1 السرايا, Old Cairo, Cairo Governorate, Egypt", "lat": 30.0289507, "lng": 31.230013, "types": ["tourist_attraction", "museum", "point_of_interest", "establishment"], "place_id": "ChIJmzFzaTJHWBQRnYC7wOdZtis"}, {"name": "Al-Hussain Mosque", "formatted_address": "Al-Mashhad Al-Hussaini شارع المشهد الحسين، شارع Hasan El-Adawy, امتداد، Egypt", "lat": 30.0476847, "lng": 31.2630585, "types": ["mosque", "tourist_attraction", "place_of_worship", "point_of_interest", "establishment"], "place_id": "ChIJtV4bG2A_WBQRVZjDa4cjz_E"}, {"name": "Murano Cafe مورانو كافيه", "formatted_address": "Hussein Kamel, Almazah, Heliopolis, Cairo Governorate, Egypt", "lat": 30.0884742, "lng": 31.3512077, "types": ["cafe", "food", "point_of_interest", "establishment"], "place_id": "ChIJwcdOkCsVWBQR_lYu52cYiYQ"}, {"name": "El Yousr Automotive", "formatted_address": "1 Hussien Kamel Selim St.، Almazah, Heliopolis, Cairo Governorate, Egypt", "lat": 30.0861699, "lng": 31.3529486, "types": ["point_of_interest", "establishment"], "place_id": "ChIJH1o48v8VWBQRyMRfSSPSwjU"}, {"name": "Al Thawra Mosque", "formatted_address": "Almazah, Heliopolis, Cairo Governorate, Egypt", "lat": 30.089369, "lng": 31.3301332, "types": ["mosque", "place_of_worship", "point_of_interest", "establishment"], "place_id": "ChIJxT6QNiA-WBQRL3pMhgW-Y4w"}, {"name": "قصر السلطانة ملك", "formatted_address": "Nazih Khalifa, El-Montaza, Heliopolis, Cairo Governorate, Egypt", "lat": 30.0887613, "lng": 31.3292584, "types": ["point_of_interest", "establishment"], "place_id": "ChIJn5YpqSo_WBQR4pn0A6Bh_k8"}, {"name": "Abdeen Palace Museum", "formatted_address": "شارع جمعه عابدين،، El-Gomhoreya Square, Rahbet Abdin, Abdeen, Cairo Governorate, Egypt", "lat": 30.0422696, "lng": 31.248544, "types": ["tourist_attraction", "museum", "point_of_interest", "establishment"], "place_id": "ChIJF_ZR9bpAWBQR_WeDJloU-7o"}, {"name": "التركى لاكسسوارات السيارات", "formatted_address": "13 Hussein Kamel, Almazah, Heliopolis, Cairo Governorate 11775, Egypt", "lat": 30.0849926, "lng": 31.3539174, "types": ["shopping_mall", "point_of_interest", "establishment"], "place_id": "ChIJXxvuL0E_WBQRCmdqywoZst8"}, {"name": "Pharaohs Athletic club", "formatted_address": "Hussein Kamel, Sheraton Al Matar, El Nozha, Cairo Governorate, Egypt", "lat": 30.084981, "lng": 31.3543837, "types": ["gym", "health", "point_of_interest", "establishment"], "place_id": "ChIJ22lyItI9WBQRKuWwMflBKZA"}, {"name": "مسجد المروه", "formatted_address": "شارع Mohammed Kamel Hussein, ،النزهة،قسم النزهة،القاهرة، El Nozha, Cairo Governorate, Egypt", "lat": 30.1237789, "lng": 31.3686543, "types": ["mosque", "place_of_worship", "point_of_interest", "establishment"], "place_id": "ChIJkeurzYkWWBQR_BeDAqpTnKE"}, {"name": "Mosque-Madrassa of Sultan Hassan", "formatted_address": "El-Darb El-Ahmar, El-Khalifa, Cairo Governorate, Egypt", "lat": 30.0322791, "lng": 31.2561704, "types": ["mosque", "tourist_attraction", "place_of_worship", "point_of_interest", "establishment"], "place_id": "ChIJdRfpCqxAWBQR5IwPTJC5xnQ"}, {"name": "Ahlam El Ghad Establishment For Special Needs", "formatted_address": "ش حسين كامل سليم، مصر الجديدة، القاهرة، Cairo Governorate, Egypt", "lat": 30.0852805, "lng": 31.3537723, "types": ["school", "point_of_interest", "establishment"], "place_id": "ChIJoaAjAgA-WBQRbjoYxpP-mMA"}, {"name": "Mohamad Hassan Kamel", "formatted_address": "As Sebaeyin, As Sayedah Zeinab, Cairo Governorate, Egypt", "lat": 30.0346464, "lng": 31.2419681, "types": ["point_of_interest", "establishment"], "place_id": "ChIJ3wdJr7VAWBQRsV9ZAUfrcVs"}, {"name": "Family and Child Academy", "formatted_address": "أمام مطار الماظة،، Hussein Kamel, Almazah, Heliopolis, Egypt", "lat": 30.0870878, "lng": 31.3518282, "types": ["doctor", "health", "point_of_interest", "establishment"], "place_id": "ChIJ2b_MPZMVWBQRP4QLxVznms4"}, {"name": "دكتور رضا سمك", "formatted_address": "1 عمارة السلام، شارع عزت حسين كامل، الماظة،، Heliopolis, Cairo Governorate, Egypt", "lat": 30.0848191, "lng": 31.3529175, "types": ["doctor", "health", "point_of_interest", "establishment"], "place_id": "ChIJa3MHFwA-WBQRmiJkfxEuaL0"}, {"name": "Al-Rifa'i Mosque", "formatted_address": "El-Refaey, El-Darb El-Ahmar, Cairo Governorate, Egypt", "lat": 30.0327091, "lng": 31.2570029, "types": ["mosque", "tourist_attraction", "place_of_worship", "point_of_interest", "establishment"], "place_id": "ChIJQzwG_6tAWBQRHeWM2htky-w"}, {"name": "El Tahra Palace - قصر الطاهرة", "formatted_address": "El-Zaytoun Sharkeya, Zeitoun, Cairo Governorate, Egypt", "lat": 30.0982062, "lng": 31.3085112, "types": ["museum", "point_of_interest", "establishment"], "place_id": "ChIJM_O-HYAVWBQRMuzVJ73MpHY"}, {"name": "القبيصى ملك الفراولة", "formatted_address": "11 Hussein Kamel, Almazah, Heliopolis, Cairo Governorate, Egypt", "lat": 30.0852966, "lng": 31.3536521, "types": ["food", "point_of_interest", "establishment"], "place_id": "ChIJcwx1AgA-WBQRANxaz3tjjls"}, {"name": "Auto Store and elmobasher", "formatted_address": "42 ش د. محمد كامل حسين، النزهة الجديدة، El Nozha, Cairo Governorate, Egypt", "lat": 30.1231, "lng": 31.36869999999999, "types": ["car_repair", "point_of_interest", "store", "establishment"], "place_id": "ChIJg_YFyPIXWBQRWI8tj7PSOHI"}, {"name": "عيادة د رشا العدوي", "formatted_address": "كامل, 7 شارع حسين, Hussein kamel, Ezzat Mohammed Selim, Almazah, Cairo Governorate, Egypt", "lat": 30.0858475, "lng": 31.3522705, "types": ["health", "point_of_interest", "establishment"], "place_id": "ChIJ-y9KsLw9WBQRoEpDnEddGP0"}, {"name": "عيادات للإيجار", "formatted_address": "77 Abd El-Hameed Badawi, Sheraton Al Matar, El Nozha, Cairo Governorate, Egypt", "lat": 30.1186741, "lng": 31.3497379, "types": ["point_of_interest", "establishment"], "place_id": "ChIJSU-jQdcVWBQRSNg9H8DNxKY"}, {"name": "مسجد الرحمن", "formatted_address": "شارع Mohammed Kamel Hussein, Huckstep, ،النزهة،قسم النزهة، Cairo Governorate, Egypt", "lat": 30.122451, "lng": 31.3680441, "types": ["mosque", "place_of_worship", "point_of_interest", "establishment"], "place_id": "ChIJvd9Ej2IWWBQR-EbWhQjBb4Y"}, {"name": "Mohamed Hussein Kamel", "formatted_address": "114 Gesr Al Suez, St, El Nozha, Cairo Governorate, Egypt", "lat": 30.119111, "lng": 31.339374, "types": ["doctor", "health", "point_of_interest", "establishment"], "place_id": "ChIJiYuNmMUVWBQR4ve-yz484Ss"}, {"name": "The National Museum of Egyptian Civilization", "formatted_address": "Ein as Seirah, Old Cairo, Cairo Governorate, Egypt", "lat": 30.0081493, "lng": 31.2482604, "types": ["museum", "tourist_attraction", "point_of_interest", "establishment"], "place_id": "ChIJj57jY2hHWBQRXRSPb0RY4MI"}, {"name": "Almaza Medical Centre for Children and Neonates", "formatted_address": "سليم أمام مطار ألماظة الجوي ( بجانب عيادة د. رشا العدوي, ٧ شارع أحمد عبد العزيز متفرع من شارع, Hussein Kamel, Cairo Governorate, Egypt", "lat": 30.0857135, "lng": 31.3522645, "types": ["hospital", "health", "point_of_interest", "establishment"], "place_id": "ChIJv8Q01LY_WBQROR_392EpKsw"}, {"name": "Egyptian American Center Hospital", "formatted_address": "11 ش محمد كامل حسين، النزهة الجديدة، El Nozha, Cairo Governorate, Egypt", "lat": 30.1223202, "lng": 31.3676897, "types": ["hospital", "health", "point_of_interest", "establishment"], "place_id": "ChIJ4cPukWIWWBQRPjzqpVb2SWY"}, {"name": "ترزى شعبان", "formatted_address": "شارع حسين كامل، حي العاشر،، Nasr City, Cairo Governorate, Egypt", "lat": 30.0502518, "lng": 31.3777306, "types": ["point_of_interest", "establishment"], "place_id": "ChIJZ_TLfLg9WBQRnA-PCUAQhTo"}, {"name": "تمثال طه حسين", "formatted_address": "الدقي أ، الدقى،، Giza Governorate, Egypt", "lat": 30.0399171, "lng": 31.2196446, "types": ["museum", "point_of_interest", "establishment"], "place_id": "ChIJaUcNQExBWBQRcxu54uIJJD0"}, {"name": "Dr. kamel Hussein Kamel", "formatted_address": "Al Khassah, Hada'iq El Qobbah, Cairo Governorate, Egypt", "lat": 30.0771401, "lng": 31.275118, "types": ["health", "point_of_interest", "establishment"], "place_id": "ChIJPREDaTU_WBQRw2rtEfq3I_w"}]