[{"name": "Gamal Abdel Nasser Museum", "formatted_address": "4 El-Khalifa El-Maamoun, Mansheya El-Bakry, Heliopolis, Cairo Governorate, Egypt", "lat": 30.08654319999999, "lng": 31.3106985, "types": ["tourist_attraction", "museum", "point_of_interest", "establishment"], "place_id": "ChIJRRoLYy0-WBQR5Q1w1SdH0dQ"}, {"name": "Ittihadia Palace", "formatted_address": "Al Nadi، El-Montaza, Heliopolis, Cairo Governorate, Egypt", "lat": 30.0888643, "lng": 31.3193929, "types": ["tourist_attraction", "premise", "point_of_interest", "establishment"], "place_id": "ChIJuftqUS8-WBQRtM7fDk0QcPk"}, {"name": "Our Lady of Heliopolis Co-Cathedral", "formatted_address": "Nazih Khalifa crossroad، Al Ahram, Heliopolis, Cairo Governorate, Egypt", "lat": 30.0935707, "lng": 31.3251828, "types": ["church", "place_of_worship", "point_of_interest", "establishment"], "place_id": "ChIJJdgh-okVWBQR5TqTmKuQ0IM"}, {"name": "Baron Empain Palace", "formatted_address": "El-Orouba, El-Montaza, Heliopolis, Cairo Governorate 11757, Egypt", "lat": 30.0866701, "lng": 31.3303332, "types": ["point_of_interest", "establishment"], "place_id": "ChIJ1_GM8iE-WBQRLNVi-RT7vDA"}, {"name": "Abdeen Palace Museum", "formatted_address": "شارع جمعه عابدين،، El-Gomhoreya Square, Rahbet Abdin, Abdeen, Cairo Governorate, Egypt", "lat": 30.0422696, "lng": 31.248544, "types": ["tourist_attraction", "museum", "point_of_interest", "establishment"], "place_id": "ChIJF_ZR9bpAWBQR_WeDJloU-7o"}, {"name": "Queens Hospital _ Cleopatra Hospitals Group", "formatted_address": "4 Sheikh Nour Eldin, off Thawra St., Heliopolis, 11345, Egypt", "lat": 30.0886869, "lng": 31.3318691, "types": ["hospital", "doctor", "health", "point_of_interest", "establishment"], "place_id": "ChIJ65q6gh8-WBQRb6VXdsqqg4w"}, {"name": "مطعم فول وفلافل السكرية", "formatted_address": "شارع المتوج متفرع من ١٩ ش الخليفه المأمون،مصر الجديده، قسم مصر الجديدة برج روكسى، Cairo Governorate, Egypt", "lat": 30.0879336, "lng": 31.3101493, "types": ["restaurant", "food", "point_of_interest", "establishment"], "place_id": "ChIJv4-PFC0-WBQRpt0XqoTN9sA"}, {"name": "معمل الفا", "formatted_address": "سوق العصر، 21 شارع الخليفة المأمون، منشية البكري، قسم مصر الجديدة، محافظة القاهرة‬ اعلى on the run امام، Egypt", "lat": 30.0881797, "lng": 31.3104199, "types": ["health", "point_of_interest", "establishment"], "place_id": "ChIJs-YrEi0-WBQRTb8W38lgV9Q"}, {"name": "Catech", "formatted_address": "19 Al Motawag, Mansheya El-Bakry, Heliopolis, Cairo Governorate, Egypt", "lat": 30.0878113, "lng": 31.3101306, "types": ["point_of_interest", "establishment"], "place_id": "ChIJ77fSEuA_WBQROb8lZDrz8Dk"}, {"name": "مركز زيادكو للاطارات", "formatted_address": "19 Al Motawag, Mansheya El-Bakry, Heliopolis, Cairo Governorate, Egypt", "lat": 30.0878905, "lng": 31.3100059, "types": ["car_repair", "point_of_interest", "store", "establishment"], "place_id": "ChIJe00mFS0-WBQRpYthJTicC_w"}, {"name": "Misr Radiology Center", "formatted_address": "8 El-Khalifa El-Maamoun, Mansheya El-Bakry, Heliopolis, Cairo Governorate, Egypt", "lat": 30.0869168, "lng": 31.3022116, "types": ["doctor", "health", "point_of_interest", "establishment"], "place_id": "ChIJxVvF2c0_WBQRYA4XDa6iHs0"}, {"name": "مركز علاج البواسير", "formatted_address": "شارع El-Khalifa El-Maamoun, Mansheya El-Bakry, Heliopolis, Cairo Governorate 11765, Egypt", "lat": 30.08770999999999, "lng": 31.3096527, "types": ["doctor", "health", "point_of_interest", "establishment"], "place_id": "ChIJPaP-VGs-WBQRW4v4tNKvCCM"}, {"name": "Heliopolis Sporting Club (HSC)", "formatted_address": "17 El-Sayed El-Marghany, Mansheya El-Bakry, Heliopolis, Cairo Governorate, Egypt", "lat": 30.0883155, "lng": 31.3164398, "types": ["point_of_interest", "establishment"], "place_id": "ChIJB9zy8B4-WBQRz_zRpJte8sA"}, {"name": "El Asema Hospital Heliopolis", "formatted_address": "12 Shebeen, El-Bostan, Heliopolis, Cairo Governorate, Egypt", "lat": 30.0960332, "lng": 31.3307213, "types": ["hospital", "health", "point_of_interest", "establishment"], "place_id": "ChIJ58RJTIsVWBQRT0Oog1-ibwA"}, {"name": "جراحة الصدر اد أحمد مصطفي (جراحة القصبة الهوائية..جراحة أورام الرئة والحيزوم..جراحة الصدر بالمنظار..جراحة اصلاح التقعر الصدري..جراحة الغدة التيموسية..الحجاب الحاجز..زراعة الرئة)", "formatted_address": "١٥ شارع الخليفة المأمون ، روكسي, مصر الجديدة, أمام, Souq Al ASR, Heliopolis, Cairo Governorate, Egypt", "lat": 30.0873602, "lng": 31.3095261, "types": ["health", "point_of_interest", "establishment"], "place_id": "ChIJQV_6RC0-WBQR3W2f9CwdKfs"}, {"name": "Maadi Island", "formatted_address": "Dar Al Salam, Giza Governorate, Egypt", "lat": 29.965527, "lng": 31.239237, "types": ["restaurant", "tourist_attraction", "park", "food", "point_of_interest", "establishment"], "place_id": "ChIJwY7d5MFHWBQRl1nMXlW_tUY"}, {"name": "Consultant engineering office DR/Hamdy Shehab", "formatted_address": "19 Al Motawag, Mansheya El-Bakry, Heliopolis, Cairo Governorate, Egypt", "lat": 30.0877625, "lng": 31.310259, "types": ["point_of_interest", "establishment"], "place_id": "ChIJ0YXQ_e0_WBQReCqrHTyJips"}, {"name": "جمعية الخليفة المأمون الثقافية", "formatted_address": "21 ش El-Khalifa El-Maamoun, Mansheya El-Bakry, Heliopolis, Cairo Governorate, Egypt", "lat": 30.0872693, "lng": 31.3094821, "types": ["point_of_interest", "establishment"], "place_id": "ChIJ03NXs5I_WBQRbldzgc-yGgE"}, {"name": "عيادة دكتورة / عبير السيد إستشارى التوليد و أمراض النساء", "formatted_address": "19a El-Khalifa El-Maamoun, Mansheya El-Bakry, Heliopolis, Cairo Governorate 11774, Egypt", "lat": 30.0879412, "lng": 31.3102181, "types": ["health", "point_of_interest", "establishment"], "place_id": "ChIJcdT0DUo_WBQR5sjdbP5ZR3E"}, {"name": "Radisson Blu Hotel, Cairo Heliopolis", "formatted_address": "Abdel Hamid Badawi St Heliopolis, Cairo Governorate 11787, Egypt", "lat": 30.1065093, "lng": 31.3753121, "types": ["lodging", "point_of_interest", "establishment"], "place_id": "ChIJQZJ8fWUWWBQRAUPO9I6SxPg"}, {"name": "دكتور هانى دبوس", "formatted_address": "١٥ شارع الخليفة المأمون امام سوق العصر اعلي البنك المصري الخليجي روكسي مصر، الجديدة، القاهرة، Cairo Governorate, Egypt", "lat": 30.087439, "lng": 31.309508, "types": ["hospital", "health", "point_of_interest", "establishment"], "place_id": "ChIJKZJkQy0-WBQRlTcnw2FmByU"}, {"name": "حضرموت البخاري", "formatted_address": "19 المتوج، منشية البكري، مصر الجديدة،، Cairo Governorate, Egypt", "lat": 30.0878146, "lng": 31.3100645, "types": ["restaurant", "food", "point_of_interest", "establishment"], "place_id": "ChIJt5xiDj0_WBQRen97vWXrrEc"}, {"name": "دكتور هادى الظواهرى", "formatted_address": "19-A El-Khalifa El-Maamoun, Mansheya El-Bakry, Heliopolis, Cairo Governorate 11774, Egypt", "lat": 30.0877549, "lng": 31.3102244, "types": ["doctor", "health", "point_of_interest", "establishment"], "place_id": "ChIJs0sAFC0-WBQRIs6U1Oll5Os"}, {"name": "Aladdin El Dessouki Orthopedic Clinic", "formatted_address": "السكة الحديد, El-Khalifa El-Maamoun, Cairo Governorate, Egypt", "lat": 30.0873769, "lng": 31.3095415, "types": ["doctor", "health", "point_of_interest", "establishment"], "place_id": "ChIJST-_Qy0-WBQRfWwQrLGDyNY"}, {"name": "حضر موت البخارى", "formatted_address": "الخليفه المأمون،مصر الجديده،، ١٩ شارع، Al Motawag, قسم مصر الجديدة،، Cairo Governorate, Egypt", "lat": 30.0878945, "lng": 31.3102053, "types": ["restaurant", "food", "point_of_interest", "establishment"], "place_id": "ChIJ9zBiEy0-WBQR_c8rYLh6ZtY"}, {"name": "احبار المدينة", "formatted_address": "مول سوق العصر، 50 ش El-Khalifa El-Maamoun, Heliopolis, Cairo Governorate, Egypt", "lat": 30.0875827, "lng": 31.3093168, "types": ["point_of_interest", "establishment"], "place_id": "ChIJxVvF2c0_WBQRcZhZ-w6Fkok"}, {"name": "Computer", "formatted_address": "60 El-Khalifa El-Maamoun, Mansheya El-Bakry, Heliopolis, Cairo Governorate, Egypt", "lat": 30.0879458, "lng": 31.3098731, "types": ["point_of_interest", "establishment"], "place_id": "ChIJg_dcFS0-WBQRfy-KI_JHj08"}, {"name": "Porto Heliopolis", "formatted_address": "Almazah, Heliopolis, Cairo Governorate, Egypt", "lat": 30.0827031, "lng": 31.348709, "types": ["lodging", "point_of_interest", "establishment"], "place_id": "ChIJR5FCXgE-WBQR471eyuZuvGw"}, {"name": "Family Park", "formatted_address": "مدخل الرحاب 2 ) الكيلو 26،، Suez Rd, Egypt", "lat": 30.0802783, "lng": 31.5013244, "types": ["park", "tourist_attraction", "point_of_interest", "establishment"], "place_id": "ChIJ97tx7voYWBQR-q4kFfGwYYo"}, {"name": "Korba Posta Office", "formatted_address": "البوسطة، المنتزه، مصر الجديدة،، Cairo Governorate, Egypt", "lat": 30.0894726, "lng": 31.3216349, "types": ["post_office", "finance", "point_of_interest", "establishment"], "place_id": "ChIJX8nHbSY-WBQRDrUhlxkHb-M"}, {"name": "St. Mark Coptic Orthodox Church Cleopatra", "formatted_address": "35 كيلوباترا، الماظة، قسم مصر الجديدة،، Cairo Governorate, Egypt", "lat": 30.0924011, "lng": 31.3296246, "types": ["church", "place_of_worship", "point_of_interest", "establishment"], "place_id": "ChIJH3kNmooVWBQRfL4z5mf-KXU"}, {"name": "polishers", "formatted_address": "17 المتوج، منشية البكري، قسم مصر الجديدة،، Cairo Governorate, Egypt", "lat": 30.0878702, "lng": 31.3100468, "types": ["taxi_stand", "point_of_interest", "establishment"], "place_id": "ChIJa6BPyN4_WBQRiBMMGH6nR0M"}, {"name": "‎ مركز جراحة القلب و الصدر في مصر - أ د . ياسر النحاس - جراحة القلب بالمنظار فتحات جانبية بدون شق الصدر ، جراحة القلب المفتوح ، تغيير صمامات القلب ؛ اصلاح الصمام الميترالي ، استبدال الصمام الميترالي بالمنظار ، تغيير مسار الشرايين التاجية ، استبدال الصمام الاورطي ، اصلاح تمدد الشريان الاورطي‎", "formatted_address": "١٥ شارع الخليفه المأمون-روكسي-مصر الجديده- امام سوق العصر– الدور الت, Cairo, Cairo Governorate 11341, Egypt", "lat": 30.0876194, "lng": 31.3096601, "types": ["doctor", "health", "point_of_interest", "establishment"], "place_id": "ChIJ339_QS0-WBQRGl8Axw4hXao"}, {"name": "Orouba Coffee", "formatted_address": "13 El-Khalifa El-Maamoun, Mansheya El-Bakry, Heliopolis, Cairo Governorate, Egypt", "lat": 30.0869192, "lng": 31.3093732, "types": ["food", "point_of_interest", "store", "establishment"], "place_id": "ChIJNxIqXy0-WBQRGW2Utf91k60"}, {"name": "The Great Pyramid of Giza", "formatted_address": "Al Haram, Nazlet El-Semman, Al Giza Desert, Giza Governorate, Egypt", "lat": 29.9792345, "lng": 31.1342019, "types": ["tourist_attraction", "premise", "point_of_interest", "establishment"], "place_id": "ChIJGymPrIdFWBQRJCSloj8vDIE"}, {"name": "مركز مصر الطبى (Misr Medical Center (MMC", "formatted_address": "4 ش بهجت من عمار بن ياسر, خلف الكلية الحربية, النزهة, مصر الجديدة، 4 Bahgat st., Nozha, Heliopolis، Cairo Governorate, Egypt", "lat": 30.1149377, "lng": 31.3574983, "types": ["hospital", "health", "point_of_interest", "establishment"], "place_id": "ChIJfa7FcXcWWBQRHAjRYsBTBb0"}, {"name": "Diar Al Orouba For Development & Projects Management", "formatted_address": "15 ش El-Khalifa El-Maamoun, Mansheya El-Bakry, Heliopolis, Cairo Governorate, Egypt", "lat": 30.0873602, "lng": 31.3095261, "types": ["point_of_interest", "establishment"], "place_id": "ChIJVVVFQy0-WBQR6P4IUm3tth0"}, {"name": "St Michael's Church الكنيسة الأسقفية بالكوربة", "formatted_address": "Baghdad St, El-Montaza, Heliopolis, Cairo Governorate, Egypt", "lat": 30.0884753, "lng": 31.3229984, "types": ["church", "place_of_worship", "point_of_interest", "establishment"], "place_id": "ChIJfaLreiY-WBQRlouIfsEe-o8"}, {"name": "ABA ceramic heliopolis", "formatted_address": "Rfaah, Rafah, North Sinai Governorate, Egypt", "lat": 30.0878702, "lng": 31.30867349999999, "types": ["point_of_interest", "establishment"], "place_id": "ChIJg8pvKy0-WBQRQM691IgL3Qg"}, {"name": "Baron Hotel Heliopolis", "formatted_address": "14 Al Baroon, El-Montaza, Heliopolis, Cairo Governorate, Egypt", "lat": 30.0860748, "lng": 31.3314609, "types": ["lodging", "point_of_interest", "establishment"], "place_id": "ChIJUbVOACI-WBQRWsi5B7gYfxs"}, {"name": "مركز بداية للمخ والاعصاب", "formatted_address": "18 El-Khalifa El-Maamoun, Al Matar, El Nozha, Cairo Governorate, Egypt", "lat": 30.08769, "lng": 31.3095284, "types": ["health", "point_of_interest", "establishment"], "place_id": "ChIJC55f3c0_WBQR9trQ5L2bc8s"}, {"name": "معامل الشمس", "formatted_address": "شارع El-Khalifa El-Maamoun, Mansheya El-Bakry, Heliopolis, Cairo Governorate, Egypt", "lat": 30.08777899999999, "lng": 31.3091222, "types": ["health", "point_of_interest", "establishment"], "place_id": "ChIJRykARi0-WBQRg381X6GLVnI"}, {"name": "Sonesta Hotel Tower & Casino Cairo", "formatted_address": "3 El Tayaran St, Ash Sharekat, Nasr City, Cairo Governorate, Egypt", "lat": 30.0789591, "lng": 31.3175599, "types": ["casino", "lodging", "point_of_interest", "establishment"], "place_id": "ChIJKYApCUc-WBQROTn4JL8ozhI"}, {"name": "Heliopolis Company For Housing & Development", "formatted_address": "28 Ibrahim Al Lakani, El-Montaza, Heliopolis, Cairo Governorate, Egypt", "lat": 30.089427, "lng": 31.32091599999999, "types": ["general_contractor", "point_of_interest", "establishment"], "place_id": "ChIJeUp1DiY-WBQRkHRQbiaGSrA"}, {"name": "Souq Al Asr Computer Mall", "formatted_address": "50 ش الخليفة المأمون مول سوق العصر الدور الأول محل 113, Heliopolis, Cairo Governorate, Egypt", "lat": 30.0879322, "lng": 31.309232, "types": ["electronics_store", "point_of_interest", "store", "establishment"], "place_id": "ChIJxVvF2c0_WBQRNE0HzBnwW9A"}, {"name": "Holiday Inn Cairo - Citystars", "formatted_address": "Ali Rashed Street Heliopolis, Cairo Governorate 11757, Egypt", "lat": 30.0741245, "lng": 31.3438399, "types": ["lodging", "point_of_interest", "establishment"], "place_id": "ChIJw0Sx6OxAWBQRac0KOAYXiEo"}, {"name": "CMC Hospital", "formatted_address": "El-Montaza, Heliopolis, Cairo Governorate, Egypt", "lat": 30.09451379999999, "lng": 31.3177066, "types": ["hospital", "health", "point_of_interest", "establishment"], "place_id": "ChIJL5fwJSg-WBQRuPDL1TfFQtY"}, {"name": "Khebrat", "formatted_address": "19 El Khalifa El Maamoun St، Mansheya El-Bakry, Heliopolis, Cairo Governorate, Egypt", "lat": 30.0878162, "lng": 31.3104572, "types": ["point_of_interest", "establishment"], "place_id": "ChIJxVvF2c0_WBQRXT6CHUVgiD4"}, {"name": "مركز الفاطمية", "formatted_address": "11 Ramsis, El-Montaza, Heliopolis, Cairo Governorate, Egypt", "lat": 30.0906753, "lng": 31.3228372, "types": ["hospital", "health", "point_of_interest", "establishment"], "place_id": "ChIJ_____yY-WBQRoaHxBtvZ4Nk"}, {"name": "مركز الخليفة المأمون التعليمي", "formatted_address": "El-Khalifa El-Maamoun, Mansheya El-Bakry, Heliopolis, Cairo Governorate, Egypt", "lat": 30.0873602, "lng": 31.3095261, "types": ["point_of_interest", "establishment"], "place_id": "ChIJayBbWy0-WBQRrjdaEEjTK80"}, {"name": "Polishers", "formatted_address": "١٩ شارع، El-Khalifa El-Maamoun, مصر الجديدة،قسم، مصر جديدة، Cairo Governorate, Egypt", "lat": 30.0879328, "lng": 31.3101788, "types": ["car_repair", "point_of_interest", "establishment"], "place_id": "ChIJN5SDFC0-WBQR58HOIoZUpMQ"}, {"name": "Citystars Heliopolis", "formatted_address": "Citystars, Cairo Governorate 11771, Egypt", "lat": 30.0728734, "lng": 31.3458082, "types": ["shopping_mall", "point_of_interest", "establishment"], "place_id": "ChIJo0ecE_gVWBQRGGrouhZFdME"}, {"name": "Pizza Club", "formatted_address": "8 El Sayed El Merghani Street, El-Montaza, Heliopolis, Cairo Governorate,، Egypt، Cairo، Cairo Governorate, Egypt", "lat": 30.0912297, "lng": 31.3143523, "types": ["restaurant", "food", "point_of_interest", "establishment"], "place_id": "ChIJhdkQNik-WBQRCY7_fwGpM5E"}, {"name": "Cairo Specialised Hospital (Cleopatra Hospitals)", "formatted_address": "4 Abou Ebaid El Bakry St. Off Ghernata St Roxy، Heliopolis, Egypt", "lat": 30.0943786, "lng": 31.3176307, "types": ["hospital", "health", "point_of_interest", "establishment"], "place_id": "ChIJIRNVLCg-WBQRr2-GLSVvRV8"}, {"name": "Heliopolis Kidney Clinic", "formatted_address": "43 Abd El-Aziz Fahmy, El-Nozha, El Nozha, Cairo Governorate, Egypt", "lat": 30.1090872, "lng": 31.33538219999999, "types": ["health", "point_of_interest", "establishment"], "place_id": "ChIJeai9SOoVWBQRJU16ORhV0mM"}, {"name": "مطعم السكرية", "formatted_address": "برج روكسى، ١٩ شارع الخليفة المأمون قسم، Cairo Governorate, Egypt", "lat": 30.0879151, "lng": 31.3101734, "types": ["restaurant", "food", "point_of_interest", "establishment"], "place_id": "ChIJzV-bFC0-WBQR5gLrJwnAmHA"}, {"name": "Heliopolis Towers Hotel", "formatted_address": "El Shaheed Sayed Zakaria, Sheraton Al Matar, El Nozha, Cairo Governorate 11736, Egypt", "lat": 30.1074763, "lng": 31.3661798, "types": ["lodging", "point_of_interest", "establishment"], "place_id": "ChIJZ9p3820WWBQRmZh2M_MSzOQ"}, {"name": "Heliopolis Clinics", "formatted_address": "El-Nozha 7 Saudia Co. Buildings - Infront Of Air Defence House عمارات الشركة السعودية شارع النزهة مدينة نصر امام دار الدفاع الجوى, Nasr City, Cairo Governorate, Egypt", "lat": 30.0751367, "lng": 31.3396388, "types": ["health", "point_of_interest", "establishment"], "place_id": "ChIJ23F8CRE-WBQR10pu0gOfOc0"}, {"name": "IRES Foad", "formatted_address": "19a El-Khalifa El-Maamoun, Mansheya El-Bakry, Heliopolis, Cairo Governorate 11774, Egypt", "lat": 30.0879952, "lng": 31.3101115, "types": ["health", "point_of_interest", "establishment"], "place_id": "ChIJX6m1FS0-WBQRCpQdtrvbidk"}, {"name": "د. هدى خطاب", "formatted_address": "شارع El-Khalifa El-Maamoun, مصر الجديدة،قسم، Heliopolis, Cairo Governorate, Egypt", "lat": 30.0877381, "lng": 31.3097624, "types": ["doctor", "health", "point_of_interest", "establishment"], "place_id": "ChIJXRnLQS0-WBQRbsqULzIw1yM"}]