[{"name": "Our Lady of Heliopolis Co-Cathedral", "formatted_address": "Nazih Khalifa crossroad، Al Ahram, Heliopolis, Cairo Governorate, Egypt", "lat": 30.0935707, "lng": 31.3251828, "types": ["church", "place_of_worship", "point_of_interest", "establishment"], "place_id": "ChIJJdgh-okVWBQR5TqTmKuQ0IM"}, {"name": "Baron Empain Palace", "formatted_address": "El-Orouba, El-Montaza, Heliopolis, Cairo Governorate 11757, Egypt", "lat": 30.0866701, "lng": 31.3303332, "types": ["point_of_interest", "establishment"], "place_id": "ChIJ1_GM8iE-WBQRLNVi-RT7vDA"}, {"name": "The Egyptian Museum", "formatted_address": "شارع ماريت باشا، ميدان التحرير، Egypt", "lat": 30.0475781, "lng": 31.23361389999999, "types": ["museum", "tourist_attraction", "point_of_interest", "establishment"], "place_id": "ChIJw741VYhBWBQRD2Z6OiulDVI"}, {"name": "El Dawleya Cars", "formatted_address": "61 Farid Semeika St.، Al Matar, Heliopolis, Cairo Governorate, Egypt", "lat": 30.112639, "lng": 31.344487, "types": ["point_of_interest", "establishment"], "place_id": "ChIJAeBmGKEVWBQRQZIutCFDKuU"}, {"name": "مريم عتمان", "formatted_address": "مصر الجديدة، المطار، قسم النزهة،، Cairo Governorate, Egypt", "lat": 30.112315, "lng": 31.3438507, "types": ["point_of_interest", "establishment"], "place_id": "ChIJgxrFUogVWBQRS1UPh4qIBp0"}, {"name": "Gayer-Anderson Museum", "formatted_address": "أحمد بن طولون طولون، As Sayedah، El-Sayeda Zainab, Egypt", "lat": 30.02833, "lng": 31.250744, "types": ["tourist_attraction", "museum", "point_of_interest", "establishment"], "place_id": "ChIJp0luK01HWBQRf55ldlCn9LE"}, {"name": "Misr Construction & Trade", "formatted_address": "17 متفرع من ش فريد سميكة، Al Matar, El Nozha, Cairo Governorate, Egypt", "lat": 30.1122619, "lng": 31.345483, "types": ["point_of_interest", "establishment"], "place_id": "ChIJAeBmGKEVWBQRezvWpMcm-k8"}, {"name": "Golden Park Hotel", "formatted_address": "شارع الحجاز ، مصر الجديده، 221 شارع الحجاز ، هيليوبوليس ،، El Nozha, Cairo Governorate, Egypt", "lat": 30.1153686, "lng": 31.3525102, "types": ["lodging", "point_of_interest", "establishment"], "place_id": "ChIJsQQdRNgVWBQRss6fVxNFk_8"}, {"name": "شقق مقروشة للايجار في القاهرة", "formatted_address": "ميدان تريومف، Al Matar, El Nozha, Cairo Governorate 11757, Egypt", "lat": 30.112315, "lng": 31.3438507, "types": ["lodging", "point_of_interest", "establishment"], "place_id": "ChIJWZEUunIVWBQR9m5l_WAmnt4"}, {"name": "شركة مصر للهندسة والتجارة - ميتكا (فرع فريد سميكة)", "formatted_address": "11 رفعت صالح، المطار، قسم النزهة، محافظة القاهرة‬،، Egypt", "lat": 30.1135201, "lng": 31.3447407, "types": ["point_of_interest", "establishment"], "place_id": "ChIJl4HkaUIVWBQRIVEO1dWcPP4"}, {"name": "Egypt", "formatted_address": "٦ شارع محمد مأمون متفرع من شارع عبدالعظيم عوض الله -خلف مطعم جاد ميدان الحجاز, Egypt", "lat": 30.1117108, "lng": 31.3424551, "types": ["point_of_interest", "establishment"], "place_id": "ChIJC17-PcMVWBQRUNid6oGFCjM"}, {"name": "هيلتون هيليوبلس", "formatted_address": "Al Matar, El Nozha, Cairo Governorate, Egypt", "lat": 30.112315, "lng": 31.3438507, "types": ["lodging", "point_of_interest", "establishment"], "place_id": "ChIJocT4HcUVWBQRgIk90yuylWM"}, {"name": "مصر الجديدة", "formatted_address": "المطار، قسم النزهة،، Cairo Governorate, Egypt", "lat": 30.111333, "lng": 31.3443623, "types": ["point_of_interest", "store", "establishment"], "place_id": "ChIJJ9PrwbkVWBQRv9pWnoGZE6o"}, {"name": "مركز الدكتور امجد الحداد حساسية ومناعه 12ش بطرس غالى روكسي مصر الجديده", "formatted_address": "12 شارع بطرس غالى روكسى، روكسي، مصر الجديده، Cairo Governorate, Egypt", "lat": 30.112315, "lng": 31.343851, "types": ["doctor", "health", "point_of_interest", "establishment"], "place_id": "ChIJf2fnvc4VWBQRy8CF-La2d4c"}, {"name": "الهندسيه للستائر الرأسيه", "formatted_address": "مصر الجديده، القاهره، مصر فارغ، Egypt", "lat": 30.112315, "lng": 31.3438507, "types": ["home_goods_store", "point_of_interest", "store", "establishment"], "place_id": "ChIJT2uD_nYVWBQRmvvE3fIiJnw"}, {"name": "parrot crafts", "formatted_address": "19 mohamed elshaibani street, Al Matar, El Nozha, Cairo Governorate, Egypt", "lat": 30.112315, "lng": 31.3438507, "types": ["point_of_interest", "establishment"], "place_id": "ChIJpWN11U4VWBQRdMRql2T4eK4"}, {"name": "Khan el-Khalili", "formatted_address": "El-Gamaleya, El Gamaliya, Cairo Governorate, Egypt", "lat": 30.0477386, "lng": 31.2622538, "types": ["tourist_attraction", "point_of_interest", "establishment"], "place_id": "ChIJD1gOLOtAWBQREX0CYeTgYRc"}, {"name": "Bromo Motors", "formatted_address": "160 ميدان الحجاز، Al Matar, El Nozha, Cairo Governorate, Egypt", "lat": 30.1120211, "lng": 31.34491539999999, "types": ["point_of_interest", "establishment"], "place_id": "ChIJQSuK8dwVWBQRTcpR4vGXlyw"}, {"name": "super", "formatted_address": "Al Matar, El Nozha, Cairo Governorate 11736, Egypt", "lat": 30.112315, "lng": 31.3438507, "types": ["secondary_school", "school", "point_of_interest", "establishment"], "place_id": "ChIJhznDAIIVWBQRSHr8c3DBaYU"}, {"name": "شركة ايماج للهندسة و التجارة", "formatted_address": "23-27 محمد مامون، المطار، قسم النزهة،، Cairo Governorate, Egypt", "lat": 30.1117828, "lng": 31.342953, "types": ["point_of_interest", "establishment"], "place_id": "ChIJpdQp1wMVWBQRT0vDDty8U_k"}, {"name": "Arab film school", "formatted_address": "15-Al-Ahram Street, Heliopolis, Cairo Governorate 11757, Egypt", "lat": 30.112315, "lng": 31.3438507, "types": ["point_of_interest", "establishment"], "place_id": "ChIJcYZ1plEVWBQRfQ17CkMcvAQ"}, {"name": "art planet 369", "formatted_address": "Al Matar, El Nozha, Cairo Governorate, Egypt", "lat": 30.112315, "lng": 31.3438507, "types": ["point_of_interest", "establishment"], "place_id": "ChIJgW-2iYQVWBQRAcyJwo7q004"}, {"name": "MO Designs", "formatted_address": "٣ عمارات المروة الجديدة الدور التاسع شقة ٩٠٢ ارض الجولف مصر الجديدة الدور التاسع شقة, Egypt", "lat": 30.112315, "lng": 31.3438507, "types": ["point_of_interest", "establishment"], "place_id": "ChIJBYvMaNQVWBQRrrb61nFSHbU"}, {"name": "go fianance", "formatted_address": "Al Matar, El Nozha, Cairo Governorate, Egypt", "lat": 30.112315, "lng": 31.3438507, "types": ["point_of_interest", "establishment"], "place_id": "ChIJp4eMKKYVWBQRkImXhuDazGc"}, {"name": "كيميت توريدات معدات مطارات ومقاولات", "formatted_address": "16 محمد غنيم، Al Matar, El Nozha, Cairo Governorate, Egypt", "lat": 30.11251459999999, "lng": 31.342972, "types": ["point_of_interest", "establishment"], "place_id": "ChIJVVXlqyQ-WBQRnCPy1bxzWSs"}, {"name": "Media Rack", "formatted_address": "15 Abdel Azim Awadallah St.، Al Matar, Heliopolis, Cairo Governorate, Egypt", "lat": 30.112068, "lng": 31.342883, "types": ["point_of_interest", "establishment"], "place_id": "ChIJFbMI09wVWBQRc68dm8ldfsc"}, {"name": "EGENT Center (Heliopolis Branch)", "formatted_address": "24 el Ahram street, Al Matar, El Nozha, Cairo Governorate, Egypt", "lat": 30.112315, "lng": 31.3438507, "types": ["health", "point_of_interest", "establishment"], "place_id": "ChIJA9dUAxwVWBQRn6gBuXiy7yA"}, {"name": "IDP Education & IELTS Testing - Cairo", "formatted_address": "31 Omar Bekir St off Othman Ibn Afan St, Othman Ibn Affan, Nozha, Cairo Governorate 11361, Egypt", "lat": 30.10399, "lng": 31.348553, "types": ["point_of_interest", "establishment"], "place_id": "ChIJYWJmM-EVWBQRsRn2yOGljFo"}, {"name": "مستشفى الحرية التخصصى", "formatted_address": "11 Latif Mansour St، Almazah, El Nozha, Cairo Governorate, Egypt", "lat": 30.112315, "lng": 31.3438507, "types": ["hospital", "health", "point_of_interest", "establishment"], "place_id": "ChIJq7jFPhw-WBQRx7wGgL_7bO8"}, {"name": "Zazy Collection", "formatted_address": "111 ش فريد سميكة، Al Matar, El Nozha, Cairo Governorate, Egypt", "lat": 30.1122619, "lng": 31.345483, "types": ["point_of_interest", "establishment"], "place_id": "ChIJ3wzJitwVWBQR3wtC0gMctEE"}, {"name": "OKKA Coffee Machine", "formatted_address": "5 ش ابن سينا - ميدان سفير Heliopolis القاهرة، 11757, Egypt", "lat": 30.112315, "lng": 31.3438507, "types": ["home_goods_store", "point_of_interest", "store", "establishment"], "place_id": "ChIJ30hiuoUVWBQRhk5mzfGj5Yc"}, {"name": "Disruptive Management Solutions - DMS", "formatted_address": "Military College, 03 General Abdulaziz Ali St, Al Matar, El Nozha, Cairo Governorate, Egypt", "lat": 30.112315, "lng": 31.3438507, "types": ["point_of_interest", "establishment"], "place_id": "ChIJxbKCrkoVWBQRRg1tITQb_BQ"}, {"name": "ورثة احمد حافظ", "formatted_address": "شارع, Cairo Governorate, Egypt", "lat": 30.112315, "lng": 31.3438507, "types": ["point_of_interest", "establishment"], "place_id": "ChIJZ5YXq9wVWBQR8n_hUliQaSQ"}, {"name": "مدرسة البطل علي فهمي بالصوالح", "formatted_address": "مصر الجديدة، المطار، قسم النزهة،، Cairo Governorate, Egypt", "lat": 30.112315, "lng": 31.3438507, "types": ["school", "point_of_interest", "establishment"], "place_id": "ChIJz-uM8hIVWBQRWR8pB_-1pOE"}, {"name": "كمبوند سكاي كابيتال", "formatted_address": "محافظة القاهرة‬،4 ش صلاح الدين من العروبه - مصر الجديده، Cairo Governorate 11736, Egypt", "lat": 30.112315, "lng": 31.3438507, "types": ["real_estate_agency", "lodging", "point_of_interest", "establishment"], "place_id": "ChIJxeUN-f6NVxQR4gOpLWmma2E"}, {"name": "InterContinental Citystars Cairo, an IHG Hotel", "formatted_address": "Omar Ibn El Khattab، Street، Cairo Governorate 11737, Egypt", "lat": 30.0724583, "lng": 31.3478955, "types": ["lodging", "point_of_interest", "establishment"], "place_id": "ChIJJYCniw4-WBQRDaNySSZ_iuI"}, {"name": "مطبعة الأندلس", "formatted_address": "مصر الجديده الجرفه سابقن،، Egypt", "lat": 30.112315, "lng": 31.3438507, "types": ["point_of_interest", "establishment"], "place_id": "ChIJCX2oMEEVWBQRqJxm0dvnFks"}, {"name": "علي أبوهيف", "formatted_address": "مصر الجديدة الكوربة ش3 البوستة, Heliopolis, Cairo Governorate 11757, Egypt", "lat": 30.112315, "lng": 31.3438507, "types": ["point_of_interest", "establishment"], "place_id": "ChIJ26OLZNcVWBQRr73tM3AyTTM"}, {"name": "egypt trade", "formatted_address": "Al Matar, El Nozha, Cairo Governorate, Egypt", "lat": 30.112315, "lng": 31.3438507, "types": ["point_of_interest", "establishment"], "place_id": "ChIJ3Q0z96wVWBQRy5ya7vDjai4"}, {"name": "د مصطفى الصيرفى", "formatted_address": "13 El-Khalifa El-Mansour, El-Nozha, El Nozha, Cairo Governorate, Egypt", "lat": 30.0992106, "lng": 31.3395764, "types": ["doctor", "health", "point_of_interest", "establishment"], "place_id": "ChIJ0ST41vEVWBQRIzfjwrmuo-8"}, {"name": "Tivoli Dome", "formatted_address": "Omar Ibn El-Khattab, Almazah, Heliopolis, Cairo Governorate, Egypt", "lat": 30.0860882, "lng": 31.3479517, "types": ["food", "point_of_interest", "establishment"], "place_id": "ChIJsSxOPgI-WBQRz6H2FJMg2uE"}, {"name": "Mawared Co.", "formatted_address": "8mahmoud anwar، Al Matar, قسم الheliopolis، Cairo Governorate, Egypt", "lat": 30.112315, "lng": 31.3438507, "types": ["point_of_interest", "establishment"], "place_id": "ChIJdef1uc8VWBQR7hrEBoAXd1Q"}, {"name": "Mosque of Ibn Tulun", "formatted_address": "Tolon, El-Sayeda Zainab, Cairo Governorate, Egypt", "lat": 30.028691, "lng": 31.2493941, "types": ["mosque", "tourist_attraction", "place_of_worship", "point_of_interest", "establishment"], "place_id": "ChIJp0luK01HWBQRUtnkQJOsgkA"}, {"name": "اوتوشوب فرع جسر السويس", "formatted_address": "شنودة، 6 عمارات الشرطة - ناصية عزبة، Cairo Governorate, Egypt", "lat": 30.112315, "lng": 31.3438507, "types": ["car_repair", "point_of_interest", "store", "establishment"], "place_id": "ChIJSfibmtoVWBQRKQFQedKNvE0"}, {"name": "فندق كنكورد السلام", "formatted_address": "المطار، قسم النزهة، محافظة القاهرة‬،، Egypt", "lat": 30.112315, "lng": 31.3438507, "types": ["lodging", "point_of_interest", "establishment"], "place_id": "ChIJZYOYs08VWBQRBPgJTZvjWGo"}, {"name": "Citystars Heliopolis", "formatted_address": "Citystars, Cairo Governorate 11771, Egypt", "lat": 30.0728734, "lng": 31.3458082, "types": ["shopping_mall", "point_of_interest", "establishment"], "place_id": "ChIJo0ecE_gVWBQRGGrouhZFdME"}, {"name": "New khalifa", "formatted_address": "roxy, 2 Dimsuq street, Al Matar, El Nozha, Cairo Governorate, Egypt", "lat": 30.112315, "lng": 31.3438507, "types": ["food", "point_of_interest", "establishment"], "place_id": "ChIJs9rBu-Y_WBQRT34u3gM2KM8"}, {"name": "princess toys", "formatted_address": "Al Matar, El Nozha, Cairo Governorate, Egypt", "lat": 30.112315, "lng": 31.3438507, "types": ["point_of_interest", "store", "establishment"], "place_id": "ChIJqSpPHO8VWBQRezuQybllP-8"}, {"name": "دكتور مصطفى محمود الصيرفى", "formatted_address": "15 El-Khalifa El-Mansour, El-Nozha, El Nozha, Cairo Governorate, Egypt", "lat": 30.0991949, "lng": 31.3395788, "types": ["doctor", "health", "point_of_interest", "establishment"], "place_id": "ChIJlyIK1PEVWBQRYO7kXu84DY8"}, {"name": "Mar Guirguis church", "formatted_address": "Al Matar, El Nozha, Cairo Governorate, Egypt", "lat": 30.112315, "lng": 31.3438507, "types": ["church", "place_of_worship", "point_of_interest", "establishment"], "place_id": "ChIJo7ZMU40VWBQRyM0cS-gcbeM"}, {"name": "الدرس", "formatted_address": "157 El Hegaz St, Al Matar, El Nozha, Cairo Governorate, Egypt", "lat": 30.109935, "lng": 31.343274, "types": ["university", "point_of_interest", "establishment"], "place_id": "ChIJ2QZWhxIVWBQRsN1TmZk3Rn0"}, {"name": "Al-Hussain Mosque", "formatted_address": "Al-Mashhad Al-Hussaini شارع المشهد الحسين، شارع Hasan El-Adawy, امتداد، Egypt", "lat": 30.0476847, "lng": 31.2630585, "types": ["mosque", "tourist_attraction", "place_of_worship", "point_of_interest", "establishment"], "place_id": "ChIJtV4bG2A_WBQRVZjDa4cjz_E"}, {"name": "Mohamed hassan", "formatted_address": "Roxy, Al Matar, El Nozha, Cairo Governorate, Egypt", "lat": 30.112315, "lng": 31.3438507, "types": ["general_contractor", "point_of_interest", "establishment"], "place_id": "ChIJWcrQp1cVWBQRxa48aNK0CZw"}, {"name": "Les Dames", "formatted_address": "12 Ibn Hisham, Al Matar, El Nozha, Cairo Governorate, Egypt", "lat": 30.1141901, "lng": 31.3515318, "types": ["food", "point_of_interest", "store", "establishment"], "place_id": "ChIJMRIm_NgVWBQRFo8JxwAYNGY"}, {"name": "دكتورة صفاء عبد السلام على", "formatted_address": "3 شارع عبد العظيم عوض الله, ميدان الحجاز, Egypt", "lat": 30.1114388, "lng": 31.3432296, "types": ["doctor", "health", "point_of_interest", "establishment"], "place_id": "ChIJx8ze4XAVWBQRVHODbho6DmA"}, {"name": "Radisson Blu Hotel, Cairo Heliopolis", "formatted_address": "Abdel Hamid Badawi St Heliopolis, Cairo Governorate 11787, Egypt", "lat": 30.1065093, "lng": 31.3753121, "types": ["lodging", "point_of_interest", "establishment"], "place_id": "ChIJQZJ8fWUWWBQRAUPO9I6SxPg"}, {"name": "Egyptravel", "formatted_address": "Safer square 12 Hassona, النواوي، Cairo Governorate, Egypt", "lat": 30.112315, "lng": 31.3438507, "types": ["travel_agency", "point_of_interest", "establishment"], "place_id": "ChIJneOVGKdHWBQR2dPurZOd9g8"}, {"name": "Gonline for Trading", "formatted_address": "8 Sayed Afifi, Al Matar, El Nozha, Cairo Governorate, Egypt", "lat": 30.112315, "lng": 31.3438507, "types": ["point_of_interest", "establishment"], "place_id": "ChIJD41-uccVWBQR6NYWzQjgGzY"}, {"name": "Burger King - Tivoli Dome Heliopolis", "formatted_address": "Tivoli Dome, Omar Ibn El Khattab St، Almazah, Heliopolis, Cairo Governorate, Egypt", "lat": 30.0858778, "lng": 31.3478102, "types": ["restaurant", "food", "point_of_interest", "establishment"], "place_id": "ChIJ8asB1I8_WBQR-CVqCM1YprU"}, {"name": "Egipto Tour", "formatted_address": "Triumph square, 9 Mostafa Sadek El Rafae Street, Al Matar, El Nozha, Cairo Governorate 11361, Egypt", "lat": 30.112315, "lng": 31.3438507, "types": ["travel_agency", "point_of_interest", "establishment"], "place_id": "ChIJz1YOGw4VWBQR2H8smMZ423g"}]