[{"name": "Olive Advertising agency", "formatted_address": "Ibn Saeed Al Moughrabi, Almazah, Heliopolis, Cairo Governorate, Egypt", "lat": 30.0861547, "lng": 31.3366275, "types": ["point_of_interest", "establishment"], "place_id": "ChIJ-ZcVE6Q_WBQRBjYrBhflAMw"}, {"name": "Enactus Egypt Office", "formatted_address": "7 Ibn Saeed Al Moughrabi, Almazah, Heliopolis, Cairo Governorate, Egypt", "lat": 30.0866718, "lng": 31.3366881, "types": ["point_of_interest", "establishment"], "place_id": "ChIJ5bZRgx4-WBQRm3f-mCaQJuQ"}, {"name": "Mental flame", "formatted_address": "44 Ibn Saeed Al Moughrabi, Almazah, Heliopolis, Cairo Governorate, Egypt", "lat": 30.0861145, "lng": 31.3367562, "types": ["general_contractor", "point_of_interest", "establishment"], "place_id": "ChIJZ0cZnx4-WBQRSj1Drhi-Bpw"}, {"name": "ادارة المشاه", "formatted_address": "49 ب El-Thawra St, Al Matar, El Nozha, Cairo Governorate, Egypt", "lat": 30.084924, "lng": 31.3368674, "types": ["point_of_interest", "establishment"], "place_id": "ChIJQV0wqh4-WBQRse6xXBOFbZQ"}, {"name": "لول", "formatted_address": "44 إبن سعيد المغربي، الماظة، قسم مصر الجديدة، محافظة القاهرة‬،، Egypt", "lat": 30.0860881, "lng": 31.3364055, "types": ["store", "point_of_interest", "establishment"], "place_id": "ChIJ9xbNAtM_WBQRs7RmtPRmtrc"}, {"name": "Baron Empain Palace", "formatted_address": "El-Orouba, El-Montaza, Heliopolis, Cairo Governorate 11757, Egypt", "lat": 30.0866701, "lng": 31.3303332, "types": ["point_of_interest", "establishment"], "place_id": "ChIJ1_GM8iE-WBQRLNVi-RT7vDA"}, {"name": "Vision Interior Desigon.", "formatted_address": "2 Lotfy Bek Mansour, Almazah, Heliopolis, Cairo Governorate, Egypt", "lat": 30.08658339999999, "lng": 31.3369034, "types": ["point_of_interest", "establishment"], "place_id": "ChIJl1OuXt4_WBQR6Z97L8hqgG8"}, {"name": "صيدلية هاني", "formatted_address": "7 Ibn Saeed Al Moughrabi, Almazah, Heliopolis, Cairo Governorate, Egypt", "lat": 30.0869172, "lng": 31.3364344, "types": ["pharmacy", "health", "point_of_interest", "store", "establishment"], "place_id": "ChIJ30A6hB4-WBQRgAk0Gqiqrwc"}, {"name": "اعمار مصر للتنمية", "formatted_address": "40 El-Thawra St, Almazah, Heliopolis, Cairo Governorate, Egypt", "lat": 30.08623889999999, "lng": 31.3355882, "types": ["point_of_interest", "establishment"], "place_id": "ChIJm5_3vx4-WBQRKubGg1gp0i8"}, {"name": "L2", "formatted_address": "17 ش كليوباترا، Almazah, Heliopolis, Cairo Governorate, Egypt", "lat": 30.0877, "lng": 31.3365, "types": ["point_of_interest", "establishment"], "place_id": "ChIJme2Eex4-WBQR8ytGYxJSM7g"}, {"name": "Sodic 46 El Thawra Street, Heliopolis", "formatted_address": "46 El-Thawra St, Almazah, Heliopolis, Cairo Governorate, Egypt", "lat": 30.086013, "lng": 31.3365718, "types": ["real_estate_agency", "point_of_interest", "establishment"], "place_id": "ChIJa3_JAiU_WBQRoarMzyMWRUc"}, {"name": "كوفى شوب كومبانى", "formatted_address": "45 El-Thawra St, Al Matar, El Nozha, Cairo Governorate, Egypt", "lat": 30.0850501, "lng": 31.3364516, "types": ["point_of_interest", "establishment"], "place_id": "ChIJKS7SrR4-WBQR5Gpep1ZF7rw"}, {"name": "Cairo", "formatted_address": "42 ش البيومى، العتبة، Nasr City, Cairo Governorate, Egypt", "lat": 30.0852184, "lng": 31.3345795, "types": ["point_of_interest", "establishment"], "place_id": "ChIJJxG3LBk-WBQRSnLLk9vuXKY"}, {"name": "Mohamed Abdel Moneim", "formatted_address": "3 ش الشربينى، محرم بك، الاسكندرية، Cairo Governorate, Egypt", "lat": 30.0863343, "lng": 31.3374031, "types": ["point_of_interest", "establishment"], "place_id": "ChIJBZnaJRw-WBQR1cKKBMpgDnw"}, {"name": "Teco", "formatted_address": "5 El-Horeya, Almazah, Heliopolis, Cairo Governorate, Egypt", "lat": 30.0868983, "lng": 31.3365031, "types": ["point_of_interest", "establishment"], "place_id": "ChIJbzFOhB4-WBQRBIygdEDJS-U"}, {"name": "مدرسه المحمديه الاعداديه بنات", "formatted_address": "12 El-Horeya, Helmeyat AZ Zaytoun, Heliopolis, Cairo Governorate, Egypt", "lat": 30.0869198, "lng": 31.3356078, "types": ["point_of_interest", "establishment"], "place_id": "ChIJu9Q-hnUVWBQRsCOrSTvffZM"}, {"name": "Easy Cash Company (Head-Office)", "formatted_address": "46 El-Thawra St, Almazah, Heliopolis, Cairo Governorate, Egypt", "lat": 30.0859665, "lng": 31.336542, "types": ["point_of_interest", "establishment"], "place_id": "ChIJISeN-nM_WBQRoyt5pXseodk"}, {"name": "Spongy", "formatted_address": "95 El Merghany St.، Almazah, Heliopolis, Cairo Governorate, Egypt", "lat": 30.087516, "lng": 31.336521, "types": ["point_of_interest", "establishment"], "place_id": "ChIJs-lNfB4-WBQRsjuruAc_lEA"}, {"name": "جراند بلازا للاستثمار العقارى والسياحى", "formatted_address": "40 El-Thawra St, Almazah, Heliopolis, Cairo Governorate, Egypt", "lat": 30.08623889999999, "lng": 31.3355882, "types": ["point_of_interest", "establishment"], "place_id": "ChIJm5_3vx4-WBQRJa-sXtyk6RQ"}, {"name": "المعاذ لتجارة الأدوات المنزلية", "formatted_address": "١ شارع الحرية، امام مستشفى المطريةالتعليمى، سوق الخمي،، Cairo Governorate, Egypt", "lat": 30.0865421, "lng": 31.3354845, "types": ["point_of_interest", "establishment"], "place_id": "ChIJva3mfpQ_WBQRJ7WS8xd_ymU"}, {"name": "أهف للصناعات الغذائية", "formatted_address": "5 El-Horeya, Helmeyat AZ Zaytoun, Heliopolis, Cairo Governorate, Egypt", "lat": 30.08684719999999, "lng": 31.3360691, "types": ["point_of_interest", "establishment"], "place_id": "ChIJ__8vjh4-WBQRKeksJMC8DxU"}, {"name": "ميزون توماس", "formatted_address": "114 El-Sayed El-Merghany, Al Matar, El Nozha, Cairo Governorate, Egypt", "lat": 30.0875824, "lng": 31.3350996, "types": ["point_of_interest", "establishment"], "place_id": "ChIJOwVb9h4-WBQRtKOsXZnB7IQ"}, {"name": "Egypt's Society for Culture and Development", "formatted_address": "42 شارع الثورة، شارع عبد الله دراز، ارض الجولف، 11341 ،، Cairo Governorate, Egypt", "lat": 30.0855594, "lng": 31.3359639, "types": ["library", "point_of_interest", "establishment"], "place_id": "ChIJX07rlh4-WBQRa5JveZxXs0A"}, {"name": "Life Park Heliopolis", "formatted_address": "46 El-Thawra St, Almazah, Heliopolis, Cairo Governorate, Egypt", "lat": 30.0860857, "lng": 31.3367769, "types": ["real_estate_agency", "point_of_interest", "establishment"], "place_id": "ChIJ6_plTOc_WBQRuNJ_XS_N0aM"}, {"name": "Al-Hussain Mosque", "formatted_address": "Al-Mashhad Al-Hussaini شارع المشهد الحسين، شارع Hasan El-Adawy, امتداد، Egypt", "lat": 30.0476847, "lng": 31.2630585, "types": ["mosque", "tourist_attraction", "place_of_worship", "point_of_interest", "establishment"], "place_id": "ChIJtV4bG2A_WBQRVZjDa4cjz_E"}, {"name": "Spicy", "formatted_address": "97 ش الميرغنى، Almazah, Heliopolis, Cairo Governorate, Egypt", "lat": 30.087807, "lng": 31.337073, "types": ["point_of_interest", "establishment"], "place_id": "ChIJXceDxxg-WBQR9DB4G8BW3tM"}, {"name": "Benaa For Real Estate Development & Investment", "formatted_address": "49 B El-Thawra St, Al Golf, Heliopolis, Cairo Governorate, Egypt", "lat": 30.084924, "lng": 31.3368674, "types": ["point_of_interest", "establishment"], "place_id": "ChIJQV0wqh4-WBQRqQrEBqVnNWs"}, {"name": "شركة ابو عريضة للمقاولات", "formatted_address": "48 El-Thawra St, Almazah, Heliopolis, Cairo Governorate, Egypt", "lat": 30.085576, "lng": 31.336889, "types": ["point_of_interest", "establishment"], "place_id": "ChIJK_dgVDo_WBQR9GTnyvRiXs4"}, {"name": "McDonald's Merghany", "formatted_address": "110, Merghani, 110 Al Merghani, St, Heliopolis, Cairo Governorate, Egypt", "lat": 30.08742, "lng": 31.334673, "types": ["restaurant", "food", "point_of_interest", "establishment"], "place_id": "ChIJlZQvbyc-WBQR-Rxu40GPFq8"}, {"name": "SODIC Heliopolis", "formatted_address": "6 Lotfy Bek Mansour, Almazah, Heliopolis, Cairo Governorate, Egypt", "lat": 30.0862121, "lng": 31.3368606, "types": ["general_contractor", "point_of_interest", "establishment"], "place_id": "ChIJzdBznB4-WBQRaJCor7hrquA"}, {"name": "Smart Solutions الشركة المصرية لخدمات المستقبل", "formatted_address": "7 شارع الحرية ميدان الميرغني بمصر الجديدة، Egypt", "lat": 30.0869231, "lng": 31.3364488, "types": ["point_of_interest", "establishment"], "place_id": "ChIJY86OSss_WBQREwn2Ca-Xutk"}, {"name": "Sabcom Egypt Office", "formatted_address": "82، El-Thawra St, Heliopolis, Cairo Governorate, Egypt", "lat": 30.086845, "lng": 31.3344553, "types": ["point_of_interest", "establishment"], "place_id": "ChIJQw1G4R4-WBQRmvxyPq5d548"}, {"name": "Open Chance & Associates", "formatted_address": "46 El-Thawra St, Almazah, Heliopolis, Cairo Governorate 11463, Egypt", "lat": 30.0860007, "lng": 31.33664079999999, "types": ["point_of_interest", "establishment"], "place_id": "ChIJF2ypmB4-WBQRsfI8g_hA1O8"}, {"name": "Ajwa For Food Industries", "formatted_address": "95 Al Merghani, Almazah, Heliopolis, Cairo Governorate, Egypt", "lat": 30.087516, "lng": 31.336521, "types": ["food", "point_of_interest", "establishment"], "place_id": "ChIJs-lNfB4-WBQR1Q2ykacMPs8"}, {"name": "Muse shoes", "formatted_address": "95 B elmarghany st, elhorrya st, masr elgdeda، Almazah, Heliopolis, Egypt", "lat": 30.0874141, "lng": 31.3365959, "types": ["shoe_store", "point_of_interest", "clothing_store", "store", "establishment"], "place_id": "ChIJr2mm1x0-WBQRlcROMV9iPkc"}, {"name": "Prince Mohamed Ali Palace (Al Manial Palace)", "formatted_address": "1 السرايا, Old Cairo, Cairo Governorate, Egypt", "lat": 30.0289507, "lng": 31.230013, "types": ["tourist_attraction", "museum", "point_of_interest", "establishment"], "place_id": "ChIJmzFzaTJHWBQRnYC7wOdZtis"}, {"name": "مكتب عماد خزام", "formatted_address": "7 El-Horeya, Almazah, Heliopolis, Cairo Governorate, Egypt", "lat": 30.0868491, "lng": 31.3363839, "types": ["point_of_interest", "establishment"], "place_id": "ChIJ_42dsKA_WBQRsd2zDOojes0"}, {"name": "Dental Sense Clinic", "formatted_address": "95 B Merghany Street, Shams Tower, Cairo Governorate 11757, Egypt", "lat": 30.0872756, "lng": 31.3363936, "types": ["dentist", "health", "point_of_interest", "establishment"], "place_id": "ChIJ46hW-_A_WBQRNnSYYK0D-ak"}, {"name": "Orkila Egypt Chemicals", "formatted_address": "3 Al Badeya, Almazah, Heliopolis, Cairo Governorate, Egypt", "lat": 30.0877415, "lng": 31.3345319, "types": ["point_of_interest", "establishment"], "place_id": "ChIJR2Kw_h4-WBQRavWDPU9ip1k"}, {"name": "الحياة ماركت 9", "formatted_address": "7شارع الحريه متفرع من شارع، Al Merghani, Egypt", "lat": 30.0869231, "lng": 31.3364488, "types": ["supermarket", "grocery_or_supermarket", "food", "point_of_interest", "store", "establishment"], "place_id": "ChIJWWiSZ8Q_WBQRkiM8gh8e4hg"}, {"name": "Laurier Holding", "formatted_address": "46 El-Thawra St, Almazah, Heliopolis, Cairo Governorate, Egypt", "lat": 30.0859665, "lng": 31.336542, "types": ["point_of_interest", "establishment"], "place_id": "ChIJCbmwxWI_WBQRayJSdsBfjts"}, {"name": "Cabrinha Egypt", "formatted_address": "95B الميرغني, st، Heliopolis, Cairo Governorate 11341, Egypt", "lat": 30.0872258, "lng": 31.33648659999999, "types": ["point_of_interest", "store", "establishment"], "place_id": "ChIJ2a0RQC8_WBQRS88_07-vHg0"}, {"name": "Inside Out Clinic", "formatted_address": "110 Al Merghani, Al Matar, El Nozha, Cairo Governorate, Egypt", "lat": 30.087386, "lng": 31.33469199999999, "types": ["point_of_interest", "establishment"], "place_id": "ChIJje9M-h4-WBQRTayXvfpbppk"}, {"name": "Dr. Ahmed ElMasry - Consultant of bariatric surgery ( Heliopolis )", "formatted_address": "40 شارع الثورة, \"عمارة اعمار\", امام سينترال الماظة الدور 7، Heliopolis, Cairo Governorate, Egypt", "lat": 30.0864906, "lng": 31.3356533, "types": ["doctor", "health", "point_of_interest", "establishment"], "place_id": "ChIJq-KNlWE_WBQR2mxhzeIgD4s"}, {"name": "الشركة الهندسية للانشاءات", "formatted_address": "7 El-Horeya, Almazah, Heliopolis, Cairo Governorate, Egypt", "lat": 30.0869231, "lng": 31.3364488, "types": ["point_of_interest", "establishment"], "place_id": "ChIJB2KxhR4-WBQRQvLVMHSaWQI"}, {"name": "Time Machine-Egypt", "formatted_address": "7 El Horrya St, Heliopolis, Cairo Governorate 11757, Egypt", "lat": 30.0868956, "lng": 31.3364429, "types": ["point_of_interest", "store", "establishment"], "place_id": "ChIJT1wJaiE_WBQR8fQvw0i08EI"}, {"name": "Arma Group", "formatted_address": "52 El-Thawra St, Almazah, Heliopolis, Cairo Governorate, Egypt", "lat": 30.0856241, "lng": 31.3374431, "types": ["point_of_interest", "establishment"], "place_id": "ChIJ7zU7GRw-WBQRqua95az8MR4"}, {"name": "اكاديمية قمر", "formatted_address": "5 El-Horeya, Almazah, Heliopolis, Cairo Governorate, Egypt", "lat": 30.08684719999999, "lng": 31.3360691, "types": ["point_of_interest", "establishment"], "place_id": "ChIJoTNPL9E_WBQRXo6ylTr0KDo"}, {"name": "سلم مشاة سنترال الماظة", "formatted_address": "Telecom Egypt Central (Almaza, Al Golf, Heliopolis, Cairo Governorate, Egypt", "lat": 30.0863236, "lng": 31.3350248, "types": ["point_of_interest", "establishment"], "place_id": "ChIJ0-VoBj4_WBQRwUiUXCJk6dk"}, {"name": "عسل وطحينه", "formatted_address": "Al Merghani Bridge, الماظة، قسم مصر الجديدة، محافظة القاهرة‬،، Egypt", "lat": 30.08714669999999, "lng": 31.3344958, "types": ["restaurant", "food", "point_of_interest", "establishment"], "place_id": "ChIJRet3wGk_WBQRMY2xNVp8gY0"}, {"name": "Mental flame architecture and interiors", "formatted_address": "46 El-Thawra St, Almazah, Heliopolis, Cairo Governorate, Egypt", "lat": 30.086013, "lng": 31.3365718, "types": ["point_of_interest", "establishment"], "place_id": "ChIJXYExu6w_WBQRr9ps1jmsjYg"}, {"name": "GulfCryo Industrial Gases Egypt", "formatted_address": "46 El-Thawra St, Almazah, Heliopolis, Cairo Governorate, Egypt", "lat": 30.086013, "lng": 31.3365718, "types": ["point_of_interest", "establishment"], "place_id": "ChIJFyYb3X8_WBQREWWVoFXveFg"}, {"name": "مالك جروب", "formatted_address": "46 El-Thawra St, Almazah, Heliopolis, Cairo Governorate, Egypt", "lat": 30.0860903, "lng": 31.336784, "types": ["point_of_interest", "establishment"], "place_id": "ChIJb_gl-5Y_WBQRG04U-ancmPM"}, {"name": "Gramaphone Cafè", "formatted_address": "٤٩ ب، شارع الثوره، ارض الجولف،، Cairo Governorate, Egypt", "lat": 30.084981, "lng": 31.3369506, "types": ["cafe", "food", "point_of_interest", "establishment"], "place_id": "ChIJd6rxqR4-WBQRd2Vka9vuM74"}, {"name": "Tawakol Metal Industries", "formatted_address": "Telecom Egypt Central, Almazah, Heliopolis, Cairo Governorate, Egypt", "lat": 30.0866549, "lng": 31.33522, "types": ["point_of_interest", "establishment"], "place_id": "ChIJpeTlKnQ_WBQRh6A-M6bic8o"}, {"name": "Golden Carven Hotel", "formatted_address": "11 Mohammed Ebeid, Almazah, Heliopolis, Cairo Governorate, Egypt", "lat": 30.0881826, "lng": 31.3390012, "types": ["lodging", "point_of_interest", "establishment"], "place_id": "ChIJR7L38R0-WBQRDEHe3x6nb1A"}, {"name": "احمد ابراهيم 3ش الحريه", "formatted_address": "3ش الحريه-المطريه، Cairo Governorate, Egypt", "lat": 30.0867793, "lng": 31.3357116, "types": ["point_of_interest", "establishment"], "place_id": "ChIJDfNaRTg_WBQR9bsjOsJkCN0"}, {"name": "Emaar", "formatted_address": "Almazah, Heliopolis, Cairo Governorate, Egypt", "lat": 30.0862726, "lng": 31.3360783, "types": ["general_contractor", "point_of_interest", "establishment"], "place_id": "ChIJI8lPlh4-WBQRS37fUtmHnLQ"}, {"name": "Operational Unit for Development Assistance", "formatted_address": "46 El-Thawra St, Almazah, Heliopolis, Cairo Governorate, Egypt", "lat": 30.086013, "lng": 31.3365718, "types": ["insurance_agency", "point_of_interest", "establishment"], "place_id": "ChIJ89QeBt5AWBQRKBchDQZhBYE"}, {"name": "Osool ESB", "formatted_address": "51 ش بيروت، Almazah, Heliopolis, Cairo Governorate, Egypt", "lat": 30.0907868, "lng": 31.331601, "types": ["point_of_interest", "establishment"], "place_id": "ChIJGx_A-B8-WBQRc2DtbqDm7K0"}]