[{"name": "مسجد الرحمة", "formatted_address": "شارع Ibn Abd Al Zaher, Mansheya El-Bakry, Heliopolis, Cairo Governorate, Egypt", "lat": 30.0910612, "lng": 31.3074118, "types": ["mosque", "place_of_worship", "point_of_interest", "establishment"], "place_id": "ChIJUYW-ONM_WBQRSUxszmlhRdI"}, {"name": "Panorama October", "formatted_address": "Salah Salem St, Al Estad, Nasr City, Cairo Governorate, Egypt", "lat": 30.0742728, "lng": 31.3068068, "types": ["tourist_attraction", "museum", "point_of_interest", "establishment"], "place_id": "ChIJmxmkHLU_WBQRzBYJ5_3_jo8"}, {"name": "كشك كوكاكولا", "formatted_address": "Ibn Abd Al Zaher, Mansheya El-Bakry, Heliopolis, Cairo Governorate, Egypt", "lat": 30.0918546, "lng": 31.306919, "types": ["point_of_interest", "establishment"], "place_id": "ChIJB_faQrk_WBQRN_nn2sv66Ak"}, {"name": "Indomedix Egypt", "formatted_address": "4 ش ابن عبد الظاهر، Mansheya El-Bakry, Heliopolis, Cairo Governorate, Egypt", "lat": 30.0917704, "lng": 31.307275, "types": ["health", "point_of_interest", "establishment"], "place_id": "ChIJr600QtM_WBQRPsKJL5HB2SY"}, {"name": "Amr Shaheen For Accounting & Auditing", "formatted_address": "4 Ibn Abd Al Zaher, Mansheya El-Bakry, Heliopolis, Cairo Governorate, Egypt", "lat": 30.0917, "lng": 31.30719999999999, "types": ["point_of_interest", "establishment"], "place_id": "ChIJr600QtM_WBQRP2xrGYQr9MM"}, {"name": "Mahmoud Abdel Zaher Workshop", "formatted_address": "القاهرة, سراى القبة، Egypt", "lat": 30.094599, "lng": 31.303447, "types": ["point_of_interest", "establishment"], "place_id": "ChIJ8yZ4F9Q_WBQRNiPAl1r3fnY"}, {"name": "El Tahra Palace - قصر الطاهرة", "formatted_address": "El-Zaytoun Sharkeya, Zeitoun, Cairo Governorate, Egypt", "lat": 30.0982062, "lng": 31.3085112, "types": ["museum", "point_of_interest", "establishment"], "place_id": "ChIJM_O-HYAVWBQRMuzVJ73MpHY"}, {"name": "Baron Empain Palace", "formatted_address": "El-Orouba, El-Montaza, Heliopolis, Cairo Governorate 11757, Egypt", "lat": 30.0866701, "lng": 31.3303332, "types": ["point_of_interest", "establishment"], "place_id": "ChIJ1_GM8iE-WBQRLNVi-RT7vDA"}, {"name": "Kodak Heliopolis", "formatted_address": "57 Al Maqrizi, Mansheya El-Bakry, Heliopolis, Cairo Governorate, Egypt", "lat": 30.0909717, "lng": 31.3078025, "types": ["point_of_interest", "establishment"], "place_id": "ChIJPYPDN9M_WBQRjyTNXa7JIag"}, {"name": "Abd El Fatah", "formatted_address": "Mansheyat Al Bakri, Heliopolis, Cairo Governorate, Egypt", "lat": 30.0914815, "lng": 31.3076027, "types": ["point_of_interest", "establishment"], "place_id": "ChIJ6fu_RdM_WBQRo5NJias2DQY"}, {"name": "Our Lady of Heliopolis Co-Cathedral", "formatted_address": "Nazih Khalifa crossroad، Al Ahram, Heliopolis, Cairo Governorate, Egypt", "lat": 30.0935707, "lng": 31.3251828, "types": ["church", "place_of_worship", "point_of_interest", "establishment"], "place_id": "ChIJJdgh-okVWBQR5TqTmKuQ0IM"}, {"name": "Ittihadia Palace", "formatted_address": "Al Nadi، El-Montaza, Heliopolis, Cairo Governorate, Egypt", "lat": 30.0888643, "lng": 31.3193929, "types": ["tourist_attraction", "premise", "point_of_interest", "establishment"], "place_id": "ChIJuftqUS8-WBQRtM7fDk0QcPk"}, {"name": "Salah Al-Din Al-Ayoubi Castle, Salah Salem Street, Cairo", "formatted_address": "Salah Salem St, Al Abageyah, El-Khalifa, Cairo Governorate, Egypt", "lat": 30.0290436, "lng": 31.2594688, "types": ["point_of_interest", "establishment"], "place_id": "ChIJY-3CkKxAWBQRby736eSW2y8"}, {"name": "كبابجى تساهيل", "formatted_address": "٤ Abd El-Zaher, Mansheya El-Bakry, Heliopolis, Cairo Governorate, Egypt", "lat": 30.0917432, "lng": 31.3072143, "types": ["restaurant", "food", "point_of_interest", "establishment"], "place_id": "ChIJRywWQ9M_WBQRTPSqeodCSmk"}, {"name": "Karam office", "formatted_address": "4 Ibn Abd Al Zaher, Mansheya El-Bakry, Heliopolis, Cairo Governorate, Egypt", "lat": 30.0917062, "lng": 31.3073913, "types": ["point_of_interest", "establishment"], "place_id": "ChIJTf7VLcI_WBQRt1fdPyWl4lE"}, {"name": "Khan el-Khalili", "formatted_address": "El-Gamaleya, El Gamaliya, Cairo Governorate, Egypt", "lat": 30.0477386, "lng": 31.2622538, "types": ["tourist_attraction", "point_of_interest", "establishment"], "place_id": "ChIJD1gOLOtAWBQREX0CYeTgYRc"}, {"name": "El ADL", "formatted_address": "13 Gesr Al Suez, Mansheya El-Bakry, Heliopolis, Cairo Governorate, Egypt", "lat": 30.092151, "lng": 31.306861, "types": ["point_of_interest", "establishment"], "place_id": "ChIJfdLreZEWWBQRZw4uOTTobU4"}, {"name": "Pinky", "formatted_address": "12 el Maqrizy st.، Mansheya El-Bakry, Heliopolis, Cairo Governorate, Egypt", "lat": 30.0909039, "lng": 31.30750219999999, "types": ["point_of_interest", "establishment"], "place_id": "ChIJRUkGOdM_WBQRB9C0dDYUNUo"}, {"name": "Love Me", "formatted_address": "53 el Maqrizy st.، Mansheya El-Bakry, Heliopolis, Cairo Governorate, Egypt", "lat": 30.090696, "lng": 31.307929, "types": ["point_of_interest", "establishment"], "place_id": "ChIJb_b4VNI_WBQRlN4haQVoT9w"}, {"name": "Gayer-Anderson Museum", "formatted_address": "أحمد بن طولون طولون، As Sayedah، El-Sayeda Zainab, Egypt", "lat": 30.02833, "lng": 31.250744, "types": ["tourist_attraction", "museum", "point_of_interest", "establishment"], "place_id": "ChIJp0luK01HWBQRf55ldlCn9LE"}, {"name": "Nermin Salama For Law & Translation", "formatted_address": "53 المقريزي، Mansheya El-Bakry, Heliopolis, Cairo Governorate, Egypt", "lat": 30.090696, "lng": 31.307929, "types": ["point_of_interest", "establishment"], "place_id": "ChIJb_b4VNI_WBQRCuZ2rXPLkhk"}, {"name": "XO", "formatted_address": "٩ شارع الباجورى،، Mansheya El-Bakry, Heliopolis, Cairo Governorate, Egypt", "lat": 30.0916834, "lng": 31.3073176, "types": ["cafe", "food", "point_of_interest", "establishment"], "place_id": "ChIJzW5jQ9M_WBQRWWAzpNeFLCQ"}, {"name": "Universal For Printing & Gifts Bags", "formatted_address": "5 ش البصيرى، جسر السويس، Heliopolis, Cairo Governorate, Egypt", "lat": 30.092103, "lng": 31.307378, "types": ["point_of_interest", "establishment"], "place_id": "ChIJ0Uf9W9M_WBQRHGDntwi8IJE"}, {"name": "Osama Abdel Zaher", "formatted_address": "39 ش سليم الاول، حدائق الزيتون، Zeitoun, Cairo Governorate, Egypt", "lat": 30.1077533, "lng": 31.3135966, "types": ["point_of_interest", "establishment"], "place_id": "ChIJ4dlAlX8VWBQR3L_GKFIaUiA"}, {"name": "Ikhlas Technology", "formatted_address": "14 El Makrizy St.، Mansheya El-Bakry, Heliopolis, Cairo Governorate, Egypt", "lat": 30.0907, "lng": 31.307, "types": ["point_of_interest", "establishment"], "place_id": "ChIJb_b4VNI_WBQRDMpsYiMt1vI"}, {"name": "Emad George Bassili", "formatted_address": "4 ش ابن عبد الظاهر، Mansheya El-Bakry, Heliopolis, Cairo Governorate, Egypt", "lat": 30.0917, "lng": 31.30719999999999, "types": ["dentist", "health", "point_of_interest", "establishment"], "place_id": "ChIJr600QtM_WBQRSniihevsCMc"}, {"name": "عطارة فلفل شطة", "formatted_address": "٤ شارع، Ibn Abd Al Zaher, Mansheya El-Bakry, Heliopolis, Cairo Governorate, Egypt", "lat": 30.0919158, "lng": 31.3072029, "types": ["food", "point_of_interest", "store", "establishment"], "place_id": "ChIJ_XToXNM_WBQRsZRevqgi7oY"}, {"name": "Pediatrician clinic Dr Dina Ibrahim Sallam", "formatted_address": "ابن عبد الظاهر - الدور الأول - أمام مستشفي منشية البكري - مدخل الطوارئ 71 EG, Egypt", "lat": 30.091733, "lng": 31.3073397, "types": ["doctor", "health", "point_of_interest", "establishment"], "place_id": "ChIJ6-S8l6Q_WBQR4s7yw1_aIz4"}, {"name": "مركز جيمى لتكييف السيارات", "formatted_address": "شارع عبدالظاهر - قسم الزيتون - حي، Saraya Al Koba, Egypt", "lat": 30.0924049, "lng": 31.3074473, "types": ["point_of_interest", "store", "establishment"], "place_id": "ChIJJ3-eWNM_WBQRutUoMoksH1Y"}, {"name": "Tiba For Suspended Ceilings & Contracting", "formatted_address": "14 من ش الفيروز، جسر السويس، القاهرة، Cairo Governorate, Egypt", "lat": 30.092037, "lng": 31.306222, "types": ["point_of_interest", "establishment"], "place_id": "ChIJo2IacNM_WBQR2Fn_GRxBpog"}, {"name": "برازر", "formatted_address": "Mansheyat Al Bakri, Heliopolis, Cairo Governorate, Egypt", "lat": 30.0915025, "lng": 31.3076617, "types": ["book_store", "point_of_interest", "store", "establishment"], "place_id": "ChIJq3CPRdM_WBQRHxbYkr7MZLU"}, {"name": "مينى ماركت مصباح", "formatted_address": "Ibn Abd Al Zaher, Mansheya El-Bakry, Heliopolis, Cairo Governorate, Egypt", "lat": 30.09178289999999, "lng": 31.3071835, "types": ["supermarket", "grocery_or_supermarket", "food", "point_of_interest", "store", "establishment"], "place_id": "ChIJi_m-zSw_WBQR8FOpdrVsons"}, {"name": "Soundous", "formatted_address": "Mansheyat Al Bakri, Heliopolis, Cairo Governorate, Egypt", "lat": 30.0908588, "lng": 31.3071021, "types": ["point_of_interest", "establishment"], "place_id": "ChIJZS3aPdM_WBQRZBIMzxE4vSw"}, {"name": "El Deeb", "formatted_address": "AZ Zaytoun Ash Sharqeyah, AZ Zaytoun, Cairo Governorate, Egypt", "lat": 30.0920846, "lng": 31.3062266, "types": ["point_of_interest", "establishment"], "place_id": "ChIJWaF6ZdM_WBQRpoG0r2rycwk"}, {"name": "El Horreya El Farida Agency", "formatted_address": "6 Ismail Mazhar St، Mansheya El-Bakry, Heliopolis, Cairo Governorate, Egypt", "lat": 30.0919091, "lng": 31.3077722, "types": ["point_of_interest", "establishment"], "place_id": "ChIJzfeUUNM_WBQRowlW4CHjv_E"}, {"name": "صيدلية د. محمد البدرى", "formatted_address": "٢٠ متر بجوا ر مستشفى البكرى، ١٦ أ شارع، طومان باي،، Mansheya El-Bakry, Heliopolis, Cairo Governorate, Egypt", "lat": 30.0912109, "lng": 31.3073649, "types": ["pharmacy", "health", "point_of_interest", "store", "establishment"], "place_id": "ChIJzYgoQdM_WBQRoAY-1YdGs8c"}, {"name": "Bab al-Futuh", "formatted_address": "Bab Al Foutoh, El-Gamaleya, El Gamaliya, Cairo Governorate, Egypt", "lat": 30.0553568, "lng": 31.2634081, "types": ["tourist_attraction", "point_of_interest", "establishment"], "place_id": "ChIJI4VwkGI_WBQROZgXVyTN_IE"}, {"name": "El Sakakini Pasha Palace", "formatted_address": "6 Al Sakakini Sq., As Sakakeni, Daher, Cairo Governorate, Egypt", "lat": 30.0658966, "lng": 31.2661856, "types": ["tourist_attraction", "point_of_interest", "establishment"], "place_id": "ChIJUSVrcn8_WBQR1gkE2lv0CXQ"}, {"name": "Dr. Meram Nabil Fouad", "formatted_address": "1 ش الحسينى، محرم بك، الاسكندرية، Cairo Governorate, Egypt", "lat": 30.0926369, "lng": 31.3062752, "types": ["point_of_interest", "establishment"], "place_id": "ChIJ3V_KYtM_WBQRFYulgGFmn1Y"}, {"name": "Al-Hussain Mosque", "formatted_address": "Al-Mashhad Al-Hussaini شارع المشهد الحسين، شارع Hasan El-Adawy, امتداد، Egypt", "lat": 30.0476847, "lng": 31.2630585, "types": ["mosque", "tourist_attraction", "place_of_worship", "point_of_interest", "establishment"], "place_id": "ChIJtV4bG2A_WBQRVZjDa4cjz_E"}, {"name": "مسجد التوحيد", "formatted_address": "الصفدي، منشية البكري، قسم مصر الجديدة،، Cairo Governorate, Egypt", "lat": 30.0908596, "lng": 31.3067084, "types": ["lodging", "point_of_interest", "establishment"], "place_id": "ChIJm8pJq28_WBQRapCGQ-pBCn4"}, {"name": "دارى لاعمال الاند سكيب", "formatted_address": "16 Al Sayed Al Maqreezi, Mansheya El-Bakry, Heliopolis, Cairo Governorate 11757, Egypt", "lat": 30.0905857, "lng": 31.3072642, "types": ["point_of_interest", "establishment"], "place_id": "ChIJ_VjwxQY_WBQRh8DaNKObHUk"}, {"name": "El Ostaz", "formatted_address": "El-Zaytoun Sharkeya, Zeitoun, Cairo Governorate, Egypt", "lat": 30.092708, "lng": 31.30578, "types": ["point_of_interest", "establishment"], "place_id": "ChIJNZdZftM_WBQRG2lFcRx7sYU"}, {"name": "Charisma For Import & Export", "formatted_address": "3 Al Safdi, Mansheya El-Bakry, Heliopolis, Cairo Governorate, Egypt", "lat": 30.091162, "lng": 31.3065288, "types": ["point_of_interest", "establishment"], "place_id": "ChIJG5CiE9M_WBQRYThtt8ZXSGE"}, {"name": "MGA events", "formatted_address": "47 Al Maqrizi, Mansheya El-Bakry, Heliopolis, Cairo Governorate, Egypt", "lat": 30.0909717, "lng": 31.3078025, "types": ["point_of_interest", "establishment"], "place_id": "ChIJ53-Cpm8_WBQR4p7MZXe0vkE"}, {"name": "Empix Egypt Co.", "formatted_address": "4 Ismail Mazhar, Mansheya El-Bakry, Heliopolis, Cairo Governorate, Egypt", "lat": 30.092362, "lng": 31.3073622, "types": ["point_of_interest", "establishment"], "place_id": "ChIJzfeUUNM_WBQRmM3BTQNIMTM"}, {"name": "fortech", "formatted_address": "18 السيد المقريزي،، منشية البكري،، Heliopolis, Cairo Governorate, Egypt", "lat": 30.0905209, "lng": 31.3073023, "types": ["point_of_interest", "establishment"], "place_id": "ChIJ4Wun940_WBQRpI_bZi7cAcE"}, {"name": "El Ghanam", "formatted_address": "7 المقريزي، Mansheya El-Bakry, Heliopolis, Cairo Governorate, Egypt", "lat": 30.0907531, "lng": 31.3066857, "types": ["book_store", "point_of_interest", "store", "establishment"], "place_id": "ChIJ_ck4F9M_WBQRTJse2gzx9_U"}, {"name": "اندرو ميديكال للمستلزمات الطبية", "formatted_address": "Ibn Abd Al Zaher, Mansheya El-Bakry, Heliopolis, Cairo Governorate, Egypt", "lat": 30.0918148, "lng": 31.3071741, "types": ["health", "point_of_interest", "store", "establishment"], "place_id": "ChIJfTNi768_WBQRssrPJtI0mwA"}, {"name": "Zeinab Khatoon", "formatted_address": "Mohammed Abdou, El-Darb El-Ahmar, Cairo Governorate, Egypt", "lat": 30.04475339999999, "lng": 31.2631996, "types": ["tourist_attraction", "point_of_interest", "establishment"], "place_id": "ChIJiTe3hF8_WBQRlptJEyndEeo"}, {"name": "Sabil-Kuttab of Abdel Rahman Katkhuda", "formatted_address": "2 Al Moez Ldin Allah Al Fatmi, El-Gamaleya, El Gamaliya, Cairo Governorate, Egypt", "lat": 30.0507354, "lng": 31.261588, "types": ["tourist_attraction", "point_of_interest", "establishment"], "place_id": "ChIJsZssOp5AWBQRlxJNoxo5IJI"}, {"name": "Social Insurance Bureau - Mansheyet El Bakry", "formatted_address": "12 El-Maqrezy - ١٢ شارع المقريزي، منشية البكري، مصر الجديدة, Mansheya El-Bakry, Cairo Governorate, Egypt", "lat": 30.0904657, "lng": 31.3056201, "types": ["local_government_office", "point_of_interest", "establishment"], "place_id": "ChIJ_____yY-WBQRWFQ1z-yKySk"}, {"name": "Dena", "formatted_address": "القاهرة, AZ Zaytoun Ash Sharqeyah، AZ Zaytoun، Cairo Governorate, Egypt", "lat": 30.0922892, "lng": 31.3065867, "types": ["pharmacy", "health", "point_of_interest", "store", "establishment"], "place_id": "ChIJ0SADZNM_WBQRp-hDzVzwTs8"}, {"name": "Garage El Bakry", "formatted_address": "39 المقريزي، Mansheya El-Bakry, Heliopolis, Cairo Governorate, Egypt", "lat": 30.0910476, "lng": 31.306934, "types": ["parking", "point_of_interest", "establishment"], "place_id": "ChIJDz36PdM_WBQRL8aTCdUpP0U"}, {"name": "Sultan Al-Ashraf Qaytbay Mosque and Mausoleum", "formatted_address": "El-Gamaleya, El Gamaliya, Cairo Governorate, Egypt", "lat": 30.0438889, "lng": 31.275, "types": ["mosque", "tourist_attraction", "place_of_worship", "point_of_interest", "establishment"], "place_id": "ChIJi-5yHWg_WBQRC0czPCgA_vw"}, {"name": "Beshtak Palace", "formatted_address": "Al Moez Ldin Allah Al Fatmi, El-Gamaleya, El Gamaliya, Cairo Governorate, Egypt", "lat": 30.0504666, "lng": 31.2618795, "types": ["museum", "tourist_attraction", "point_of_interest", "establishment"], "place_id": "ChIJy2QpOJ5AWBQRqaiFWsOvXxM"}, {"name": "Bab El Nasr", "formatted_address": "Bab El-Nasr, El-Gamaleya, El Gamaliya, Cairo Governorate, Egypt", "lat": 30.0541629, "lng": 31.2650414, "types": ["tourist_attraction", "point_of_interest", "establishment"], "place_id": "ChIJ2yl_V2I_WBQResgQVK-3o1s"}, {"name": "جلورى سوفت للبرمجيات", "formatted_address": "61 أ المقريزي، Mansheya El-Bakry, Heliopolis, Cairo Governorate, Egypt", "lat": 30.0909717, "lng": 31.3078025, "types": ["point_of_interest", "establishment"], "place_id": "ChIJax_I20U_WBQRzWY_bzDOIuc"}, {"name": "شركه كوم كنترول", "formatted_address": "منشية البكري، مصر الجديدة،، Cairo Governorate, Egypt", "lat": 30.090145, "lng": 31.306534, "types": ["point_of_interest", "establishment"], "place_id": "ChIJ5eUQWcs_WBQRFPlIQBkjaDI"}, {"name": "شركة Yk إستيراد وتجارة وتوزيع اكسسوار الموبيل والكمبيوتر", "formatted_address": "35 المقريزي، Mansheya El-Bakry, Heliopolis, Cairo Governorate, Egypt", "lat": 30.0909717, "lng": 31.3078025, "types": ["point_of_interest", "establishment"], "place_id": "ChIJB9oPVVY_WBQRqCayvEH2ouI"}]