[{"name": "Ebn Sinder Park", "formatted_address": "El-Zaytoun Sharkeya, Zeitoun, Cairo Governorate, Egypt", "lat": 30.0897132, "lng": 31.3025282, "types": ["park", "amusement_park", "point_of_interest", "establishment"], "place_id": "ChIJzVoPitE_WBQRBSig1vSYJbA"}, {"name": "صيدليات النواوي", "formatted_address": "5 Ibn Sender Sq., El-Zaytoun Sharkeya, Zeitoun, Cairo Governorate, Egypt", "lat": 30.0905281, "lng": 31.3027136, "types": ["pharmacy", "health", "point_of_interest", "store", "establishment"], "place_id": "ChIJj8l-zKk_WBQRVsGTbWNUyeU"}, {"name": "Jouman Optics", "formatted_address": "16 Ibn Sender Sq., El-Qobba Bridge, Heliopolis, Cairo Governorate, Egypt", "lat": 30.0896112, "lng": 31.30347729999999, "types": ["point_of_interest", "establishment"], "place_id": "ChIJb8H0PNI_WBQRoKXhzSHaUIA"}, {"name": "المستشار أحمد أبو زيد و شركاه", "formatted_address": "شارع Ibn Sender Sq., حمامات القبة، Heliopolis, Cairo Governorate, Egypt", "lat": 30.0902892, "lng": 31.3039397, "types": ["health", "point_of_interest", "establishment"], "place_id": "ChIJYd9XNtI_WBQRc_I_rGbs-CA"}, {"name": "We Care Clinic", "formatted_address": "2 Ibn Sender Sq., El-Zaytoun Sharkeya, Zeitoun, Cairo Governorate, Egypt", "lat": 30.0902353, "lng": 31.3039075, "types": ["health", "point_of_interest", "establishment"], "place_id": "ChIJn7V9yT4_WBQR1RS37MLVG1U"}, {"name": "مدرسه إبن سندر الابتدائيه", "formatted_address": "106 Ibn Sender Sq., El-Qobba, Hada'iq El Qobbah, Cairo Governorate, Egypt", "lat": 30.0905281, "lng": 31.3027136, "types": ["primary_school", "school", "point_of_interest", "establishment"], "place_id": "ChIJdWOTAdU_WBQRbNtKdrQC96o"}, {"name": "مكتبة ابن سندر", "formatted_address": "شارع ابن سندر ، سراى القبة، قسم، Zeitoun, Cairo Governorate, Egypt", "lat": 30.0932905, "lng": 31.3043362, "types": ["point_of_interest", "store", "establishment"], "place_id": "ChIJe3mAddQ_WBQRM2eck_zPIY0"}, {"name": "طيور بن سندر", "formatted_address": "شارع ابن سندر ، سراى القبة، قسم الزيتون ،، Cairo Governorate, Egypt", "lat": 30.0913852, "lng": 31.3029083, "types": ["pet_store", "point_of_interest", "store", "establishment"], "place_id": "ChIJd8OP1tM_WBQRedWrSsboU8I"}, {"name": "حاتم باشات", "formatted_address": "2 Ibn Sender Sq., حمامات القبة، Heliopolis, Cairo Governorate, Egypt", "lat": 30.090231, "lng": 31.303903, "types": ["point_of_interest", "establishment"], "place_id": "ChIJuckg5nI_WBQR9JT7wprn9PI"}, {"name": "مطعم رأس البر", "formatted_address": "١٢، Ibn Sender Sq., حمامات القبة، Egypt", "lat": 30.0897604, "lng": 31.302157, "types": ["restaurant", "food", "point_of_interest", "establishment"], "place_id": "ChIJb8H0PNI_WBQRZ0b4Tc8RQPA"}, {"name": "الأستاذ الدكتور/ أحمد عمرو طاهر", "formatted_address": "٢ شارع جسر السويس، ميدان ابن سندر،, Mansheya El-Bakry, Cairo Governorate 11331, Egypt", "lat": 30.090253, "lng": 31.30388, "types": ["doctor", "health", "point_of_interest", "establishment"], "place_id": "ChIJcXp9Y10_WBQR57ehT0oLnzs"}, {"name": "صيدلية كمال الدين", "formatted_address": "22 ميدان ابن سندار، امام حديقة ابن سندر، حمامات القبة، AZ Zaytoun، Cairo Governorate, Egypt", "lat": 30.0898737, "lng": 31.3019137, "types": ["pharmacy", "health", "point_of_interest", "store", "establishment"], "place_id": "ChIJBc9u7dE_WBQRjENHY-GqGKk"}, {"name": "مستورد ماكينات التصوير والطابعات والفاكسات تكنو ايجيبت", "formatted_address": "8 أ شارع بن مروان ميدان بن سندر، مصر الجديدة، القاهرة، مصر، Heliopolis, Egypt", "lat": 30.0902096, "lng": 31.3034013, "types": ["point_of_interest", "establishment"], "place_id": "ChIJrYHcNuI_WBQRM3JFuIQoUKc"}, {"name": "الدولية للعقارات", "formatted_address": "شارع ابن سندر ، سراى القبة، قسم، Zeitoun, Cairo Governorate, Egypt", "lat": 30.0909437, "lng": 31.3031866, "types": ["real_estate_agency", "point_of_interest", "establishment"], "place_id": "ChIJbTkt09M_WBQRAixQB4eUjl4"}, {"name": "Dr. Mostafa El Kholi", "formatted_address": "12 Ibn Sender Sq., El-Qobba Bridge, Heliopolis, Cairo Governorate, Egypt", "lat": 30.0902155, "lng": 31.3038843, "types": ["doctor", "health", "point_of_interest", "establishment"], "place_id": "ChIJb8H0PNI_WBQRHalb7aRyftQ"}, {"name": "Elezaby Pharmacy", "formatted_address": "Ibn Sender Sq., حمامات القبة، قسم الزيتون، Cairo Governorate, Egypt", "lat": 30.0904804, "lng": 31.3033596, "types": ["pharmacy", "health", "point_of_interest", "store", "establishment"], "place_id": "ChIJsdMiLtI_WBQRT2xRUh-DJaY"}, {"name": "مكتب الاستاذ/ هشام نافع", "formatted_address": "شارع ابن سندر - قسم الزيتون - حى سرايا القبة ١٠٤ابن سندر، 11712, Egypt", "lat": 30.0902096, "lng": 31.3034013, "types": ["lawyer", "point_of_interest", "establishment"], "place_id": "ChIJjV81VAw_WBQRxakXbQQp9xM"}, {"name": "اسماك دويدار", "formatted_address": "١٢ ميدان ابن سندار ابن سندر، أمام, حمامات القبة، Egypt", "lat": 30.0897851, "lng": 31.3021161, "types": ["restaurant", "food", "point_of_interest", "establishment"], "place_id": "ChIJlbUg7tE_WBQR5ZjqcjlmGmk"}, {"name": "Asala Cafe", "formatted_address": "Ibn Sender Sq., AZ Zaytoun Al Qebleyah, Zeitoun, Cairo Governorate, Egypt", "lat": 30.0901118, "lng": 31.3023444, "types": ["cafe", "food", "point_of_interest", "establishment"], "place_id": "ChIJPd30i9E_WBQR3kca0XCBZlc"}, {"name": "Laprune Pastry", "formatted_address": "14 Ibn Sender Sq., El-Zaytoun Sharkeya, Zeitoun, Cairo Governorate, Egypt", "lat": 30.0896112, "lng": 31.30347729999999, "types": ["bakery", "food", "point_of_interest", "store", "establishment"], "place_id": "ChIJb8H0PNI_WBQRx4athJZP8q8"}, {"name": "مؤسسة محمود مختار الهلباوى", "formatted_address": "شارع ابن سندر ، سراى القبة، قسم، Cairo Governorate, Egypt", "lat": 30.0911357, "lng": 31.3034639, "types": ["lawyer", "point_of_interest", "establishment"], "place_id": "ChIJ6ZTuzdM_WBQRNPu3A-a_XEs"}, {"name": "El Zahraa", "formatted_address": "Ibn Sendar, AZ Zaytoun Al Qebleyah, Zeitoun, Cairo Governorate, Egypt", "lat": 30.090411, "lng": 31.3033333, "types": ["pharmacy", "health", "point_of_interest", "store", "establishment"], "place_id": "ChIJuexLMtI_WBQRhjEc2ZfESBo"}, {"name": "مكتب تأمينات ابن سندر", "formatted_address": "Ibn Sendar, El-Zaytoun Sharkeya, Zeitoun, Cairo Governorate, Egypt", "lat": 30.0897291, "lng": 31.3018171, "types": ["point_of_interest", "establishment"], "place_id": "ChIJOYDO7dE_WBQRk7TFuDstXPo"}, {"name": "البان الزعيم", "formatted_address": "١٢ شارع، Ibn Sender Sq., حمامات القبة، Egypt", "lat": 30.0896499, "lng": 31.3019733, "types": ["food", "point_of_interest", "store", "establishment"], "place_id": "ChIJe50A8tE_WBQRuu91A67xHiE"}, {"name": "أزياء خالد البرنس", "formatted_address": "شارع ابن سندر ، سراى القبة، قسم، Zeitoun, Cairo Governorate, Egypt", "lat": 30.09113169999999, "lng": 31.3033694, "types": ["point_of_interest", "clothing_store", "store", "establishment"], "place_id": "ChIJN99y0tM_WBQRSEN9oclbDGE"}, {"name": "Dr. Fayeq Faheem Salib", "formatted_address": "10 Ibn Sender Sq., حمامات القبة، Heliopolis, Cairo Governorate, Egypt", "lat": 30.0889004, "lng": 31.301586, "types": ["doctor", "health", "point_of_interest", "establishment"], "place_id": "ChIJGY6H4dE_WBQR_t5-aje2eSY"}, {"name": "Marvel", "formatted_address": "12 ش الخليفة المأمون، Mansheya El-Bakry, Heliopolis, Cairo Governorate, Egypt", "lat": 30.0861443, "lng": 31.3001333, "types": ["point_of_interest", "establishment"], "place_id": "ChIJxVvF2c0_WBQRPzofkJn5qlU"}, {"name": "Dior", "formatted_address": "14 Ibn Sender Sq., El-Zaytoun Sharkeya, Zeitoun, Cairo Governorate, Egypt", "lat": 30.0896112, "lng": 31.30347729999999, "types": ["point_of_interest", "store", "establishment"], "place_id": "ChIJb8H0PNI_WBQR_Ne5MU6Gu8M"}, {"name": "بكة للطباعة", "formatted_address": "شارع إبن سندر ، سراى القبة، قسم، Zeitoun, Egypt", "lat": 30.0909539, "lng": 31.30353909999999, "types": ["point_of_interest", "store", "establishment"], "place_id": "ChIJ6YS_Gek_WBQRPveGDsiXxO8"}, {"name": "Legendary", "formatted_address": "شارع ابن سندر ، سراى القبة، قسم، Zeitoun, Cairo Governorate, Egypt", "lat": 30.0912225, "lng": 31.3034988, "types": ["point_of_interest", "establishment"], "place_id": "ChIJD59yztM_WBQR_zUyUQ2KRR0"}, {"name": "التوكيلات الصناعية والتجارية", "formatted_address": "14 Ibn Sender Sq., حمامات القبة، Zeitoun, Cairo Governorate, Egypt", "lat": 30.0892588, "lng": 31.3005774, "types": ["point_of_interest", "establishment"], "place_id": "ChIJb8H0PNI_WBQRqOnTRwr8VdY"}, {"name": "مدرسة الشهيد عقيد/ وليد محمود محمد الصادق الثانوية العسكرية بنين", "formatted_address": "شارع ابن سندر، 5, Zeitoun, Cairo Governorate, Egypt", "lat": 30.0915535, "lng": 31.3039397, "types": ["secondary_school", "school", "point_of_interest", "establishment"], "place_id": "ChIJfdFDxtM_WBQRJ4b8a_BuwZE"}, {"name": "محمود شمس الدين", "formatted_address": "شارع طومان باى ، سراى القبة، قسم، Zeitoun, Cairo Governorate, Egypt", "lat": 30.0908923, "lng": 31.3037472, "types": ["doctor", "health", "point_of_interest", "establishment"], "place_id": "ChIJwYSezNM_WBQRWhWuQ8c9PXE"}, {"name": "طيبات الشام", "formatted_address": "مقابل قهوة السمسمية، 102 Ibn Sender Sq., Hadaeq Al Qubbah, Zeitoun, Cairo Governorate, Egypt", "lat": 30.0905281, "lng": 31.3027136, "types": ["restaurant", "food", "point_of_interest", "establishment"], "place_id": "ChIJ81Xn_9Q_WBQRirbHJXSmedc"}, {"name": "Laliga", "formatted_address": "٢٠ شارع ابن سندار، حمامات القبة، Egypt", "lat": 30.0906391, "lng": 31.3025865, "types": ["point_of_interest", "establishment"], "place_id": "ChIJk1kMh9E_WBQRfMk65d50-uc"}, {"name": "صيدليات النواوى", "formatted_address": "شارع ابن سندر ، سراى القبة، قسم، Zeitoun, Cairo Governorate, Egypt", "lat": 30.0912201, "lng": 31.3035179, "types": ["pharmacy", "health", "point_of_interest", "store", "establishment"], "place_id": "ChIJKxtuztM_WBQR_QUsUrpNggs"}, {"name": "Black Gamer", "formatted_address": "شارع ابن سندر ، سراى القبة، قسم، Zeitoun, Cairo Governorate, Egypt", "lat": 30.091205, "lng": 31.3033653, "types": ["point_of_interest", "store", "establishment"], "place_id": "ChIJQxcD0tM_WBQREl0CrVdcICw"}, {"name": "تيتا ساميه", "formatted_address": "شارع ابن سندر ، سراى القبة، قسم، الزيتون الشرقية، الزيتون، محافظة القاهرة‬،، Egypt", "lat": 30.0911771, "lng": 31.3035839, "types": ["point_of_interest", "establishment"], "place_id": "ChIJq2Pf3ok_WBQRhn61p-IRdLM"}, {"name": "Laliga", "formatted_address": "شارع إبن بثندر حمامات القبة قسم، Mansheya El-Bakry, Egypt", "lat": 30.0907392, "lng": 31.3030176, "types": ["point_of_interest", "establishment"], "place_id": "ChIJwTfzK9I_WBQRQteD8yO3-d4"}, {"name": "عيادة دكتور طارق منير ذكى للامراض الجلدية", "formatted_address": "19 Ibn Sender Sq., Hadaeq Al Qubbah, Zeitoun, Cairo Governorate, Egypt", "lat": 30.0886344, "lng": 31.30081119999999, "types": ["doctor", "health", "point_of_interest", "establishment"], "place_id": "ChIJb4YfJM4_WBQRGrODgrDVXhk"}, {"name": "أولاد الدمرداش", "formatted_address": "شارع ابن سندر ، سراى القبة، قسم الزيتون ،، Cairo Governorate, Egypt", "lat": 30.0925673, "lng": 31.3037982, "types": ["furniture_store", "home_goods_store", "point_of_interest", "store", "establishment"], "place_id": "ChIJac_S7dM_WBQRzMfuw8ekurg"}, {"name": "مطعم العائلات ( ابراهيم كامل )", "formatted_address": "٥ شارع عبد الجليل - من ميدان, Ibn Sendar, El-Zaytoun Sharkeya, Zeitoun, Cairo Governorate, Egypt", "lat": 30.0894062, "lng": 31.2995023, "types": ["restaurant", "food", "point_of_interest", "establishment"], "place_id": "ChIJcyeG2O0_WBQR6gZXy6WUA5g"}, {"name": "Jewel Inn El Bakry Hotel", "formatted_address": "47 Ibn Sender, Street, Kobry El-Koba, 11765, Egypt", "lat": 30.090574, "lng": 31.302961, "types": ["lodging", "point_of_interest", "establishment"], "place_id": "ChIJQQo-KdI_WBQR6WNca5XASeM"}, {"name": "Tobe", "formatted_address": "شارع ابن سندر ، سراى القبة، قسم، Zeitoun, Cairo Governorate, Egypt", "lat": 30.0927883, "lng": 31.3043594, "types": ["hair_care", "health", "point_of_interest", "establishment"], "place_id": "ChIJJ8FFjNM_WBQRVv8gPMSHluU"}, {"name": "Banque Misr", "formatted_address": "2 Ibn Sendar Sq.، El-Zaytoun Sharkeya, Heliopolis, Cairo Governorate, Egypt", "lat": 30.09020019999999, "lng": 31.3039014, "types": ["atm", "finance", "point_of_interest", "establishment"], "place_id": "ChIJb8H0PNI_WBQR2pME7qqNUNU"}, {"name": "Family Market", "formatted_address": "82 ش ابن سندر، سراى القبة، Zeitoun, Cairo Governorate, Egypt", "lat": 30.09271619999999, "lng": 31.3039054, "types": ["supermarket", "grocery_or_supermarket", "food", "point_of_interest", "store", "establishment"], "place_id": "ChIJb8H0PNI_WBQRmJC3adPk9i0"}, {"name": "مركز القيعى", "formatted_address": "شارع ابن سندر ، سراى القبة، قسم، Zeitoun, Cairo Governorate, Egypt", "lat": 30.0948288, "lng": 31.3056529, "types": ["doctor", "health", "point_of_interest", "establishment"], "place_id": "ChIJSUSK99Q_WBQRZl9oUtgqWN8"}, {"name": "El Fayrouz Studio", "formatted_address": "16 ibn sendar sq.، HAMAMAT EL KOBBA، Zeitoun, Cairo Governorate, Egypt", "lat": 30.09024429999999, "lng": 31.302286, "types": ["point_of_interest", "establishment"], "place_id": "ChIJb8H0PNI_WBQRp-5hoGxcQ9w"}, {"name": "مكتبة القبة", "formatted_address": "شارع ابن سندر ، سراى القبة، قسم، Zeitoun, Cairo Governorate, Egypt", "lat": 30.093297, "lng": 31.3043226, "types": ["point_of_interest", "store", "establishment"], "place_id": "ChIJpSaAitM_WBQRn_Nw9W0SZ8g"}, {"name": "Our Lady of Heliopolis Co-Cathedral", "formatted_address": "Nazih Khalifa crossroad، Al Ahram, Heliopolis, Cairo Governorate, Egypt", "lat": 30.0935707, "lng": 31.3251828, "types": ["church", "place_of_worship", "point_of_interest", "establishment"], "place_id": "ChIJJdgh-okVWBQR5TqTmKuQ0IM"}, {"name": "تكنولوجيا هندسة المقاولات EET", "formatted_address": "شارع ابن سندر ، سراى القبة، قسم, Zeitoun, Egypt", "lat": 30.091164, "lng": 31.3032814, "types": ["general_contractor", "point_of_interest", "establishment"], "place_id": "ChIJK2jNz9M_WBQRHgdykIWkIyI"}, {"name": "علام", "formatted_address": "شارع ابن سندر، سراى القبة، قسم، Zeitoun, Cairo Governorate, Egypt", "lat": 30.0924031, "lng": 31.3037325, "types": ["point_of_interest", "clothing_store", "store", "establishment"], "place_id": "ChIJOcJT6dM_WBQR3M7T_qYZ1Ig"}, {"name": "د / نسمة حسين", "formatted_address": "Ibn Sender Sq., حمامات القبة، Heliopolis, Cairo Governorate, Egypt", "lat": 30.091212, "lng": 31.302668, "types": ["dentist", "health", "point_of_interest", "establishment"], "place_id": "ChIJTc7Wf9E_WBQRj2TQbYJLa-o"}, {"name": "Jewel Inn El Bakry Hotel", "formatted_address": "47 Ibn Sender, Street, Kobry El-Koba, 11765, Egypt", "lat": 30.090574, "lng": 31.302961, "types": ["lodging", "point_of_interest", "establishment"], "place_id": "ChIJQQo-KdI_WBQRGYwF_-0D2xU"}, {"name": "Black Gamer", "formatted_address": "شارع طومان باى حمامات القبة قسم الزتون، Cairo Governorate, Egypt", "lat": 30.0893189, "lng": 31.30251939999999, "types": ["point_of_interest", "establishment"], "place_id": "ChIJ-VOq99E_WBQRJoKTs_7oiR4"}, {"name": "White", "formatted_address": "4 ش ابن جحدم، حمامات القبة، Zeitoun, Cairo Governorate, Egypt", "lat": 30.0910142, "lng": 31.3002731, "types": ["point_of_interest", "establishment"], "place_id": "ChIJyYIqstE_WBQRj9lmdSQ3V00"}, {"name": "ميديا تورينت Media Torrent EG", "formatted_address": "5 برج سماح ,شارع ابن سندر,, El-Zaytoun Sharkeya, Zeitoun, Cairo Governorate, Egypt", "lat": 30.091096, "lng": 31.303838, "types": ["electronics_store", "point_of_interest", "store", "establishment"], "place_id": "ChIJsSHMyNM_WBQRzD81ebGe-ak"}, {"name": "منجد الحبايب أولاد الدمرداش", "formatted_address": "شارع ابن سندر ، سراى القبة، قسم، Zeitoun, Cairo Governorate, Egypt", "lat": 30.0925673, "lng": 31.3037982, "types": ["furniture_store", "home_goods_store", "point_of_interest", "store", "establishment"], "place_id": "ChIJac_S7dM_WBQRGNQdq5g6uaQ"}, {"name": "بنك مصر فرع منشية البكرى", "formatted_address": "Gesr Al Suez, Mansheya El-Bakry, Heliopolis, Cairo Governorate, Egypt", "lat": 30.0900375, "lng": 31.303984, "types": ["bank", "finance", "point_of_interest", "establishment"], "place_id": "ChIJ3wcwONI_WBQRq4XcClf_7ZA"}, {"name": "كشرى هند كوبري القبه", "formatted_address": "ميدان إبن سندر، حدائق القبة، القاهرة، 11766, Egypt", "lat": 30.0849289, "lng": 31.2952353, "types": ["restaurant", "food", "point_of_interest", "establishment"], "place_id": "ChIJ98dkuCM_WBQRQS2FKFlHJOU"}]