[{"name": "مدرسة ابن سينا", "formatted_address": "13 Ibn Sina, Almazah, Heliopolis, Cairo Governorate, Egypt", "lat": 30.0955094, "lng": 31.3389029, "types": ["school", "point_of_interest", "establishment"], "place_id": "ChIJwylWPPEVWBQRZ3r0rnw2qfA"}, {"name": "Merryland Park", "formatted_address": "El-Montaza, Heliopolis, Cairo Governorate, Egypt", "lat": 30.0979257, "lng": 31.3189812, "types": ["park", "tourist_attraction", "point_of_interest", "establishment"], "place_id": "ChIJH9vwOoYVWBQR90_jkGUJbSU"}, {"name": "Avicenna Oncology Center", "formatted_address": "34A El Hegaz Street, Altogareyin tower, Heliopolis ٣٤ أ شارع الحجاز - أمام محكمة مصر الجديدة - مصر الجديدة, Cairo Governorate, Egypt", "lat": 30.1048871, "lng": 31.3301764, "types": ["doctor", "health", "point_of_interest", "establishment"], "place_id": "ChIJu9OOJZMVWBQRQjIDF62Jey8"}, {"name": "Ibn Sina For Housing & Building", "formatted_address": "ش Abd El-Aziz Fahmy, El-Nozha, El Nozha, Cairo Governorate, Egypt", "lat": 30.1024968, "lng": 31.3484074, "types": ["point_of_interest", "establishment"], "place_id": "ChIJNSgtVeEVWBQRajihuNhTUwY"}, {"name": "بيت الحياة (فرع مصر الجديدة) Beyt El-7ayah", "formatted_address": "57أ ش عثمان بن عفان سفير أمام التوحيد والنور الدور 3 Cairo, 11351, Egypt", "lat": 30.0970939, "lng": 31.3370459, "types": ["point_of_interest", "establishment"], "place_id": "ChIJy5K3XKA5WBQRQ0iZ5LxxIW8"}, {"name": "Menx", "formatted_address": "18 Ibn Sina, Almazah, Heliopolis, Cairo Governorate, Egypt", "lat": 30.09548, "lng": 31.3396434, "types": ["point_of_interest", "establishment"], "place_id": "ChIJs804I_EVWBQRA6WBjoUYhrU"}, {"name": "Ibtikar Advertising", "formatted_address": "11 متفرع من ش الثورة، مصر الجديدة، القاهرة، Cairo Governorate, Egypt", "lat": 30.094836, "lng": 31.339565, "types": ["point_of_interest", "establishment"], "place_id": "ChIJRTXaKPEVWBQRcTUPUNsq7e8"}, {"name": "Makar", "formatted_address": "14 Ibn Sina, Almazah, Heliopolis, Cairo Governorate, Egypt", "lat": 30.0956704, "lng": 31.3392152, "types": ["point_of_interest", "establishment"], "place_id": "ChIJNZhGI_EVWBQRKfxnwB1KHSU"}, {"name": "El Golf Association", "formatted_address": "27 ش حسن افلاطون، Almazah, Heliopolis, Cairo Governorate, Egypt", "lat": 30.0946999, "lng": 31.3391924, "types": ["point_of_interest", "establishment"], "place_id": "ChIJdQ7XAgU-WBQRmJmLnxi4cOk"}, {"name": "The Workshops", "formatted_address": "17 Ibn Sina, Almazah, Heliopolis, Cairo Governorate 11311, Egypt", "lat": 30.0954331, "lng": 31.3391675, "types": ["point_of_interest", "establishment"], "place_id": "ChIJ4QFPTvdHWBQRsNierSHKqpw"}, {"name": "International Group Center", "formatted_address": "21 ش حسن افلاطون، Almazah, Heliopolis, Cairo Governorate, Egypt", "lat": 30.0946999, "lng": 31.3391924, "types": ["point_of_interest", "establishment"], "place_id": "ChIJdQ7XAgU-WBQRpbmDLRZnR7M"}, {"name": "Eureka Real Estate", "formatted_address": "Ibn Sina, Almazah, Heliopolis, Cairo Governorate, Egypt", "lat": 30.0960341, "lng": 31.3386283, "types": ["real_estate_agency", "point_of_interest", "establishment"], "place_id": "ChIJzzb9FPEVWBQRQsnOBzS55uQ"}, {"name": "Dar El Fan El Araby", "formatted_address": "6 ش فوزى المطيعى، Almazah, Heliopolis, Cairo Governorate, Egypt", "lat": 30.0955943, "lng": 31.3379466, "types": ["point_of_interest", "establishment"], "place_id": "ChIJQ9RPRPEVWBQRQ6X4f5w2fCU"}, {"name": "EPROJECTS EGYPT", "formatted_address": "8 Ibn Sina Street of El-Orouba Road, Heliopolis, Cairo Governorate, Egypt", "lat": 30.0959494, "lng": 31.3388055, "types": ["point_of_interest", "establishment"], "place_id": "ChIJfynRdusVWBQRoZUP223-n-Q"}, {"name": "NewStar OKKA Coffee", "formatted_address": "5 Ibn Sina, Almazah, Heliopolis, Cairo Governorate, Egypt", "lat": 30.0962955, "lng": 31.3378026, "types": ["point_of_interest", "establishment"], "place_id": "ChIJjy1wvw0VWBQRiODptJ7kLQc"}, {"name": "الشركة الفاطمية للاستثمار العقارى", "formatted_address": "89 Abou Bakr El-Sedeek, Al Matar, El Nozha, Cairo Governorate, Egypt", "lat": 30.0969817, "lng": 31.3389509, "types": ["point_of_interest", "establishment"], "place_id": "ChIJVVWxCfEVWBQRnKpz1_LVI9U"}, {"name": "Gourg", "formatted_address": "14 Fawzi Al Motaee Basa, Almazah, Heliopolis, Cairo Governorate, Egypt", "lat": 30.0959613, "lng": 31.33774459999999, "types": ["point_of_interest", "establishment"], "place_id": "ChIJP2PDXPEVWBQRLZbAhVlkv5I"}, {"name": "Winner Technology", "formatted_address": "ش حسن افلاطون، Almazah, Heliopolis, Cairo Governorate, Egypt", "lat": 30.0946999, "lng": 31.3391924, "types": ["point_of_interest", "establishment"], "place_id": "ChIJdQ7XAgU-WBQRDXulA4zMcuk"}, {"name": "Pasa", "formatted_address": "20 Fawzi Al Motaee Basa, Almazah, Heliopolis, Cairo Governorate, Egypt", "lat": 30.0954833, "lng": 31.3383254, "types": ["point_of_interest", "establishment"], "place_id": "ChIJOf-qR_EVWBQRTC_UcNFATyI"}, {"name": "Z Gold", "formatted_address": "2 Ibn Sina, Almazah, Heliopolis, Cairo Governorate, Egypt", "lat": 30.0965818, "lng": 31.3376464, "types": ["point_of_interest", "establishment"], "place_id": "ChIJO7eZZfEVWBQR0U1ZOs8TxhA"}, {"name": "Venus Clean", "formatted_address": "2 ش يعقوب ارتين، Almazah, Heliopolis, Cairo Governorate, Egypt", "lat": 30.095053, "lng": 31.3374228, "types": ["point_of_interest", "establishment"], "place_id": "ChIJWYadU_EVWBQRBhi3YXY--yE"}, {"name": "Global Intertrade", "formatted_address": "11 متفرع من ش ابو بكر الصديق، Almazah, Heliopolis, Cairo Governorate, Egypt", "lat": 30.094836, "lng": 31.339565, "types": ["point_of_interest", "establishment"], "place_id": "ChIJRTXaKPEVWBQRl3knITZ8c7Q"}, {"name": "We Are", "formatted_address": "8 Off El Orouba St, Almazah, Heliopolis, Cairo Governorate, Egypt", "lat": 30.0961, "lng": 31.3386, "types": ["point_of_interest", "establishment"], "place_id": "ChIJ2QYXOTQ-WBQRJINC0lywnyA"}, {"name": "Engineering Co. For Water Technology", "formatted_address": "2 ش حسن افلاطون، Almazah, Heliopolis, Cairo Governorate, Egypt", "lat": 30.0946999, "lng": 31.3391924, "types": ["point_of_interest", "establishment"], "place_id": "ChIJdQ7XAgU-WBQRMiAOxOyBc7Y"}, {"name": "Gartref Electronics", "formatted_address": "14 ش فوزى المطيعى، Almazah, Heliopolis, Cairo Governorate, Egypt", "lat": 30.0955943, "lng": 31.3379466, "types": ["point_of_interest", "establishment"], "place_id": "ChIJQ9RPRPEVWBQRF_N7vWURgsY"}, {"name": "The Gardin", "formatted_address": "66 فوزي المطيعي باشا، الماظة، قسم مصر الجديدة، محافظة القاهرة‬،، Egypt", "lat": 30.0943822, "lng": 31.3396685, "types": ["point_of_interest", "establishment"], "place_id": "ChIJd8IRtDoVWBQRtNVxBoNfSEE"}, {"name": "Exclusive", "formatted_address": "1 ش حسن افلاطون، Almazah, Heliopolis, Cairo Governorate, Egypt", "lat": 30.0946999, "lng": 31.3391924, "types": ["point_of_interest", "establishment"], "place_id": "ChIJdQ7XAgU-WBQRwDfRzbzPbLI"}, {"name": "Alamia Tex - International For Spinning & Knitting", "formatted_address": "13 ش فوزى المطيعى، Almazah, Heliopolis, Cairo Governorate, Egypt", "lat": 30.0955943, "lng": 31.3379466, "types": ["point_of_interest", "establishment"], "place_id": "ChIJQ9RPRPEVWBQRjXsAcxoF9k4"}, {"name": "Venouse", "formatted_address": "28 Kamal El-Shafei, Almazah, Heliopolis, Cairo Governorate, Egypt", "lat": 30.0967732, "lng": 31.3358484, "types": ["point_of_interest", "establishment"], "place_id": "ChIJoTB1wfMVWBQRaB0iNUC7W-I"}, {"name": "Amitab", "formatted_address": "Almazah, Heliopolis, Cairo Governorate, Egypt", "lat": 30.0941508, "lng": 31.3379166, "types": ["point_of_interest", "establishment"], "place_id": "ChIJGZ6IsPYVWBQRSzPIeTMEoY4"}, {"name": "International Exclusive Boutique Co. - IEB", "formatted_address": "31 ش حسن افلاطون، Almazah, Heliopolis, Cairo Governorate, Egypt", "lat": 30.0946999, "lng": 31.3391924, "types": ["point_of_interest", "establishment"], "place_id": "ChIJdQ7XAgU-WBQRzsq4QGFWiiE"}, {"name": "Tamo7", "formatted_address": "14 safir sq.، Almazah, Heliopolis, Cairo Governorate, Egypt", "lat": 30.096127, "lng": 31.337369, "types": ["point_of_interest", "establishment"], "place_id": "ChIJeT7gXfEVWBQRsS-YGrA4-qs"}, {"name": "CULTARK", "formatted_address": "Off, El Orouba Street, 17 Ibn Sina, Cairo Governorate, Egypt", "lat": 30.0954331, "lng": 31.3391675, "types": ["point_of_interest", "establishment"], "place_id": "ChIJSdhBuUQVWBQRQgepP0EqrDw"}, {"name": "El Dar", "formatted_address": "42 Omar Ibn El-Khattab, Almazah, Heliopolis, Cairo Governorate, Egypt", "lat": 30.094938, "lng": 31.3365537, "types": ["point_of_interest", "establishment"], "place_id": "ChIJO7vPBvQVWBQRRoYNoH5epvc"}, {"name": "Dr. Mohssein Sami Selim", "formatted_address": "9 ش ابن سينا، Almazah, Heliopolis, Cairo Governorate, Egypt", "lat": 30.0954776, "lng": 31.3392181, "types": ["doctor", "health", "point_of_interest", "establishment"], "place_id": "ChIJs804I_EVWBQRZZWHAK2paaM"}, {"name": "El Kamar For Construction And Consulting Engineering", "formatted_address": "9 ش حسن افلاطون، Almazah, Heliopolis, Cairo Governorate, Egypt", "lat": 30.0946999, "lng": 31.3391924, "types": ["point_of_interest", "establishment"], "place_id": "ChIJVznwLfEVWBQRe9Wf2JOqLYk"}, {"name": "South Sinai Water Company", "formatted_address": "24 Roushdy Basha, Almazah, Heliopolis, Cairo Governorate, Egypt", "lat": 30.0953729, "lng": 31.3408585, "types": ["point_of_interest", "establishment"], "place_id": "ChIJjRKV6fAVWBQRCT6Lz0AAWyk"}, {"name": "مدام آمال الخياطة", "formatted_address": "7-11 Mahmoud Ezzat Sharaf, Almazah, Heliopolis, Cairo Governorate, Egypt", "lat": 30.0952555, "lng": 31.33763799999999, "types": ["point_of_interest", "establishment"], "place_id": "ChIJ_f0IoJYVWBQRQSL1uuYSkvA"}, {"name": "Superior", "formatted_address": "86 ش ابو بكر الصديق، El-Nozha, El Nozha, Cairo Governorate, Egypt", "lat": 30.096227, "lng": 31.34153299999999, "types": ["point_of_interest", "establishment"], "place_id": "ChIJw66zi_AVWBQRLqHxKfl5mUc"}, {"name": "First For Maintenance", "formatted_address": "4 Off Yaaqub Artin St.، Almazah, Heliopolis, Cairo Governorate, Egypt", "lat": 30.095053, "lng": 31.3374228, "types": ["point_of_interest", "establishment"], "place_id": "ChIJWYadU_EVWBQRkTFvt_FBQtw"}, {"name": "Arzum & Okka Coffee Machine Store", "formatted_address": "5 Ibn Sina, Almazah, Heliopolis, Cairo Governorate, Egypt", "lat": 30.0962336, "lng": 31.33778929999999, "types": ["store", "point_of_interest", "establishment"], "place_id": "ChIJVdHWh4kVWBQR236mtlwcBYc"}, {"name": "مراعى الريف", "formatted_address": "48 Omar Ibn El-Khattab, Almazah, Heliopolis, Cairo Governorate, Egypt", "lat": 30.09424, "lng": 31.3376552, "types": ["point_of_interest", "establishment"], "place_id": "ChIJAQDsr_YVWBQR1HWKLtVnFUk"}, {"name": "Aticot - Arab Trade, Investment & Cotton Trading Co.", "formatted_address": "18 Yacoub Artin St.، Almazah, Heliopolis, Cairo Governorate, Egypt", "lat": 30.0955, "lng": 31.3371, "types": ["point_of_interest", "establishment"], "place_id": "ChIJWYadU_EVWBQRtNJXWv_9muw"}, {"name": "Trinx Bike", "formatted_address": "23 Roushdy Basha, Almazah, Heliopolis, Cairo Governorate, Egypt", "lat": 30.0957548, "lng": 31.3397551, "types": ["point_of_interest", "establishment"], "place_id": "ChIJs92Ip75AWBQRu1R2nMefOLY"}, {"name": "United Trading Co.", "formatted_address": "4 Ibn Sina, جحدم، Heliopolis, Cairo Governorate, Egypt", "lat": 30.0964756, "lng": 31.338102, "types": ["point_of_interest", "establishment"], "place_id": "ChIJ__8rbPEVWBQRhF4rXkf2GjI"}, {"name": "New Star Company", "formatted_address": "5 بن سينا, ميدان سفير, Heliopolis, Cairo Governorate, Egypt", "lat": 30.0962336, "lng": 31.33778929999999, "types": ["point_of_interest", "establishment"], "place_id": "ChIJq7u6a_QVWBQRcuRmpVwJ9lM"}, {"name": "Pune spa", "formatted_address": "١٧ Ibn Sina, Almazah, Heliopolis, Cairo Governorate, Egypt", "lat": 30.0953825, "lng": 31.3391464, "types": ["spa", "point_of_interest", "establishment"], "place_id": "ChIJMR3La9AVWBQRT_qfw3oR35Q"}, {"name": "الصافى للاستيراد والتصدير والتوكيلات التجارية", "formatted_address": "72 El-Orouba, Almazah, Heliopolis, Cairo Governorate, Egypt", "lat": 30.0949193, "lng": 31.34053699999999, "types": ["point_of_interest", "establishment"], "place_id": "ChIJq6o62_AVWBQRUnlT2u-7D7c"}, {"name": "Mina fouad law firm", "formatted_address": "21 Kamal El-Shafei, Almazah, Heliopolis, Cairo Governorate, Egypt", "lat": 30.0966693, "lng": 31.3382137, "types": ["lodging", "point_of_interest", "establishment"], "place_id": "ChIJnQ9zG1EVWBQR6jfXyva7Qo4"}, {"name": "Diwan Bookstore", "formatted_address": "105 Abou Bakr El-Sedeek, Almazah, Heliopolis, Cairo Governorate, Egypt", "lat": 30.0955932, "lng": 31.3412005, "types": ["book_store", "point_of_interest", "store", "establishment"], "place_id": "ChIJkTmV7PAVWBQRthTVz3MR8nM"}, {"name": "Dahab Development", "formatted_address": "72 Orouba street, صلاح سالم، Egypt", "lat": 30.0948305, "lng": 31.34051929999999, "types": ["general_contractor", "point_of_interest", "establishment"], "place_id": "ChIJoYEhW-QVWBQRUeaOgnCTxus"}, {"name": "Update For Integrated Business", "formatted_address": "Aflaton, Almazah, Heliopolis, Cairo Governorate, Egypt", "lat": 30.0946999, "lng": 31.3391924, "types": ["point_of_interest", "establishment"], "place_id": "ChIJVznwLfEVWBQRkrD2NI8yGMg"}, {"name": "El Mashoura Foundation For Law Firm & Legal Consultants", "formatted_address": "17 ميدان سفير، مصر الجديدة، القاهرة، Cairo Governorate, Egypt", "lat": 30.097887, "lng": 31.340298, "types": ["point_of_interest", "establishment"], "place_id": "ChIJcTmZSfAVWBQRioWWKMOe6p0"}, {"name": "Primary Research", "formatted_address": "20 Fawzi Al Motaee Basa, Almazah, Heliopolis, Cairo Governorate, Egypt", "lat": 30.0954864, "lng": 31.3383412, "types": ["local_government_office", "point_of_interest", "establishment"], "place_id": "ChIJlegMR_EVWBQRlZ7fUlZvIi4"}, {"name": "Merryland International Corporation For Import", "formatted_address": "95 Abou Bakr El-Sedeek, Almazah, Heliopolis, Cairo Governorate, Egypt", "lat": 30.096726, "lng": 31.3396883, "types": ["point_of_interest", "establishment"], "place_id": "ChIJ8cT-CCYVWBQRcO86eonDGko"}, {"name": "Agron", "formatted_address": "Aflaton, Almazah, Heliopolis, Cairo Governorate, Egypt", "lat": 30.0946441, "lng": 31.3388537, "types": ["point_of_interest", "establishment"], "place_id": "ChIJs_-cM_EVWBQRvqavxBAdhx4"}, {"name": "Al Motwakel Spices", "formatted_address": "3 ش حسن افلاطون، Almazah, Heliopolis, Cairo Governorate, Egypt", "lat": 30.0946999, "lng": 31.3391924, "types": ["point_of_interest", "establishment"], "place_id": "ChIJdQ7XAgU-WBQRo5F_0nIf3Yo"}, {"name": "Nawfez", "formatted_address": "13 Mahmoud El Nawawy St.، AIN SHAMS EL SHARKEYA، El Nozha, Cairo Governorate, Egypt", "lat": 30.0977663, "lng": 31.3403145, "types": ["point_of_interest", "establishment"], "place_id": "ChIJe9c1Np0VWBQRMSPVFGwVIi4"}, {"name": "RicRac Shop", "formatted_address": "66 Oruba Street, Heliopolis, Cairo Governorate 11736, Egypt", "lat": 30.0943586, "lng": 31.3396881, "types": ["point_of_interest", "establishment"], "place_id": "ChIJve8f6kgVWBQRtexp3vzHZL0"}, {"name": "Al Riad International", "formatted_address": "8 Fawzi Al Motaee Basa, Almazah, Heliopolis, Cairo Governorate, Egypt", "lat": 30.0946934, "lng": 31.3387582, "types": ["point_of_interest", "establishment"], "place_id": "ChIJb29EHfoVWBQR3i0MpPz3T3E"}]