[{"name": "شارع ابراهيم اللقاني", "formatted_address": "Ibrahim Al Lakani, El-Montaza, Heliopolis, Cairo Governorate, Egypt", "lat": 30.0903323, "lng": 31.3198515, "types": ["point_of_interest", "establishment"], "place_id": "ChIJB0spAnI_WBQRnPBmYtVFxCY"}, {"name": "Awel El Anqoud", "formatted_address": "42 El Ahram St.، El-Montaza, Heliopolis, Cairo Governorate, Egypt", "lat": 30.090721, "lng": 31.3205055, "types": ["point_of_interest", "establishment"], "place_id": "ChIJVWkOpSc-WBQRPFuA50qBa5k"}, {"name": "Omar Effendi", "formatted_address": "16 Ibrahim Al Lakani, El-Montaza, Heliopolis, Cairo Governorate, Egypt", "lat": 30.0909036, "lng": 31.319705, "types": ["shopping_mall", "point_of_interest", "establishment"], "place_id": "ChIJMQtRmyg-WBQRHVFlT2zFcYc"}, {"name": "Tivoli", "formatted_address": "ش Ibrahim Al Lakani, El-Montaza, Heliopolis, Cairo Governorate, Egypt", "lat": 30.09119, "lng": 31.3194901, "types": ["shoe_store", "point_of_interest", "store", "establishment"], "place_id": "ChIJz-RPmyg-WBQRvs0Wo3Ab4Mk"}, {"name": "Heliopolis Company For Housing & Development", "formatted_address": "28 Ibrahim Al Lakani, El-Montaza, Heliopolis, Cairo Governorate, Egypt", "lat": 30.089427, "lng": 31.32091599999999, "types": ["general_contractor", "point_of_interest", "establishment"], "place_id": "ChIJeUp1DiY-WBQRkHRQbiaGSrA"}, {"name": "Arafa - عرفة", "formatted_address": "21 Ibrahim Al Lakani, El-Montaza, Heliopolis, Cairo Governorate, Egypt", "lat": 30.0905387, "lng": 31.319447, "types": ["department_store", "point_of_interest", "store", "establishment"], "place_id": "ChIJRQaXATE_WBQRk51mQNoOiy0"}, {"name": "L'Amphitryon", "formatted_address": "18 ش Ibrahim Al Lakani, El-Montaza, Heliopolis, Cairo Governorate, Egypt", "lat": 30.0907595, "lng": 31.3198722, "types": ["cafe", "food", "point_of_interest", "establishment"], "place_id": "ChIJwedVJyY-WBQR_TXUg4jytl4"}, {"name": "Decoree", "formatted_address": "ش Ibrahim Al Lakani, El-Montaza, Heliopolis, Cairo Governorate, Egypt", "lat": 30.091676, "lng": 31.319178, "types": ["furniture_store", "home_goods_store", "point_of_interest", "store", "establishment"], "place_id": "ChIJp-gDECY-WBQRPSKBmIZHZ3A"}, {"name": "ماسوتى", "formatted_address": "8 Ibrahim Al Lakani, Al Matar, El Nozha, Cairo Governorate, Egypt", "lat": 30.0914613, "lng": 31.3189222, "types": ["point_of_interest", "establishment"], "place_id": "ChIJa9VGjig-WBQRHp4qBSKF4do"}, {"name": "Wagih Bazaar", "formatted_address": "4 Baghdad St, Almazah, Heliopolis, Cairo Governorate, Egypt", "lat": 30.0921599, "lng": 31.3258884, "types": ["point_of_interest", "establishment"], "place_id": "ChIJC3ouMSc-WBQRmIHz3I__hWg"}, {"name": "Teachers Syndicate Heliopolis Branch", "formatted_address": "1 شارع غرناطة ، شارع ابراهيم اللقانى ، روكسى، Heliopolis, Cairo Governorate, Egypt", "lat": 30.0925119, "lng": 31.3177426, "types": ["point_of_interest", "establishment"], "place_id": "ChIJlS5HVig-WBQRk-sRVLziuKs"}, {"name": "Egyptair Heliopolis", "formatted_address": "22 Ibrahim Al Lakani, El-Montaza, Heliopolis, Cairo Governorate, Egypt", "lat": 30.0900313, "lng": 31.3204747, "types": ["point_of_interest", "establishment"], "place_id": "ChIJHXOBGSY-WBQRGSwl0HtlIo4"}, {"name": "El Wehda El Arabeya Bazaar", "formatted_address": "3 Ibrahim Al Lakani, El-Montaza, Heliopolis, Cairo Governorate, Egypt", "lat": 30.0920116, "lng": 31.3178158, "types": ["point_of_interest", "store", "establishment"], "place_id": "ChIJ7wUd9yg-WBQRBoWvldNFZso"}, {"name": "Shoe room", "formatted_address": "1 شارع غرناطة, شارع Ibrahim Al Lakani, ،, ، روكسى،, Cairo Governorate, Egypt", "lat": 30.0924521, "lng": 31.3179404, "types": ["shoe_store", "point_of_interest", "store", "establishment"], "place_id": "ChIJFzA-bbc_WBQRB4-qnaO26RE"}, {"name": "Just SBR", "formatted_address": "ibrahem Ellakany، 5 Ibrahim Al Lakani, El-Montaza, Heliopolis, Cairo Governorate, Egypt", "lat": 30.0919353, "lng": 31.3181676, "types": ["clothing_store", "point_of_interest", "store", "establishment"], "place_id": "ChIJSyEykK8_WBQRXI3wZ5nlIdk"}, {"name": "Elshorbge", "formatted_address": "26 Ibrahim Al Lakani, El-Montaza, Heliopolis, Cairo Governorate 11757, Egypt", "lat": 30.0897911, "lng": 31.320552, "types": ["clothing_store", "point_of_interest", "store", "establishment"], "place_id": "ChIJ6SZ5GiY-WBQRu2JxEQBl2Jk"}, {"name": "Chicken Tikka", "formatted_address": "7 متفرع من ش، Ibrahim Al Lakani, Heliopolis, Cairo Governorate, Egypt", "lat": 30.0916727, "lng": 31.3206428, "types": ["restaurant", "food", "point_of_interest", "establishment"], "place_id": "ChIJpdojzic-WBQRlY7ZL6wzUTU"}, {"name": "Junior Roxy", "formatted_address": "روكسي مصر، 1 شارع دمشق متفرغ من، Ibrahim Al Lakani, Egypt", "lat": 30.092733, "lng": 31.3185995, "types": ["point_of_interest", "clothing_store", "store", "establishment"], "place_id": "ChIJq6pOYSg-WBQRG45tnf4vAOI"}, {"name": "Golden Man House", "formatted_address": "7 Ibrahim Al Lakani, El-Montaza, Heliopolis, Cairo Governorate, Egypt", "lat": 30.0916815, "lng": 31.3183744, "types": ["clothing_store", "point_of_interest", "store", "establishment"], "place_id": "ChIJgVVSiyg-WBQRI80oj6N7xzE"}, {"name": "Heliopolis House Hotel", "formatted_address": "القاهره، Cairo Governorate 11757, Egypt", "lat": 30.0904967, "lng": 31.3193882, "types": ["lodging", "point_of_interest", "establishment"], "place_id": "ChIJ_____yY-WBQRnKKY4Z5TlIA"}, {"name": "Hera", "formatted_address": "ش Ibrahim Al Lakani, El-Montaza, Heliopolis, Cairo Governorate, Egypt", "lat": 30.091158, "lng": 31.319445, "types": ["store", "point_of_interest", "establishment"], "place_id": "ChIJz-RPmyg-WBQRzikBcV0S-fw"}, {"name": "National Bank Of Egypt - ATM", "formatted_address": "ش Ibrahim Al Lakani, El-Montaza, Heliopolis, Cairo Governorate, Egypt", "lat": 30.089427, "lng": 31.32091599999999, "types": ["atm", "finance", "point_of_interest", "establishment"], "place_id": "ChIJ_____yY-WBQRB3pEq9TDrRo"}, {"name": "OR ROXY AVO", "formatted_address": "ابراهيم اللقانى-روكسى-مصر الجديده, Cairo, Cairo Governorate, Egypt", "lat": 30.0924278, "lng": 31.3179046, "types": ["point_of_interest", "clothing_store", "store", "establishment"], "place_id": "ChIJ0wNeWCg-WBQRAZyWVkIF7XE"}, {"name": "Abou Haidar Shawerma", "formatted_address": "el korba، Ibrahim Al Lakani, El-Montaza, Heliopolis, Cairo Governorate, Egypt", "lat": 30.091527, "lng": 31.3186988, "types": ["restaurant", "food", "point_of_interest", "establishment"], "place_id": "ChIJJ1IRmig-WBQRQ6GlANLovCQ"}, {"name": "Banque Du Caire", "formatted_address": "10 Ibrahim Al Lakani, El-Montaza, Heliopolis, Cairo Governorate, Egypt", "lat": 30.0914891, "lng": 31.3186703, "types": ["bank", "finance", "point_of_interest", "establishment"], "place_id": "ChIJp-gDECY-WBQRXKwdNUh0O-A"}, {"name": "Kandel", "formatted_address": "5 Ibrahim Al Lakani, El-Montaza, Heliopolis, Cairo Governorate 11341, Egypt", "lat": 30.0920705, "lng": 31.3175924, "types": ["home_goods_store", "point_of_interest", "store", "establishment"], "place_id": "ChIJLQ1Ziyg-WBQRzHlwlMYkCgY"}, {"name": "Gadaou", "formatted_address": "3 Ibrahim Al Lakani, El-Montaza, Heliopolis, Cairo Governorate, Egypt", "lat": 30.0920773, "lng": 31.3176706, "types": ["clothing_store", "point_of_interest", "store", "establishment"], "place_id": "ChIJncbX-Sg-WBQRtTnG_VxTT2s"}, {"name": "MM", "formatted_address": "ش Ibrahim Al Lakani, El-Montaza, Heliopolis, Cairo Governorate, Egypt", "lat": 30.092143, "lng": 31.3185252, "types": ["clothing_store", "point_of_interest", "store", "establishment"], "place_id": "ChIJ3dCFiig-WBQR76YJvde8hZ4"}, {"name": "الفاليرو", "formatted_address": "Ibrahim Al Lakani, El-Montaza, Heliopolis, Cairo Governorate, Egypt", "lat": 30.0923309, "lng": 31.3180612, "types": ["food", "point_of_interest", "store", "establishment"], "place_id": "ChIJ3U9iXyg-WBQR9mZkZMzHJ88"}, {"name": "Misr Banque", "formatted_address": "11 Ibrahim Al Lakani, El-Montaza, Heliopolis, Cairo Governorate, Egypt", "lat": 30.0908648, "lng": 31.3192501, "types": ["bank", "finance", "point_of_interest", "establishment"], "place_id": "ChIJDS80mSg-WBQRkCzt2gt1h1k"}, {"name": "ماكينة صراف الي البنك الاهلي المصري - فرع مصر الجديدة 2", "formatted_address": "21 Ibrahim Al Lakani, El-Montaza, Heliopolis, Cairo Governorate 11611, Egypt", "lat": 30.0913759, "lng": 31.3222216, "types": ["atm", "finance", "point_of_interest", "establishment"], "place_id": "ChIJG85e_iw-WBQRH4u4PghFb9k"}, {"name": "فري جيرل", "formatted_address": "روكسى، 10 Ibrahim Al Lakani, El-Montaza, Heliopolis, Cairo Governorate, Egypt", "lat": 30.0915807, "lng": 31.3187109, "types": ["point_of_interest", "clothing_store", "store", "establishment"], "place_id": "ChIJ98iKfdE_WBQRpP1UinXwcEc"}, {"name": "B.TECH - Roxy", "formatted_address": "إيديال - روكسي، 17 ش Ibrahim Al Lakani, Egypt", "lat": 30.0911004, "lng": 31.31907, "types": ["electronics_store", "home_goods_store", "point_of_interest", "store", "establishment"], "place_id": "ChIJwaqCkCg-WBQRjBSq_o-mYT4"}, {"name": "Notoire", "formatted_address": "14 Ibrahim Al Lakani, El-Montaza, Heliopolis, Cairo Governorate, Egypt", "lat": 30.0916147, "lng": 31.3186828, "types": ["point_of_interest", "clothing_store", "store", "establishment"], "place_id": "ChIJp-gDECY-WBQRTX8WGDZhvHs"}, {"name": "Party Scarf", "formatted_address": "ش Ibrahim Al Lakani, El-Montaza, Heliopolis, Cairo Governorate, Egypt", "lat": 30.091963, "lng": 31.318054, "types": ["point_of_interest", "establishment"], "place_id": "ChIJ9Uag9ig-WBQRlWHdTohohZA"}, {"name": "Top Fashion", "formatted_address": "5 Ibrahim Al Lakani, El-Montaza, Heliopolis, Cairo Governorate, Egypt", "lat": 30.0919326, "lng": 31.3180736, "types": ["clothing_store", "point_of_interest", "store", "establishment"], "place_id": "ChIJ9Qcj9Cg-WBQRcevmb6CzPAs"}, {"name": "Raytex For Bedding", "formatted_address": "26 ش ابراهيم اللقانى، El-Montaza, Heliopolis, Cairo Governorate, Egypt", "lat": 30.089737, "lng": 31.320604, "types": ["home_goods_store", "point_of_interest", "store", "establishment"], "place_id": "ChIJL7x8ECY-WBQRoiGbMx7vldE"}, {"name": "Child World", "formatted_address": "9 Ibrahim Al Lakani, El-Montaza, Heliopolis, Cairo Governorate, Egypt", "lat": 30.0915033, "lng": 31.3186649, "types": ["point_of_interest", "clothing_store", "store", "establishment"], "place_id": "ChIJmTE3jCg-WBQRmaK8RjQG5Lg"}, {"name": "Roxy", "formatted_address": "7ش، Ibrahim Al Lakani, روكسي، Heliopolis, Cairo Governorate, Egypt", "lat": 30.0917702, "lng": 31.3184609, "types": ["point_of_interest", "clothing_store", "store", "establishment"], "place_id": "ChIJD5s4GyY-WBQReTHW9cCWsno"}, {"name": "Koueider", "formatted_address": "19 Ibrahim Al Lakani, El-Montaza, Heliopolis, Cairo Governorate, Egypt", "lat": 30.0909272, "lng": 31.3191564, "types": ["food", "point_of_interest", "store", "establishment"], "place_id": "ChIJqbAimig-WBQR0bYuxo9fDyI"}, {"name": "Dr. Ahmed Abdel Moneim Ibrahim", "formatted_address": "17 ش Ibrahim Al Lakani, El-Montaza, Heliopolis, Cairo Governorate, Egypt", "lat": 30.090248, "lng": 31.320122, "types": ["doctor", "health", "point_of_interest", "establishment"], "place_id": "ChIJp-gDECY-WBQRzJ0TWzqrI60"}, {"name": "قطونيل", "formatted_address": "3 Ibrahim Al Lakani, El-Montaza, Heliopolis, Cairo Governorate, Egypt", "lat": 30.0922055, "lng": 31.317275, "types": ["point_of_interest", "clothing_store", "store", "establishment"], "place_id": "ChIJdUHyiig-WBQRzDIe5tYBUhQ"}, {"name": "Magic", "formatted_address": "22 Ibrahim Al Lakani, El-Montaza, Heliopolis, Cairo Governorate, Egypt", "lat": 30.0900313, "lng": 31.3204747, "types": ["restaurant", "food", "point_of_interest", "establishment"], "place_id": "ChIJTRE0HyY-WBQRLrBUIKTonCw"}, {"name": "Carina Et", "formatted_address": "5 Ibrahim Al Lakani, El-Montaza, Heliopolis, Cairo Governorate, Egypt", "lat": 30.0933384, "lng": 31.3166226, "types": ["shoe_store", "point_of_interest", "store", "establishment"], "place_id": "ChIJ8c6MsSk-WBQRVsZLhZ8pGOg"}, {"name": "عيادة الألم بروفيسور أ.د.هانئ ابراهيم", "formatted_address": "شارع إبراهيم اللقاني،مصر الجديدة،قسم مصر الجديدة، القاهرة، Heliopolis, Cairo Governorate 11757, Egypt", "lat": 30.0924471, "lng": 31.3165902, "types": ["doctor", "health", "point_of_interest", "establishment"], "place_id": "ChIJh16zBik-WBQR8DP7W9lBDTU"}, {"name": "touch wood elogail", "formatted_address": "El-Montaza, Cairo Governorate, Egypt", "lat": 30.0915366, "lng": 31.3186331, "types": ["point_of_interest", "clothing_store", "store", "establishment"], "place_id": "ChIJ6SpUEj4_WBQR_X65dyOObRk"}, {"name": "أ.د إيهاب حامد", "formatted_address": "11 Ibrahim Al Lakani, El-Montaza, Heliopolis, Cairo Governorate, Egypt", "lat": 30.0913516, "lng": 31.3188504, "types": ["doctor", "health", "point_of_interest", "establishment"], "place_id": "ChIJA9zhkSg-WBQR_o8xWP_ePxg"}, {"name": "Misr Life Insurance", "formatted_address": "3 Boutros Ghaly, El-Montaza, Heliopolis, Cairo Governorate, Egypt", "lat": 30.0912593, "lng": 31.3195253, "types": ["insurance_agency", "point_of_interest", "establishment"], "place_id": "ChIJXdJMmyg-WBQR-ce_En1gxyQ"}, {"name": "Zikry Pharmacies صيدليــات زكــرى‎", "formatted_address": "4 Dr Sayed Abd El-Wahid, El-Montaza, Heliopolis, Cairo Governorate, Egypt", "lat": 30.09171809999999, "lng": 31.319868, "types": ["pharmacy", "health", "point_of_interest", "store", "establishment"], "place_id": "ChIJ_____yY-WBQRUsjeqy1GOIc"}, {"name": "Banque du Caire", "formatted_address": "53 Ali El-Rouby, El-Montaza, Heliopolis, Cairo Governorate, Egypt", "lat": 30.0923949, "lng": 31.3156693, "types": ["bank", "finance", "point_of_interest", "establishment"], "place_id": "ChIJr-NIcyk-WBQR_xIqlkQiFBo"}, {"name": "Alexandria Bank", "formatted_address": "14 Ibrahim El Laqqany St.، El-Montaza, Heliopolis, Cairo Governorate, Egypt", "lat": 30.091419, "lng": 31.319262, "types": ["atm", "finance", "point_of_interest", "establishment"], "place_id": "ChIJp-gDECY-WBQRXITZ412HsYI"}, {"name": "cai med polyclinic", "formatted_address": "1 سليمان السعيد، El-Montaza, Heliopolis, Cairo Governorate 11757, Egypt", "lat": 30.093363, "lng": 31.31578099999999, "types": ["health", "point_of_interest", "establishment"], "place_id": "ChIJB3mIlf4_WBQRIlhVeJM6qWo"}]