[{"name": "Ittihadia Palace", "formatted_address": "Al Nadi، El-Montaza, Heliopolis, Cairo Governorate, Egypt", "lat": 30.0888643, "lng": 31.3193929, "types": ["tourist_attraction", "premise", "point_of_interest", "establishment"], "place_id": "ChIJuftqUS8-WBQRtM7fDk0QcPk"}, {"name": "Lemsyon", "formatted_address": "Al Montazah, Heliopolis, Cairo Governorate, Egypt", "lat": 30.0968153, "lng": 31.3140435, "types": ["point_of_interest", "establishment"], "place_id": "ChIJH5Fds4AVWBQR6d73rzNivbc"}, {"name": "Our Lady of Heliopolis Co-Cathedral", "formatted_address": "Nazih Khalifa crossroad، Al Ahram, Heliopolis, Cairo Governorate, Egypt", "lat": 30.0935707, "lng": 31.3251828, "types": ["church", "place_of_worship", "point_of_interest", "establishment"], "place_id": "ChIJJdgh-okVWBQR5TqTmKuQ0IM"}, {"name": "Why Not Advertising", "formatted_address": "17 ش الفتح، Ain Shams Sharkeya, Heliopolis, Cairo Governorate, Egypt", "lat": 30.096209, "lng": 31.3150114, "types": ["point_of_interest", "establishment"], "place_id": "ChIJ46bi4zgUWBQRAcsFJheRkwc"}, {"name": "Kangs World Egypt", "formatted_address": "3 ش السعادة، El-Montaza, Heliopolis, Cairo Governorate, Egypt", "lat": 30.0954913, "lng": 31.3142773, "types": ["point_of_interest", "establishment"], "place_id": "ChIJQ_cs_yk-WBQRdSJ2l6GJnBs"}, {"name": "متحف القوات الجوية المصرية", "formatted_address": "Sheraton Al Matar, El Nozha, Cairo Governorate, Egypt", "lat": 30.0970833, "lng": 31.3526919, "types": ["museum", "tourist_attraction", "point_of_interest", "establishment"], "place_id": "ChIJnxbZwOIVWBQRb_Jw3qPqz7E"}, {"name": "Al Nozha Information Technology", "formatted_address": "1 ش السعادة، El-Montaza, Heliopolis, Cairo Governorate, Egypt", "lat": 30.0954913, "lng": 31.3142773, "types": ["point_of_interest", "establishment"], "place_id": "ChIJQ_cs_yk-WBQRkEOA7Iez6DA"}, {"name": "Technosat For Receivers & Domestic Appliances", "formatted_address": "7 El Saada St.، El-Montaza, Heliopolis, Cairo Governorate, Egypt", "lat": 30.095572, "lng": 31.314439, "types": ["point_of_interest", "establishment"], "place_id": "ChIJQ_cs_yk-WBQRjoeccX-ZMtg"}, {"name": "ستار باكس", "formatted_address": "2 Nehro, El-Montaza, Heliopolis, Cairo Governorate, Egypt", "lat": 30.0968871, "lng": 31.3152674, "types": ["point_of_interest", "establishment"], "place_id": "ChIJsahEP4cVWBQRE9d4Dr87fmU"}, {"name": "Heliopolis apartment company alexandria", "formatted_address": "7 El Andalus, El-Montaza, Heliopolis, Cairo Governorate, Egypt", "lat": 30.0975817, "lng": 31.3151614, "types": ["point_of_interest", "establishment"], "place_id": "ChIJS5XzskkVWBQRidDiNWwNSbE"}, {"name": "Pink", "formatted_address": "3 El-Saada, El-Montaza, Heliopolis, Cairo Governorate, Egypt", "lat": 30.094802, "lng": 31.315063, "types": ["point_of_interest", "establishment"], "place_id": "ChIJ-wyUFY9AWBQRaU1OOFgP85w"}, {"name": "KFC", "formatted_address": "Gesr Al Suez, El-Montaza, Heliopolis, Cairo Governorate, Egypt", "lat": 30.09789169999999, "lng": 31.314289, "types": ["restaurant", "food", "point_of_interest", "establishment"], "place_id": "ChIJ3SAkLYcVWBQRjY3gDCnstHM"}, {"name": "International For Securities", "formatted_address": "1 El Saada St.، El-Montaza, Heliopolis, Cairo Governorate, Egypt", "lat": 30.0954913, "lng": 31.3142773, "types": ["point_of_interest", "establishment"], "place_id": "ChIJQ_cs_yk-WBQRXsCMy8BiucI"}, {"name": "The Egyptian Museum", "formatted_address": "شارع ماريت باشا، ميدان التحرير، Egypt", "lat": 30.0475781, "lng": 31.23361389999999, "types": ["museum", "tourist_attraction", "point_of_interest", "establishment"], "place_id": "ChIJw741VYhBWBQRD2Z6OiulDVI"}, {"name": "Bouka For Industry & Development", "formatted_address": "4 Nehro St.، El-Montaza, Heliopolis, Cairo Governorate, Egypt", "lat": 30.0970224, "lng": 31.3154078, "types": ["point_of_interest", "establishment"], "place_id": "ChIJZxpyDYYVWBQRd-iBaRlHwCE"}, {"name": "برج الميرلاند", "formatted_address": "El-Fath, El-Montaza, Heliopolis, Cairo Governorate, Egypt", "lat": 30.0964269, "lng": 31.3148928, "types": ["point_of_interest", "establishment"], "place_id": "ChIJrY5wRYcVWBQRVLMD9HYtzBY"}, {"name": "منتزة مصر الجديده الميريلاند", "formatted_address": "الفتح، المنتزه، قسم مصر الجديدة،، Cairo Governorate, Egypt", "lat": 30.0955114, "lng": 31.315665, "types": ["restaurant", "food", "point_of_interest", "establishment"], "place_id": "ChIJOWXrwIQVWBQRN0C2Bmf1gCY"}, {"name": "Industrial Services Center - DATCO", "formatted_address": "78 الملتقى العربى - شيراتون -القاهرة،، Cairo Governorate, Egypt", "lat": 30.0958309, "lng": 31.3147439, "types": ["point_of_interest", "establishment"], "place_id": "ChIJI6ChV4cVWBQRk8GIu9VO4k8"}, {"name": "إدارة المرافق", "formatted_address": "8 الفتح، المنتزه، قسم مصر الجديدة، محافظة القاهرة‬،، Egypt", "lat": 30.0957234, "lng": 31.3144762, "types": ["point_of_interest", "establishment"], "place_id": "ChIJRb7kzSU_WBQRFrP1IkdjlZ8"}, {"name": "MEED - Middle East Economic Development", "formatted_address": "6 El Saada St.، El-Montaza, Heliopolis, Cairo Governorate, Egypt", "lat": 30.0963, "lng": 31.3134, "types": ["point_of_interest", "establishment"], "place_id": "ChIJXZAhqYAVWBQRKjdkfjpCalk"}, {"name": "مسجد حسين باشا فهمى", "formatted_address": "Gesr Al Suez, El-Montaza, Heliopolis, Cairo Governorate, Egypt", "lat": 30.0978413, "lng": 31.31355039999999, "types": ["mosque", "place_of_worship", "point_of_interest", "establishment"], "place_id": "ChIJb6Owz4AVWBQRT3iIGISf5mM"}, {"name": "3llama Constructions", "formatted_address": "14 EL-magd Street, Roxy, Misr El-gedida، Egypt", "lat": 30.0958876, "lng": 31.3130207, "types": ["general_contractor", "point_of_interest", "establishment"], "place_id": "ChIJa6XnCyo-WBQRHG8uQAYbuWE"}, {"name": "Salah Al-Din Al-Ayoubi Castle, Salah Salem Street, Cairo", "formatted_address": "Salah Salem St, Al Abageyah, El-Khalifa, Cairo Governorate, Egypt", "lat": 30.0290436, "lng": 31.2594688, "types": ["point_of_interest", "establishment"], "place_id": "ChIJY-3CkKxAWBQRby736eSW2y8"}, {"name": "Merryland Specialized Hospital", "formatted_address": "El-Montaza, Heliopolis, Cairo Governorate, Egypt", "lat": 30.0978091, "lng": 31.3142568, "types": ["hospital", "health", "point_of_interest", "establishment"], "place_id": "ChIJAbdvLYcVWBQROUiWTznqjSE"}, {"name": "Heliopolis Seventh-day Adventist Church", "formatted_address": "القبه، El-Montaza, Heliopolis, Cairo Governorate, Egypt", "lat": 30.0941495, "lng": 31.3136432, "types": ["church", "place_of_worship", "point_of_interest", "establishment"], "place_id": "ChIJY011KCo-WBQRaeY8phOmL6s"}, {"name": "Starbucks", "formatted_address": "Nehro, Street, Cairo Governorate, Egypt", "lat": 30.0968683, "lng": 31.31468, "types": ["cafe", "food", "point_of_interest", "store", "establishment"], "place_id": "ChIJK7-Ox7ZBWBQRTBFp7ZEzHSY"}, {"name": "Seven K", "formatted_address": "8 El-Fath, El-Montaza, Heliopolis, Cairo Governorate, Egypt", "lat": 30.0958695, "lng": 31.3146904, "types": ["point_of_interest", "store", "establishment"], "place_id": "ChIJ2030UIcVWBQRNBGqfoeE9Hg"}, {"name": "Alkhyyal ACP Company", "formatted_address": "٩١ شارع، Gesr Al Suez, Egypt", "lat": 30.0976214, "lng": 31.3138635, "types": ["point_of_interest", "establishment"], "place_id": "ChIJ48bVRnoVWBQRVAPdSHyLMsU"}, {"name": "Mina Mark", "formatted_address": "متفرع من, 23 July, El-Montaza, Heliopolis, Egypt", "lat": 30.0967581, "lng": 31.3143088, "types": ["lodging", "point_of_interest", "establishment"], "place_id": "ChIJCyF-TIcVWBQRBvUB99IoQsw"}, {"name": "الكنيسة الانجيلية بسراي القبة", "formatted_address": "Gesr Al Suez, El-Montaza, Heliopolis, Cairo Governorate, Egypt", "lat": 30.0967138, "lng": 31.3128667, "types": ["church", "place_of_worship", "point_of_interest", "establishment"], "place_id": "ChIJZVAfvYAVWBQRquE4rhJPeXI"}, {"name": "Zack's Fried Chicken - Roxy", "formatted_address": "27 El-Qobba, Mansheya El-Bakry, Heliopolis, Cairo Governorate, Egypt", "lat": 30.0936544, "lng": 31.3136877, "types": ["restaurant", "food", "point_of_interest", "establishment"], "place_id": "ChIJWXzoJFY_WBQRSoVnTl_-v5U"}, {"name": "شركة كاد لإدارة المنشآت التجارية", "formatted_address": "12 شارع نهرو، خلف المريلاند، الدور الثاني، شقة 22 المنتزه قسم مصر الجديدة، 11351, Egypt", "lat": 30.0975529, "lng": 31.3159436, "types": ["point_of_interest", "establishment"], "place_id": "ChIJK7Qs_zsVWBQRoR6NbPX5dS8"}, {"name": "سنتر شارع السعادة لتعليم الموسيقي", "formatted_address": "91 جسر السويس، المنتزه، قسم مصر الجديدة،، Cairo Governorate, Egypt", "lat": 30.0977923, "lng": 31.3139858, "types": ["school", "point_of_interest", "establishment"], "place_id": "ChIJj7dYGCIVWBQR8I_jNKmjs_A"}, {"name": "The Jungle Advertising Agency", "formatted_address": "4 Nehro, street, Heliopolis, Cairo Governorate 11757, Egypt", "lat": 30.0969951, "lng": 31.3151569, "types": ["point_of_interest", "establishment"], "place_id": "ChIJy0A5V3QVWBQRTFdJiJvUZkg"}, {"name": "New Selection For Real Estate", "formatted_address": "5 عمارات عثمان شارع السعادة - امام المريلاند روكسى مصر الجديدة، Cairo Governorate, Egypt", "lat": 30.0952512, "lng": 31.3144235, "types": ["real_estate_agency", "point_of_interest", "establishment"], "place_id": "ChIJpTyhKZk_WBQRA6Rih78gxDc"}, {"name": "Egypt Field of Seventh-day Adventists", "formatted_address": "El-Montaza, Heliopolis, Cairo Governorate, Egypt", "lat": 30.09440249999999, "lng": 31.3133401, "types": ["church", "place_of_worship", "point_of_interest", "establishment"], "place_id": "ChIJn1xcOyo-WBQRpUHs9lxU32M"}, {"name": "Mosque of Muhammad Ali", "formatted_address": "Al Abageyah, El-Khalifa, Cairo Governorate, Egypt", "lat": 30.0287015, "lng": 31.25991059999999, "types": ["mosque", "tourist_attraction", "place_of_worship", "point_of_interest", "establishment"], "place_id": "ChIJn1b3gKpAWBQRbsg1WfPe1NA"}, {"name": "SAS OFFICE", "formatted_address": "1 El-Fath, El-Montaza, Heliopolis, Cairo Governorate 11757, Egypt", "lat": 30.0968643, "lng": 31.3146865, "types": ["point_of_interest", "establishment"], "place_id": "ChIJv5it0MAVWBQRwwYKd4DrpYQ"}, {"name": "Rashdan", "formatted_address": "6 ش الاثري محمد بن نافع - هليوبلس - مصر الجديده - خلف حديقة الميلارند Al، El-Montaza, Heliopolis, Cairo Governorate, Egypt", "lat": 30.0961792, "lng": 31.3146732, "types": ["home_goods_store", "point_of_interest", "store", "establishment"], "place_id": "ChIJEXt_WocVWBQRmYp1Bpn6Mlk"}, {"name": "Alwan Stationery Store - Misr El Gadeeda", "formatted_address": "المنتزه، قسم مصر الجديدة،، Cairo Governorate, Egypt", "lat": 30.0954864, "lng": 31.3163017, "types": ["point_of_interest", "store", "establishment"], "place_id": "ChIJC17d8_4VWBQRMf7zXGjlP4A"}, {"name": "Company Moon Philly", "formatted_address": "2 El-Saada, El-Montaza, Heliopolis, Cairo Governorate, Egypt", "lat": 30.0946291, "lng": 31.3151605, "types": ["shopping_mall", "point_of_interest", "establishment"], "place_id": "ChIJGb4k7Ck-WBQRPbqZqQqiyiY"}, {"name": "Dr. Mohammed Ibrahim", "formatted_address": "4 Al Akbal, El-Montaza, Heliopolis, Cairo Governorate, Egypt", "lat": 30.0963443, "lng": 31.3140113, "types": ["dentist", "health", "point_of_interest", "establishment"], "place_id": "ChIJ5ae0eP8VWBQRtrprLQMnsPY"}, {"name": "Heliolido Club", "formatted_address": "ش Al Maahad Eshtraki, El-Montaza, Heliopolis, Cairo Governorate, Egypt", "lat": 30.0947827, "lng": 31.314453, "types": ["point_of_interest", "establishment"], "place_id": "ChIJT-7Tk4cVWBQRsVhVdJCc9WM"}, {"name": "مجموعة زهران", "formatted_address": "2 متفرع من، El Hegaz St, El-Montaza, Heliopolis, Cairo Governorate, Egypt", "lat": 30.0952796, "lng": 31.3155087, "types": ["home_goods_store", "point_of_interest", "store", "establishment"], "place_id": "ChIJg8tN5yk-WBQREqewSe8WmkE"}, {"name": "Ceramica Cleopatra", "formatted_address": "8 El-Fath, El-Montaza, Heliopolis, Cairo Governorate, Egypt", "lat": 30.0958698, "lng": 31.3146906, "types": ["home_goods_store", "point_of_interest", "store", "establishment"], "place_id": "ChIJu4Hf4Ck-WBQRFR_I-lUODrk"}, {"name": "كاير زون", "formatted_address": "7 شارع المعالي الدور الأرضي شقة 1 - روكسي - هليوبوليس، 7 Al Maali, El-Montaza, Heliopolis, Cairo Governorate, Egypt", "lat": 30.0952873, "lng": 31.3123313, "types": ["point_of_interest", "establishment"], "place_id": "ChIJ90D8ayo-WBQRrihjq_ehlnc"}, {"name": "Undersecretary Mohammed Abdul Jalil Office", "formatted_address": "خلف الميرلاند، 2 Nehro, El-Montaza, Heliopolis, Cairo Governorate, Egypt", "lat": 30.0972066, "lng": 31.31552199999999, "types": ["point_of_interest", "establishment"], "place_id": "ChIJ830ZFocVWBQRK41BYdq3M-Q"}, {"name": "Royal House", "formatted_address": "6 ش الاثرى بن نافع، El-Montaza, Heliopolis, Cairo Governorate, Egypt", "lat": 30.0958122, "lng": 31.3149763, "types": ["supermarket", "grocery_or_supermarket", "food", "point_of_interest", "store", "establishment"], "place_id": "ChIJ_8AENCg-WBQR8eMekNDJxFU"}, {"name": "workout Eagles", "formatted_address": "Merryland park, Higaz st، الميريلاند، El Hegaz St, Cairo Governorate, Egypt", "lat": 30.0955863, "lng": 31.31578159999999, "types": ["bar", "point_of_interest", "establishment"], "place_id": "ChIJLUDlz_oVWBQRG6NvBfiHhgE"}, {"name": "Cleopatra", "formatted_address": "9 El-Saada, El-Montaza, Heliopolis, Cairo Governorate, Egypt", "lat": 30.0953634, "lng": 31.3149051, "types": ["home_goods_store", "point_of_interest", "store", "establishment"], "place_id": "ChIJ_1cO3ik-WBQRuNT6SYbMzO0"}, {"name": "السراج للمقاولات والتطوير العقاري", "formatted_address": "شارع Gesr Al Suez, روكس،مصر الجديدة ،قسم، Heliopolis, Cairo Governorate, Egypt", "lat": 30.0962783, "lng": 31.3124231, "types": ["real_estate_agency", "general_contractor", "point_of_interest", "establishment"], "place_id": "ChIJhZr0dSo-WBQRo_TJSq1WsSI"}, {"name": "Captain Tours", "formatted_address": "81 Gesr Al Suez, El-Montaza, Heliopolis, Cairo Governorate, Egypt", "lat": 30.0966055, "lng": 31.3128003, "types": ["travel_agency", "point_of_interest", "establishment"], "place_id": "ChIJGcL8uTUXWBQRp5DojJHzLA0"}, {"name": "ELSHAHBNDER. 8XL", "formatted_address": "شارع جسر السويس، مصر الجديدة،، Heliopolis, Egypt", "lat": 30.0977533, "lng": 31.3143124, "types": ["clothing_store", "point_of_interest", "store", "establishment"], "place_id": "ChIJYTeALYcVWBQRdd9c_Q2HzLA"}, {"name": "Blend Furniture-Heliopolis Store", "formatted_address": "Behind Merryland 32 Nehro Cairo, 19534, Egypt", "lat": 30.0991526, "lng": 31.3177951, "types": ["furniture_store", "home_goods_store", "point_of_interest", "store", "establishment"], "place_id": "ChIJfzfCboYVWBQRCiEPM1rIP0I"}, {"name": "الجزيرة للحيونات الاليفه", "formatted_address": "٩٠ شارع جسر السويس القاهره مصر الجديده امام مستشفى الميريلاند وكنتاكي مباشره، Egypt", "lat": 30.0978764, "lng": 31.3136054, "types": ["point_of_interest", "store", "establishment"], "place_id": "ChIJQfOxd7sVWBQRt08qF6L-X-w"}, {"name": "Citystars Heliopolis", "formatted_address": "Citystars, Cairo Governorate 11771, Egypt", "lat": 30.0728734, "lng": 31.3458082, "types": ["shopping_mall", "point_of_interest", "establishment"], "place_id": "ChIJo0ecE_gVWBQRGGrouhZFdME"}, {"name": "دراى كلين الحرية", "formatted_address": "شارع جسر السويس، مصر الجديدة،، Heliopolis, Cairo Governorate, Egypt", "lat": 30.0979451, "lng": 31.3144978, "types": ["laundry", "point_of_interest", "establishment"], "place_id": "ChIJs8qhLocVWBQR6KEgswyl4Gc"}, {"name": "Starbucks Coffee", "formatted_address": "El-Fath, El-Montaza, Heliopolis, Cairo Governorate, Egypt", "lat": 30.0968698, "lng": 31.3146692, "types": ["cafe", "food", "point_of_interest", "store", "establishment"], "place_id": "ChIJZaF4SYcVWBQRc00V0hW8StQ"}, {"name": "العبد اون لاين مصر الجديدة", "formatted_address": "نهرو، المنتزه، قسم مصر الجديدة،، المنتزه، قسم مصر الجديدة، محافظة القاهرة‬،، Egypt", "lat": 30.0968797, "lng": 31.3155939, "types": ["food", "point_of_interest", "store", "establishment"], "place_id": "ChIJBZUiqG0VWBQRgRaK1eSMWVU"}, {"name": "مينا إيجيبت", "formatted_address": "77 ش جسر السويس، El-Montaza, Heliopolis, Cairo Governorate, Egypt", "lat": 30.096285, "lng": 31.312323, "types": ["point_of_interest", "store", "establishment"], "place_id": "ChIJ2wRCc6MVWBQRosfiCemuk9E"}]