[{"name": "El Bostan", "formatted_address": "Al Bustan, Heliopolis, Cairo Governorate, Egypt", "lat": 30.0998066, "lng": 31.3308302, "types": ["point_of_interest", "establishment"], "place_id": "ChIJp4AiLo0VWBQRV9hMD5eKzR0"}, {"name": "El-Bostan", "formatted_address": "El-Bostan, Heliopolis, Cairo Governorate, Egypt", "lat": 30.0998626, "lng": 31.3284285, "types": ["administrative_area_level_3", "political"], "place_id": "ChIJmfgMq40VWBQRhBKcnqHJ8Is"}, {"name": "Tours Around Egypt", "formatted_address": "البستان، قسم مصر الجديدة،، Cairo Governorate, Egypt", "lat": 30.0999315, "lng": 31.3282784, "types": ["travel_agency", "point_of_interest", "establishment"], "place_id": "ChIJ6VQwrcAVWBQRQ7Be9pPD9Rw"}, {"name": "Our Lady of Heliopolis Co-Cathedral", "formatted_address": "Nazih Khalifa crossroad، Al Ahram, Heliopolis, Cairo Governorate, Egypt", "lat": 30.0935707, "lng": 31.3251828, "types": ["church", "place_of_worship", "point_of_interest", "establishment"], "place_id": "ChIJJdgh-okVWBQR5TqTmKuQ0IM"}, {"name": "Balcon Heliopolis", "formatted_address": "26 Sohag, El-Bostan, Heliopolis, Cairo Governorate, Egypt", "lat": 30.0994071, "lng": 31.3324821, "types": ["point_of_interest", "establishment"], "place_id": "ChIJVQnP3PIVWBQR-BFcoaXdkc0"}, {"name": "Ieeextreme Egypt", "formatted_address": "6 Abou Keer, El-Bostan, Heliopolis, Cairo Governorate, Egypt", "lat": 30.09971089999999, "lng": 31.3286375, "types": ["point_of_interest", "establishment"], "place_id": "ChIJZT1J_owVWBQRmL8RuMElNv8"}, {"name": "Al Kholafaa Al Rashdeen Mosque", "formatted_address": "El Hegaz St, El-Bostan, Heliopolis, Cairo Governorate, Egypt", "lat": 30.1010215, "lng": 31.3243996, "types": ["mosque", "place_of_worship", "point_of_interest", "establishment"], "place_id": "ChIJufJ9io4VWBQRRErdNLAMvpM"}, {"name": "Negmet Heliopolis", "formatted_address": "5 ش الرملة متفرع من اسماعيل رمزى, Al Gamea Sq., Heliopolis, Cairo Governorate, Egypt", "lat": 30.09536009999999, "lng": 31.3288131, "types": ["supermarket", "grocery_or_supermarket", "food", "point_of_interest", "store", "establishment"], "place_id": "ChIJ4fyiDosVWBQR_9nQVlRtOVQ"}, {"name": "Gezart Elsheikh", "formatted_address": "Aswan, El-Bostan, Heliopolis, Cairo Governorate, Egypt", "lat": 30.1000861, "lng": 31.3277738, "types": ["point_of_interest", "establishment"], "place_id": "ChIJZ9L7wF4VWBQRk2z_UNkHrWc"}, {"name": "El Ekhwa", "formatted_address": "29 Damanhour, El-Bostan, Heliopolis, Cairo Governorate, Egypt", "lat": 30.1007752, "lng": 31.3310425, "types": ["point_of_interest", "establishment"], "place_id": "ChIJj_XaS40VWBQRpyTZlViXwtw"}, {"name": "El Bostan Market", "formatted_address": "6 Off Haroun El Rashid St.، El-Bostan, Heliopolis, Cairo Governorate, Egypt", "lat": 30.099551, "lng": 31.330621, "types": ["grocery_or_supermarket", "food", "point_of_interest", "store", "establishment"], "place_id": "ChIJ5UW7KI0VWBQRSo0Zo0dm0yI"}, {"name": "El Badrawy Sons", "formatted_address": "ش 144، El-Bostan, Heliopolis, Cairo Governorate, Egypt", "lat": 30.1000004, "lng": 31.3283183, "types": ["point_of_interest", "establishment"], "place_id": "ChIJ3yXsqo0VWBQRoFOpvvepkbc"}, {"name": "هانى رمزى للعدادات", "formatted_address": "33 شارع اسوان، البستان، قسم مصر الجديدة،، Cairo Governorate, Egypt", "lat": 30.0996753, "lng": 31.3274351, "types": ["point_of_interest", "establishment"], "place_id": "ChIJ-eoxHYcVWBQR7IUccIlP8cY"}, {"name": "مركز هانى لاصلاح عدادات السيارات", "formatted_address": "شارع أبو قير، البستان، قسم مصر الجديدة، القاهره، Cairo Governorate, Egypt", "lat": 30.10035999999999, "lng": 31.3279777, "types": ["shopping_mall", "point_of_interest", "establishment"], "place_id": "ChIJhz5Zj3QVWBQRDPDQG_lr1_U"}, {"name": "Max Fashion, Al-Hegaz st, Heliopolis,Cairo", "formatted_address": "El Hegaz St, El-Bostan, Heliopolis, Cairo Governorate, Egypt", "lat": 30.0984072, "lng": 31.3228241, "types": ["clothing_store", "point_of_interest", "store", "establishment"], "place_id": "ChIJuTPyxI4VWBQRbTsZYCNfBAI"}, {"name": "Hajoo Designs", "formatted_address": "Aswan, El-Bostan, Heliopolis, Cairo Governorate, Egypt", "lat": 30.1001404, "lng": 31.3277941, "types": ["point_of_interest", "establishment"], "place_id": "ChIJZftsrY0VWBQRyoslBPkTz3E"}, {"name": "British Council", "formatted_address": "4 Minya, El-Bostan, Heliopolis, Cairo Governorate, Egypt", "lat": 30.0959119, "lng": 31.3236016, "types": ["point_of_interest", "establishment"], "place_id": "ChIJz8iNp4kVWBQRdB9ba3Xvh0M"}, {"name": "ميدان الجامع", "formatted_address": "Al Gamea Sq., El-Bostan, Heliopolis, Cairo Governorate, Egypt", "lat": 30.0967986, "lng": 31.3284471, "types": ["point_of_interest", "establishment"], "place_id": "ChIJm2mEeIsVWBQRCjnDXHwgOjs"}, {"name": "El Shabrawy", "formatted_address": "16 Al Gamea Sq Heliopolis، Cairo Governorate, Egypt", "lat": 30.0964727, "lng": 31.3276541, "types": ["restaurant", "food", "point_of_interest", "establishment"], "place_id": "ChIJm2mEeIsVWBQRBWg3IbX8pjU"}, {"name": "Friends", "formatted_address": "البستان، قسم مصر الجديدة،، Cairo Governorate, Egypt", "lat": 30.1010184, "lng": 31.3280464, "types": ["point_of_interest", "establishment"], "place_id": "ChIJSdRDOM0VWBQRB-t607jAWKk"}, {"name": "Berlitz Language Center-Heliopolis", "formatted_address": "Luxor, El-Bostan, Heliopolis, Cairo Governorate, Egypt", "lat": 30.0963737, "lng": 31.3262156, "types": ["school", "point_of_interest", "establishment"], "place_id": "ChIJa029i_0VWBQRtpFxO_PbZRk"}, {"name": "Abou Qir Center", "formatted_address": "1 off haroun el rashid st.، El-Bostan, Heliopolis, Cairo Governorate, Egypt", "lat": 30.099593, "lng": 31.328936, "types": ["point_of_interest", "establishment"], "place_id": "ChIJ_QWWbhIVWBQREdn7ouC7bDI"}, {"name": "شارع اسماعيل رمزي باشا", "formatted_address": "50 الإمام علي، البستان، قسم مصر الجديدة، محافظة القاهرة‬،، Egypt", "lat": 30.0982, "lng": 31.3303, "types": ["point_of_interest", "establishment"], "place_id": "ChIJsUy-TFwVWBQR1iJbgmikzFM"}, {"name": "Compu Used", "formatted_address": "Al Mataria, El-Bostan, Heliopolis, Cairo Governorate, Egypt", "lat": 30.0996054, "lng": 31.3279493, "types": ["point_of_interest", "establishment"], "place_id": "ChIJk4ZuUYwVWBQRJndjmmu38zs"}, {"name": "El Asema Hospital Heliopolis", "formatted_address": "12 Shebeen, El-Bostan, Heliopolis, Cairo Governorate, Egypt", "lat": 30.0960332, "lng": 31.3307213, "types": ["hospital", "health", "point_of_interest", "establishment"], "place_id": "ChIJ58RJTIsVWBQRT0Oog1-ibwA"}, {"name": "AGB", "formatted_address": "6 Abo Qir Street Heliopolis، Cairo Governorate 11351, Egypt", "lat": 30.1001431, "lng": 31.3279572, "types": ["point_of_interest", "establishment"], "place_id": "ChIJxdc9WosVWBQRbSP1B5tXB-Y"}, {"name": "Beirut", "formatted_address": "Al Mataria, El-Bostan, Heliopolis, Cairo Governorate, Egypt", "lat": 30.0999512, "lng": 31.3283028, "types": ["point_of_interest", "establishment"], "place_id": "ChIJ3yXsqo0VWBQRmdeIM2GVLPQ"}, {"name": "شارع هارون مصر الجديدة - Haroun Street Heliopolis", "formatted_address": "43-45 Abou Bakr El-Sedeek, El-Bostan, Heliopolis, Cairo Governorate, Egypt", "lat": 30.1012259, "lng": 31.3322984, "types": ["shopping_mall", "point_of_interest", "establishment"], "place_id": "ChIJf4zEpvIVWBQRSSrLyqFS-NI"}, {"name": "big mo travel", "formatted_address": "Aswan, El-Bostan, Heliopolis, Cairo Governorate, Egypt", "lat": 30.1000862, "lng": 31.3277738, "types": ["point_of_interest", "establishment"], "place_id": "ChIJnw60_e4VWBQRNaar6RB3Plg"}, {"name": "Capital Hospital Heliopolis", "formatted_address": "ميدان صلاح الدين، El-Bostan, Heliopolis, Cairo Governorate, Egypt", "lat": 30.0956967, "lng": 31.3309065, "types": ["hospital", "health", "point_of_interest", "establishment"], "place_id": "ChIJ-UxPTIsVWBQRtB4WWX5rP_Y"}, {"name": "El Sharqawy", "formatted_address": "30 ش المطرية، El-Bostan, Heliopolis, Cairo Governorate, Egypt", "lat": 30.1000004, "lng": 31.3283183, "types": ["point_of_interest", "establishment"], "place_id": "ChIJ3yXsqo0VWBQRKZin8rXTKQ0"}, {"name": "معهد مصر الجديدة أسوان الابتدائي", "formatted_address": "شارع اسوان، البستان، قسم مصر الجديدة،، Cairo Governorate, Egypt", "lat": 30.1007782, "lng": 31.3286144, "types": ["primary_school", "school", "point_of_interest", "establishment"], "place_id": "ChIJ-5PBgR8VWBQRIdhwWm0Qwwk"}, {"name": "El Mashour", "formatted_address": "2 Al Gamea Sq., El-Bostan, Heliopolis, Cairo Governorate, Egypt", "lat": 30.0955307, "lng": 31.3277893, "types": ["point_of_interest", "establishment"], "place_id": "ChIJoSRDpYsVWBQRj09WXbVse08"}, {"name": "Middle East", "formatted_address": "6 ش Abd Al Hamid Abou Hief, El-Bostan, Heliopolis, Cairo Governorate, Egypt", "lat": 30.1005231, "lng": 31.329953, "types": ["point_of_interest", "establishment"], "place_id": "ChIJl2dAPo0VWBQRR610mNAefgA"}, {"name": "Telecom Egypt - Heliopolis Central", "formatted_address": "144a Gesr Al Suez, El-Bostan, Heliopolis, Cairo Governorate, Egypt", "lat": 30.104315, "lng": 31.322306, "types": ["point_of_interest", "establishment"], "place_id": "ChIJ03RoKZAVWBQR_cyhoazfx14"}, {"name": "العزازي للطباعة", "formatted_address": "20 Damanhour, El-Bostan, Heliopolis, Cairo Governorate, Egypt", "lat": 30.0980181, "lng": 31.3294301, "types": ["point_of_interest", "establishment"], "place_id": "ChIJN7vok4wVWBQRWDTYod0D160"}, {"name": "Khedr Co.", "formatted_address": "2 ش ابو قير، El-Bostan, Heliopolis, Cairo Governorate, Egypt", "lat": 30.0997475, "lng": 31.32866929999999, "types": ["point_of_interest", "establishment"], "place_id": "ChIJG587_owVWBQRr7pX4rLOvIU"}, {"name": "TiE HOUSE", "formatted_address": "Merryland Park, 26 El Hegaz St, El-Bostan, Heliopolis, Cairo Governorate, Egypt", "lat": 30.0987802, "lng": 31.3231775, "types": ["shoe_store", "point_of_interest", "clothing_store", "store", "establishment"], "place_id": "ChIJi86qod5GWBQRcozRUEuCJp0"}, {"name": "Proff.Safwat Al3raby", "formatted_address": "27 Aswan, El-Bostan, Heliopolis, Cairo Governorate, Egypt", "lat": 30.1000376, "lng": 31.3278965, "types": ["doctor", "health", "point_of_interest", "establishment"], "place_id": "ChIJrbRFrY0VWBQR60HxtUTzWi4"}, {"name": "Il Pennello Ceramic Café & Restaurant", "formatted_address": "Omar Ibn El-Khattab, El-Bostan, Heliopolis, Cairo Governorate, Egypt", "lat": 30.100229, "lng": 31.33329, "types": ["cafe", "restaurant", "food", "point_of_interest", "establishment"], "place_id": "ChIJA9aGkfIVWBQR6C-ilXdzmvM"}, {"name": "الفارس الدولية", "formatted_address": "Aswan, El-Bostan, Heliopolis, Cairo Governorate, Egypt", "lat": 30.1007496, "lng": 31.3275036, "types": ["health", "point_of_interest", "establishment"], "place_id": "ChIJ0b_0hKkVWBQRMqtkfQIcrsk"}, {"name": "Yehia Gadou Perfumes", "formatted_address": "Abou Keer, El-Bostan, Heliopolis, Cairo Governorate, Egypt", "lat": 30.0998367, "lng": 31.3284634, "types": ["point_of_interest", "establishment"], "place_id": "ChIJr5BcVYwVWBQRif8gV3Tm3bs"}, {"name": "امارات مصر", "formatted_address": "5 عمارات الشريف، شارع اسوان، مصر الجديدة، محافظة القاهرة‬،، Egypt", "lat": 30.1009058, "lng": 31.3280873, "types": ["car_repair", "point_of_interest", "establishment"], "place_id": "ChIJZ5IW-XUVWBQRZVFrixsO79Y"}, {"name": "الشبراوي", "formatted_address": "١ عمارات الشريفًـ، شارع اسوان، البستان، مصر الجديدة، محافظة القاهرة‬،، Egypt", "lat": 30.1000862, "lng": 31.3277738, "types": ["restaurant", "food", "point_of_interest", "establishment"], "place_id": "ChIJWU69nWoVWBQRvUGvw3aYXjI"}, {"name": "Heliopolis Cooling", "formatted_address": "10 ش عثمان بن عفان، El-Bostan, Heliopolis, Cairo Governorate, Egypt", "lat": 30.094673, "lng": 31.3281248, "types": ["point_of_interest", "store", "establishment"], "place_id": "ChIJzUuMOu4VWBQRLL2LZUO16oE"}, {"name": "مطبعة العزازي", "formatted_address": "٢١، شارع ابو بكر الصديق، ميدان المحكمة، Heliopolis, Cairo Governorate 11736, Egypt", "lat": 30.103238, "lng": 31.32853849999999, "types": ["point_of_interest", "store", "establishment"], "place_id": "ChIJSTPMlowVWBQR63tcV13w6MY"}, {"name": "Algazar MG", "formatted_address": "4 عمارات الشريف شارع اسوان ميدان المحكمه، مصر الجديدة، محافظة القاهرة‬،، Egypt", "lat": 30.1000817, "lng": 31.3278847, "types": ["point_of_interest", "establishment"], "place_id": "ChIJrbRFrY0VWBQRb_-U8VzoR4I"}, {"name": "Collège du Sacré-Coeur Heliopolis", "formatted_address": "5 ش بيروت، El-Bostan, Heliopolis, Cairo Governorate, Egypt", "lat": 30.0971749, "lng": 31.3240566, "types": ["school", "point_of_interest", "establishment"], "place_id": "ChIJ2cDGBSA-WBQReaXfmpQrpKE"}, {"name": "El Kasr", "formatted_address": "70 ش المطرية، El-Bostan, Heliopolis, Cairo Governorate, Egypt", "lat": 30.1000004, "lng": 31.3283183, "types": ["point_of_interest", "establishment"], "place_id": "ChIJ3yXsqo0VWBQRm773b842SDI"}, {"name": "Baron Empain Palace", "formatted_address": "El-Orouba, El-Montaza, Heliopolis, Cairo Governorate 11757, Egypt", "lat": 30.0866701, "lng": 31.3303332, "types": ["point_of_interest", "establishment"], "place_id": "ChIJ1_GM8iE-WBQRLNVi-RT7vDA"}, {"name": "Mohammed Khaled law office/ مكتب الاستاذ محمد خالد المحامي", "formatted_address": "2nd Abo Qir street, Heliopolis, Cairo Governorate, Egypt", "lat": 30.0994286, "lng": 31.3287944, "types": ["lawyer", "point_of_interest", "establishment"], "place_id": "ChIJg61bJPkVWBQR1DJ0XVTsUvE"}, {"name": "El Fergany", "formatted_address": "55 Al Mataria, El-Bostan, Heliopolis, Cairo Governorate, Egypt", "lat": 30.0997932, "lng": 31.3281663, "types": ["supermarket", "grocery_or_supermarket", "food", "point_of_interest", "store", "establishment"], "place_id": "ChIJx2nzVIwVWBQR0OV6_PmRhG4"}, {"name": "بورتو كافية", "formatted_address": "وعادل الشربينى، السلام تمليك، Aswan, El-Bostan, Heliopolis, Cairo Governorate, Egypt", "lat": 30.1000862, "lng": 31.3277738, "types": ["point_of_interest", "establishment"], "place_id": "ChIJF5pKW5MVWBQRf5rKWvBMK4Q"}, {"name": "Orient Takaful - Heliopolis", "formatted_address": "138 El Hegaz St, El-Bostan, Heliopolis, Cairo Governorate, Egypt", "lat": 30.1027004, "lng": 31.3266167, "types": ["point_of_interest", "establishment"], "place_id": "ChIJazbUPQMVWBQRmsNw76OMvSM"}, {"name": "Kasr El Mafroshat", "formatted_address": "32 Al Mataria, El-Bostan, Heliopolis, Cairo Governorate, Egypt", "lat": 30.09992969999999, "lng": 31.3282808, "types": ["point_of_interest", "establishment"], "place_id": "ChIJ3yXsqo0VWBQRcN0ML6jDI3w"}, {"name": "Esparanza Educational Pre-School", "formatted_address": "5 متفرع من ش بيروت، El-Bostan, Heliopolis, Cairo Governorate, Egypt", "lat": 30.09605209999999, "lng": 31.3256663, "types": ["school", "point_of_interest", "establishment"], "place_id": "ChIJ2cDGBSA-WBQRL3-vsLH7Hnc"}, {"name": "شركة المصطفى للماستر بيتش", "formatted_address": "4 Aswan, El-Bostan, Heliopolis, Cairo Governorate, Egypt", "lat": 30.1017139, "lng": 31.3296604, "types": ["point_of_interest", "establishment"], "place_id": "ChIJL0-zm3MVWBQR-ie54VGvJfM"}, {"name": "Sesame Club Nursery", "formatted_address": "كوم امبو, off, court square، 8 El Hegaz St, Heliopolis, Egypt", "lat": 30.100531, "lng": 31.3263325, "types": ["school", "point_of_interest", "establishment"], "place_id": "ChIJsZYDzY0VWBQRMQ6MfeKYrU8"}, {"name": "Map Trading Agency", "formatted_address": "2 Aswan St.، El-Bostan, Heliopolis, Cairo Governorate, Egypt", "lat": 30.1001404, "lng": 31.3277941, "types": ["point_of_interest", "establishment"], "place_id": "ChIJZftsrY0VWBQRli2IWbKgN-Q"}, {"name": "Supply Bureau - Heliopolis", "formatted_address": "2 Mansoura, El-Bostan, Heliopolis, Cairo Governorate, Egypt", "lat": 30.0960267, "lng": 31.3292775, "types": ["point_of_interest", "establishment"], "place_id": "ChIJ-7jLbYsVWBQRFdYCXarehEY"}]