[{"name": "Venus Clean", "formatted_address": "2 ش يعقوب ارتين، Almazah, Heliopolis, Cairo Governorate, Egypt", "lat": 30.095053, "lng": 31.3374228, "types": ["point_of_interest", "establishment"], "place_id": "ChIJWYadU_EVWBQRBhi3YXY--yE"}, {"name": "Nabila For Antiques", "formatted_address": "2 ش يعقوب ارتين، Almazah, Heliopolis, Cairo Governorate, Egypt", "lat": 30.095053, "lng": 31.3374228, "types": ["point_of_interest", "establishment"], "place_id": "ChIJWYadU_EVWBQRM9HM2nn56NM"}, {"name": "Ittihadia Palace", "formatted_address": "Al Nadi، El-Montaza, Heliopolis, Cairo Governorate, Egypt", "lat": 30.0888643, "lng": 31.3193929, "types": ["tourist_attraction", "premise", "point_of_interest", "establishment"], "place_id": "ChIJuftqUS8-WBQRtM7fDk0QcPk"}, {"name": "Baron Empain Palace", "formatted_address": "El-Orouba, El-Montaza, Heliopolis, Cairo Governorate 11757, Egypt", "lat": 30.0866701, "lng": 31.3303332, "types": ["point_of_interest", "establishment"], "place_id": "ChIJ1_GM8iE-WBQRLNVi-RT7vDA"}, {"name": "Elslam", "formatted_address": "Almazah, Heliopolis, Cairo Governorate, Egypt", "lat": 30.096169, "lng": 31.3358384, "types": ["home_goods_store", "point_of_interest", "store", "establishment"], "place_id": "ChIJhy0b7PMVWBQRXypdjXT58oA"}, {"name": "High Quality Graphics", "formatted_address": "20 yaaqub Arteen st.، Almazah, Heliopolis, Cairo Governorate, Egypt", "lat": 30.0955204, "lng": 31.3371715, "types": ["point_of_interest", "establishment"], "place_id": "ChIJfcahV_EVWBQRZJhhbIGavns"}, {"name": "Our Lady of Heliopolis Co-Cathedral", "formatted_address": "Nazih Khalifa crossroad، Al Ahram, Heliopolis, Cairo Governorate, Egypt", "lat": 30.0935707, "lng": 31.3251828, "types": ["church", "place_of_worship", "point_of_interest", "establishment"], "place_id": "ChIJJdgh-okVWBQR5TqTmKuQ0IM"}, {"name": "Croquee For Engineering Services", "formatted_address": "18 ش يعقوب ارتين، Almazah, Heliopolis, Cairo Governorate, Egypt", "lat": 30.0963697, "lng": 31.3366989, "types": ["point_of_interest", "store", "establishment"], "place_id": "ChIJ2--3V_EVWBQR0RXDM3zkbDc"}, {"name": "Technogreen", "formatted_address": "51 A Othman Ibn Affan St, Ismailia sq, Heliopolis, Cairo, Egypt، 51A Othman Ibn Affan, Heliopolis, Cairo Governorate, Egypt", "lat": 30.0967091, "lng": 31.3361252, "types": ["point_of_interest", "establishment"], "place_id": "ChIJsSaEw_MVWBQRoDjpvGHwAE0"}, {"name": "El Amir", "formatted_address": "Almazah, Heliopolis, Cairo Governorate, Egypt", "lat": 30.0955647, "lng": 31.3366117, "types": ["point_of_interest", "establishment"], "place_id": "ChIJyeuE-_MVWBQRgKBOOWtFbAc"}, {"name": "Madam mary", "formatted_address": "25 Yakoub Artin, Almazah, Heliopolis, Cairo Governorate, Egypt", "lat": 30.094596, "lng": 31.3377669, "types": ["point_of_interest", "establishment"], "place_id": "ChIJJRC0lvkVWBQRaiJtk-mKv6E"}, {"name": "مكتب تموين مصر الجديدة", "formatted_address": "14 Yakoub Artin, Almazah, Heliopolis, Cairo Governorate, Egypt", "lat": 30.0952445, "lng": 31.3364574, "types": ["point_of_interest", "establishment"], "place_id": "ChIJL89N-PMVWBQRqgROcoN6X6A"}, {"name": "Sultana", "formatted_address": "Almazah, Heliopolis, Cairo Governorate, Egypt", "lat": 30.0955339, "lng": 31.3366514, "types": ["point_of_interest", "establishment"], "place_id": "ChIJH9x3_PMVWBQRSXr89AFMer8"}, {"name": "مدرسة النجوم الابتدائية", "formatted_address": "21 Yakoub Artin, Almazah, Heliopolis, Cairo Governorate, Egypt", "lat": 30.0952981, "lng": 31.3370723, "types": ["primary_school", "school", "point_of_interest", "establishment"], "place_id": "ChIJKyziVfEVWBQRruI8aa0Y9b4"}, {"name": "El Dar", "formatted_address": "42 Omar Ibn El-Khattab, Almazah, Heliopolis, Cairo Governorate, Egypt", "lat": 30.094938, "lng": 31.3365537, "types": ["point_of_interest", "establishment"], "place_id": "ChIJO7vPBvQVWBQRRoYNoH5epvc"}, {"name": "Ehab", "formatted_address": "Almazah, Heliopolis, Cairo Governorate, Egypt", "lat": 30.0955525, "lng": 31.3366274, "types": ["point_of_interest", "establishment"], "place_id": "ChIJT9-F-_MVWBQRKv9AaGYjvJo"}, {"name": "Dar El Fan El Araby", "formatted_address": "6 ش فوزى المطيعى، Almazah, Heliopolis, Cairo Governorate, Egypt", "lat": 30.0955943, "lng": 31.3379466, "types": ["point_of_interest", "establishment"], "place_id": "ChIJQ9RPRPEVWBQRQ6X4f5w2fCU"}, {"name": "View International - Visual Real Estate Guide", "formatted_address": "41 ش عمر بن الخطاب، Almazah, Heliopolis, Cairo Governorate, Egypt", "lat": 30.0943, "lng": 31.3369, "types": ["point_of_interest", "establishment"], "place_id": "ChIJe0k-yAU-WBQRNzSnygadZpQ"}, {"name": "Joyfany", "formatted_address": "Almazah, Heliopolis, Cairo Governorate, Egypt", "lat": 30.0954979, "lng": 31.3366977, "types": ["point_of_interest", "establishment"], "place_id": "ChIJIZ1t_PMVWBQRN0J15CP9AaU"}, {"name": "Edar Sea View Properties", "formatted_address": "32B El-Orouba, Almazah, Heliopolis, Cairo Governorate, Egypt", "lat": 30.0941941, "lng": 31.3364709, "types": ["point_of_interest", "establishment"], "place_id": "ChIJo8wsGvQVWBQRwmcX2--YRwA"}, {"name": "Tamo7", "formatted_address": "14 safir sq.، Almazah, Heliopolis, Cairo Governorate, Egypt", "lat": 30.096127, "lng": 31.337369, "types": ["point_of_interest", "establishment"], "place_id": "ChIJeT7gXfEVWBQRsS-YGrA4-qs"}, {"name": "Immaculate Virgin Greek Melkite", "formatted_address": "40 Omar Ibn El-Khattab, Almazah, Heliopolis, Cairo Governorate, Egypt", "lat": 30.0947992, "lng": 31.33692319999999, "types": ["church", "place_of_worship", "point_of_interest", "establishment"], "place_id": "ChIJQUU3AvQVWBQRh4m5lMbE3QI"}, {"name": "Gourg", "formatted_address": "14 Fawzi Al Motaee Basa, Almazah, Heliopolis, Cairo Governorate, Egypt", "lat": 30.0959613, "lng": 31.33774459999999, "types": ["point_of_interest", "establishment"], "place_id": "ChIJP2PDXPEVWBQRLZbAhVlkv5I"}, {"name": "Elamnia-Satellite Service", "formatted_address": "Almazah, Heliopolis, Cairo Governorate, Egypt", "lat": 30.0955106, "lng": 31.3366814, "types": ["point_of_interest", "establishment"], "place_id": "ChIJ19Zz_PMVWBQRpzlX8LMZt64"}, {"name": "International Group Center", "formatted_address": "21 ش حسن افلاطون، Almazah, Heliopolis, Cairo Governorate, Egypt", "lat": 30.0946999, "lng": 31.3391924, "types": ["point_of_interest", "establishment"], "place_id": "ChIJdQ7XAgU-WBQRpbmDLRZnR7M"}, {"name": "Holy Virgin Mary PolyClinic", "formatted_address": "18-20 Yakoub Artin, Almazah, Heliopolis, Cairo Governorate, Egypt", "lat": 30.0954692, "lng": 31.3370708, "types": ["hospital", "health", "point_of_interest", "establishment"], "place_id": "ChIJtcsmVvEVWBQReydT2ecs1X0"}, {"name": "First For Maintenance", "formatted_address": "4 Off Yaaqub Artin St.، Almazah, Heliopolis, Cairo Governorate, Egypt", "lat": 30.095053, "lng": 31.3374228, "types": ["point_of_interest", "establishment"], "place_id": "ChIJWYadU_EVWBQRkTFvt_FBQtw"}, {"name": "El Masria-Satellite Service", "formatted_address": "Almazah, Heliopolis, Cairo Governorate, Egypt", "lat": 30.0956558, "lng": 31.3356497, "types": ["point_of_interest", "establishment"], "place_id": "ChIJRZaj9PMVWBQRJTRKpQyZ4_k"}, {"name": "مراعى الريف", "formatted_address": "48 Omar Ibn El-Khattab, Almazah, Heliopolis, Cairo Governorate, Egypt", "lat": 30.09424, "lng": 31.3376552, "types": ["point_of_interest", "establishment"], "place_id": "ChIJAQDsr_YVWBQR1HWKLtVnFUk"}, {"name": "Pasa", "formatted_address": "20 Fawzi Al Motaee Basa, Almazah, Heliopolis, Cairo Governorate, Egypt", "lat": 30.0954833, "lng": 31.3383254, "types": ["point_of_interest", "establishment"], "place_id": "ChIJOf-qR_EVWBQRTC_UcNFATyI"}, {"name": "Aticot - Arab Trade, Investment & Cotton Trading Co.", "formatted_address": "18 Yacoub Artin St.، Almazah, Heliopolis, Cairo Governorate, Egypt", "lat": 30.0955, "lng": 31.3371, "types": ["point_of_interest", "establishment"], "place_id": "ChIJWYadU_EVWBQRtNJXWv_9muw"}, {"name": "Engineering Co. For Water Technology", "formatted_address": "2 ش حسن افلاطون، Almazah, Heliopolis, Cairo Governorate, Egypt", "lat": 30.0946999, "lng": 31.3391924, "types": ["point_of_interest", "establishment"], "place_id": "ChIJdQ7XAgU-WBQRMiAOxOyBc7Y"}, {"name": "Exclusive", "formatted_address": "1 ش حسن افلاطون، Almazah, Heliopolis, Cairo Governorate, Egypt", "lat": 30.0946999, "lng": 31.3391924, "types": ["point_of_interest", "establishment"], "place_id": "ChIJdQ7XAgU-WBQRwDfRzbzPbLI"}, {"name": "Al Masria For Electronics - RBM", "formatted_address": "39 ش عمر بن الخطاب، جسر السويس، Heliopolis, Cairo Governorate, Egypt", "lat": 30.094435, "lng": 31.33637, "types": ["point_of_interest", "establishment"], "place_id": "ChIJ1YKVGvQVWBQRQQUeAyH6HXQ"}, {"name": "Alamia Tex - International For Spinning & Knitting", "formatted_address": "13 ش فوزى المطيعى، Almazah, Heliopolis, Cairo Governorate, Egypt", "lat": 30.0955943, "lng": 31.3379466, "types": ["point_of_interest", "establishment"], "place_id": "ChIJQ9RPRPEVWBQRjXsAcxoF9k4"}, {"name": "Winner Technology", "formatted_address": "ش حسن افلاطون، Almazah, Heliopolis, Cairo Governorate, Egypt", "lat": 30.0946999, "lng": 31.3391924, "types": ["point_of_interest", "establishment"], "place_id": "ChIJdQ7XAgU-WBQRDXulA4zMcuk"}, {"name": "Crazy Korez-Flowers", "formatted_address": "Almazah, Heliopolis, Cairo Governorate, Egypt", "lat": 30.0955721, "lng": 31.3366024, "types": ["point_of_interest", "establishment"], "place_id": "ChIJ41mb-_MVWBQRRKMaV6TfCx4"}, {"name": "Viale Moda", "formatted_address": "18 Yakoub Artin, Almazah, Heliopolis, Cairo Governorate, Egypt", "lat": 30.0955906, "lng": 31.3370765, "types": ["store", "point_of_interest", "establishment"], "place_id": "ChIJvS_FRMUVWBQR-DJWDw0VdgU"}, {"name": "XHALE.EGY", "formatted_address": "22-14 Yakoub Artin, Almazah, Heliopolis, Cairo Governorate, Egypt", "lat": 30.09544319999999, "lng": 31.337014, "types": ["gym", "health", "point_of_interest", "establishment"], "place_id": "ChIJpX-FQusVWBQRSY1arSLLoyU"}, {"name": "Gartref Electronics", "formatted_address": "14 ش فوزى المطيعى، Almazah, Heliopolis, Cairo Governorate, Egypt", "lat": 30.0955943, "lng": 31.3379466, "types": ["point_of_interest", "establishment"], "place_id": "ChIJQ9RPRPEVWBQRF_N7vWURgsY"}, {"name": "Dr Rafik Haddad", "formatted_address": "23 Yakoub Artin, Almazah, Heliopolis, Cairo Governorate, Egypt", "lat": 30.0946982, "lng": 31.3376105, "types": ["point_of_interest", "establishment"], "place_id": "ChIJhzeNnc8VWBQRkXV7W4IJks0"}, {"name": "Yap Shoes", "formatted_address": "15 ش كمال الشافعى، Almazah, Heliopolis, Cairo Governorate, Egypt", "lat": 30.0963982, "lng": 31.3368267, "types": ["point_of_interest", "establishment"], "place_id": "ChIJ5y4z3vMVWBQRTSfNRcIMoDw"}, {"name": "كنفاني العهد الجديد", "formatted_address": "3 Yakoub Artin, Almazah, Heliopolis, Cairo Governorate, Egypt", "lat": 30.0966218, "lng": 31.3357728, "types": ["bakery", "food", "point_of_interest", "store", "establishment"], "place_id": "ChIJ5Wd_6vMVWBQRR_7WXaTDUyU"}, {"name": "International Exclusive Boutique Co. - IEB", "formatted_address": "31 ش حسن افلاطون، Almazah, Heliopolis, Cairo Governorate, Egypt", "lat": 30.0946999, "lng": 31.3391924, "types": ["point_of_interest", "establishment"], "place_id": "ChIJdQ7XAgU-WBQRzsq4QGFWiiE"}, {"name": "Pizza", "formatted_address": "8 يعقوب ارتين، الماظة، قسم مصر الجديدة،، Cairo Governorate, Egypt", "lat": 30.0961482, "lng": 31.33592359999999, "types": ["restaurant", "food", "point_of_interest", "establishment"], "place_id": "ChIJ_Tg5xZUVWBQR2LIcXoZNl7c"}, {"name": "Etapes Nouvelles Egypte Voyages", "formatted_address": "4 من ش عمر بن الخطاب، مصر الجديدة، القاهرة، Cairo Governorate, Egypt", "lat": 30.09420799999999, "lng": 31.338196, "types": ["travel_agency", "point_of_interest", "establishment"], "place_id": "ChIJWzTitvYVWBQRMlBDJD36L9s"}, {"name": "خالد كاسيت سيارات", "formatted_address": "11 Yakoub Artin, Almazah, Heliopolis, Cairo Governorate, Egypt", "lat": 30.0956092, "lng": 31.33641, "types": ["electronics_store", "point_of_interest", "store", "establishment"], "place_id": "ChIJEwg3-vMVWBQR6Yl230RBngg"}, {"name": "Chezsou", "formatted_address": "15 El-Imam Ali, Almazah, Heliopolis, Cairo Governorate, Egypt", "lat": 30.0943159, "lng": 31.3350638, "types": ["point_of_interest", "establishment"], "place_id": "ChIJC8KdafQVWBQRKBDR0pl3_t4"}, {"name": "Protec Customs & Marine Services", "formatted_address": "36 Omar Ibn El-Khattab, Al Matar, El Nozha, Cairo Governorate, Egypt", "lat": 30.0950635, "lng": 31.3363472, "types": ["point_of_interest", "establishment"], "place_id": "ChIJt_7EB_QVWBQRBrHaDjy2jFw"}, {"name": "Al Motwakel Spices", "formatted_address": "3 ش حسن افلاطون، Almazah, Heliopolis, Cairo Governorate, Egypt", "lat": 30.0946999, "lng": 31.3391924, "types": ["point_of_interest", "establishment"], "place_id": "ChIJdQ7XAgU-WBQRo5F_0nIf3Yo"}, {"name": "قهوه اسوان ميدان الاسماعيليه", "formatted_address": "3 Yakoub Artin, Almazah, Heliopolis, Cairo Governorate, Egypt", "lat": 30.0963557, "lng": 31.3358918, "types": ["cafe", "food", "point_of_interest", "store", "establishment"], "place_id": "ChIJc6XlhVUVWBQR1QE6rNbaVY0"}, {"name": "Porto Heliopolis", "formatted_address": "Almazah, Heliopolis, Cairo Governorate, Egypt", "lat": 30.0827031, "lng": 31.348709, "types": ["lodging", "point_of_interest", "establishment"], "place_id": "ChIJR5FCXgE-WBQR471eyuZuvGw"}, {"name": "Croquee (Engineering Services)", "formatted_address": "10 Kamal El-Shafei, Almazah, Heliopolis, Cairo Governorate, Egypt", "lat": 30.0963708, "lng": 31.3365039, "types": ["point_of_interest", "establishment"], "place_id": "ChIJ97284PMVWBQRZezZqaFYJQU"}, {"name": "Primary Research", "formatted_address": "20 Fawzi Al Motaee Basa, Almazah, Heliopolis, Cairo Governorate, Egypt", "lat": 30.0954864, "lng": 31.3383412, "types": ["local_government_office", "point_of_interest", "establishment"], "place_id": "ChIJlegMR_EVWBQRlZ7fUlZvIi4"}, {"name": "Eitesal", "formatted_address": "22 El-Imam Ali, Almazah, Heliopolis, Cairo Governorate, Egypt", "lat": 30.0946119, "lng": 31.3352723, "types": ["point_of_interest", "establishment"], "place_id": "ChIJj0MwbPQVWBQRMlNTnJDCnvQ"}, {"name": "Kemet Medical", "formatted_address": "60 Yakoub Artin, Almazah, Heliopolis, Cairo Governorate, Egypt", "lat": 30.0938745, "lng": 31.338569, "types": ["point_of_interest", "establishment"], "place_id": "ChIJvXXz2B8VWBQR7QNwJraLzxg"}, {"name": "ألفا للهندسة و التجارة", "formatted_address": "35-37 Omar Ibn El-Khattab, Almazah, Heliopolis, Cairo Governorate, Egypt", "lat": 30.09441, "lng": 31.3364558, "types": ["point_of_interest", "establishment"], "place_id": "ChIJpRK9YfcVWBQR_R1hybtn7xU"}, {"name": "ادارة التموين بمصر الجديدة", "formatted_address": "Almazah, Heliopolis, Cairo Governorate, Egypt", "lat": 30.0953585, "lng": 31.3360967, "types": ["local_government_office", "point_of_interest", "establishment"], "place_id": "ChIJJ-QkCPQVWBQRIgZRZiLntrQ"}, {"name": "Dr.Sameh Malek", "formatted_address": "Almazah, Heliopolis, Cairo Governorate, Egypt", "lat": 30.0961769, "lng": 31.3360727, "types": ["pharmacy", "health", "point_of_interest", "store", "establishment"], "place_id": "ChIJI8Hp6PMVWBQRi3p9P2w2d3g"}, {"name": "مدام آمال الخياطة", "formatted_address": "7-11 Mahmoud Ezzat Sharaf, Almazah, Heliopolis, Cairo Governorate, Egypt", "lat": 30.0952555, "lng": 31.33763799999999, "types": ["point_of_interest", "establishment"], "place_id": "ChIJ_f0IoJYVWBQRQSL1uuYSkvA"}]