[{"name": "High Light", "formatted_address": "15 Gamal Nouh, Almazah, Heliopolis, Cairo Governorate, Egypt", "lat": 30.0828153, "lng": 31.3448037, "types": ["point_of_interest", "establishment"], "place_id": "ChIJFZMaYwM-WBQRw9jVJgWXPR0"}, {"name": "Misloo", "formatted_address": "15 Gamal Nouh, Almazah, Heliopolis, Cairo Governorate, Egypt", "lat": 30.0825316, "lng": 31.3441112, "types": ["point_of_interest", "establishment"], "place_id": "ChIJ4ycfogQ-WBQRRBmuNTAO94I"}, {"name": "Horse", "formatted_address": "15 Gamal Nouh, Almazah, Heliopolis, Cairo Governorate, Egypt", "lat": 30.08272779999999, "lng": 31.3442899, "types": ["point_of_interest", "establishment"], "place_id": "ChIJNVFKYAM-WBQRKn0dekEPN2E"}, {"name": "Ra Sport", "formatted_address": "25 Gamal Nouh, Almazah, Heliopolis, Cairo Governorate, Egypt", "lat": 30.0822839, "lng": 31.3455483, "types": ["point_of_interest", "establishment"], "place_id": "ChIJuWHagQM-WBQRLyEjsgHrGa8"}, {"name": "El Yabaneya For Office Equipment", "formatted_address": "Gamal Nouh, Almazah, Heliopolis, Cairo Governorate, Egypt", "lat": 30.0825287, "lng": 31.3451582, "types": ["point_of_interest", "establishment"], "place_id": "ChIJW83rfQM-WBQR3oBrUFQUML4"}, {"name": "Advanced Hospitality Solutions", "formatted_address": "26 Gamal Nouh, Almazah, Heliopolis, Cairo Governorate, Egypt", "lat": 30.0825287, "lng": 31.3451582, "types": ["point_of_interest", "establishment"], "place_id": "ChIJW83rfQM-WBQRRDcX-AfLgsw"}, {"name": "Al Ashmawi Park", "formatted_address": "Almazah, Heliopolis, Cairo Governorate, Egypt", "lat": 30.08320759999999, "lng": 31.3451877, "types": ["park", "point_of_interest", "establishment"], "place_id": "ChIJcbmoR-8_WBQR3EqxbxIiNWA"}, {"name": "Ittihadia Palace", "formatted_address": "Al Nadi، El-Montaza, Heliopolis, Cairo Governorate, Egypt", "lat": 30.0888643, "lng": 31.3193929, "types": ["tourist_attraction", "premise", "point_of_interest", "establishment"], "place_id": "ChIJuftqUS8-WBQRtM7fDk0QcPk"}, {"name": "دار مريم للرعاية", "formatted_address": "20 شارع محمود فؤاد, متفرع من جمال نوح ,ألماظة, Heliopolis, Cairo, Cairo Governorate 11341, Egypt", "lat": 30.082801, "lng": 31.347116, "types": ["lodging", "point_of_interest", "establishment"], "place_id": "ChIJxehFh34_WBQRJUW53CQK3-E"}, {"name": "Baron Empain Palace", "formatted_address": "El-Orouba, El-Montaza, Heliopolis, Cairo Governorate 11757, Egypt", "lat": 30.0866701, "lng": 31.3303332, "types": ["point_of_interest", "establishment"], "place_id": "ChIJ1_GM8iE-WBQRLNVi-RT7vDA"}, {"name": "New Cairo News", "formatted_address": "14 ش الشهيد احمد وصفى، Almazah, Heliopolis, Cairo Governorate, Egypt", "lat": 30.083787, "lng": 31.344744, "types": ["point_of_interest", "establishment"], "place_id": "ChIJ62U9bQM-WBQRrfg8A_Whzec"}, {"name": "Kamal Hassan", "formatted_address": "15 Gamal Nouh, Almazah, Heliopolis, Cairo Governorate, Egypt", "lat": 30.0827681, "lng": 31.3449824, "types": ["point_of_interest", "establishment"], "place_id": "ChIJG77dfAM-WBQRtDz_y0r9PqU"}, {"name": "Object Studio", "formatted_address": "26 Gamal Nouh St.، Almazah, Heliopolis, Cairo Governorate, Egypt", "lat": 30.0825287, "lng": 31.3451582, "types": ["point_of_interest", "establishment"], "place_id": "ChIJW83rfQM-WBQRQK_Zqpj_y2Y"}, {"name": "Porto Heliopolis", "formatted_address": "Almazah, Heliopolis, Cairo Governorate, Egypt", "lat": 30.0827031, "lng": 31.348709, "types": ["lodging", "point_of_interest", "establishment"], "place_id": "ChIJR5FCXgE-WBQR471eyuZuvGw"}, {"name": "Cherries", "formatted_address": "16 madkour abou el ezz st.، Almazah, Heliopolis, Cairo Governorate, Egypt", "lat": 30.08303209999999, "lng": 31.3452357, "types": ["point_of_interest", "establishment"], "place_id": "ChIJh0P2eQM-WBQRmbRiN7wC3Oo"}, {"name": "Hamdy Maroof Afefey", "formatted_address": "26 Gamal Nouh, Almazah, Heliopolis, Cairo Governorate, Egypt", "lat": 30.0826368, "lng": 31.3457866, "types": ["health", "point_of_interest", "establishment"], "place_id": "ChIJtVCYgQM-WBQRdi7dY-AsQDk"}, {"name": "Afify", "formatted_address": "9 ش العشماوى، العتبة، Heliopolis, Cairo Governorate, Egypt", "lat": 30.083485, "lng": 31.3455929, "types": ["point_of_interest", "establishment"], "place_id": "ChIJ9RbVnwM-WBQR4Cbc267HdIM"}, {"name": "Allure Beauty Salon", "formatted_address": "29 Gamal Nouh, Almazah, Heliopolis, Cairo Governorate, Egypt", "lat": 30.0822908, "lng": 31.3460065, "types": ["beauty_salon", "point_of_interest", "establishment"], "place_id": "ChIJc74R8wM-WBQRYGlD_D3voE4"}, {"name": "Multi Flags", "formatted_address": "39 Gamal Nouh, Almazah, Heliopolis, Cairo Governorate, Egypt", "lat": 30.0822452, "lng": 31.3470867, "types": ["point_of_interest", "establishment"], "place_id": "ChIJX5ej9AM-WBQRnnPUDD7JLPU"}, {"name": "Hamada", "formatted_address": "14 Ahmed Wasfi, Almazah, Heliopolis, Cairo Governorate, Egypt", "lat": 30.083317, "lng": 31.3441336, "types": ["point_of_interest", "establishment"], "place_id": "ChIJrwJJXQM-WBQR2ItNrQgvQls"}, {"name": "Maha", "formatted_address": "15 Gamal Nouh, Almazah, Heliopolis, Cairo Governorate, Egypt", "lat": 30.0826575, "lng": 31.3445269, "types": ["point_of_interest", "establishment"], "place_id": "ChIJd789ytk_WBQR46LKZO4T9Mk"}, {"name": "Cairo Makeup Clum - CMC", "formatted_address": "29 Gamal Nouh, Almazah, Heliopolis, Cairo Governorate, Egypt", "lat": 30.0822492, "lng": 31.3460401, "types": ["beauty_salon", "point_of_interest", "establishment"], "place_id": "ChIJHyk_8wM-WBQRVhruaw_CVnM"}, {"name": "Cool Gift", "formatted_address": "Gamal Nouh, ،مصر الجديدة ،قسم، النزهه، Cairo Governorate, Egypt", "lat": 30.0827678, "lng": 31.34476299999999, "types": ["point_of_interest", "store", "establishment"], "place_id": "ChIJ33UcYwM-WBQRYH5Exq3SW9A"}, {"name": "New style coiffeur for men", "formatted_address": "11 شارع جمال نوح متقرع من شارع، El-Thawra St, Heliopolis, Cairo Governorate 11511, Egypt", "lat": 30.0825575, "lng": 31.3444709, "types": ["hair_care", "health", "point_of_interest", "establishment"], "place_id": "ChIJJfHcwPU_WBQRghm4EKGkFY0"}, {"name": "محمد واحمد بيوتى صالون", "formatted_address": "28 ش جمال نوح, متفرع من، ش Omar Ibn El-Khattab, Heliopolis, Cairo Governorate, Egypt", "lat": 30.082561, "lng": 31.346194, "types": ["beauty_salon", "point_of_interest", "establishment"], "place_id": "ChIJecwuhLo_WBQRiIKPsXvxYVg"}, {"name": "Our Lady of Heliopolis Co-Cathedral", "formatted_address": "Nazih Khalifa crossroad، Al Ahram, Heliopolis, Cairo Governorate, Egypt", "lat": 30.0935707, "lng": 31.3251828, "types": ["church", "place_of_worship", "point_of_interest", "establishment"], "place_id": "ChIJJdgh-okVWBQR5TqTmKuQ0IM"}, {"name": "El Ashry", "formatted_address": "31 ش العشماوى، العتبة، Heliopolis, Cairo Governorate, Egypt", "lat": 30.083485, "lng": 31.3455929, "types": ["point_of_interest", "establishment"], "place_id": "ChIJ9RbVnwM-WBQR4vflTKDm0Ns"}, {"name": "Arab Federation For Wild Life Protection", "formatted_address": "6 Abdel Azim El Ashmawy St.، Almazah, Heliopolis, Cairo Governorate, Egypt", "lat": 30.0834857, "lng": 31.3455526, "types": ["park", "point_of_interest", "establishment"], "place_id": "ChIJ9RbVnwM-WBQRW9f0jegSptU"}, {"name": "الزهيرى للمقاولات", "formatted_address": "119 El-Thawra St, Al Matar, El Nozha, Cairo Governorate, Egypt", "lat": 30.0821544, "lng": 31.3435744, "types": ["point_of_interest", "establishment"], "place_id": "ChIJn9PCugQ-WBQRhaHeCaXPs9s"}, {"name": "Ahmed Abdel Moneim", "formatted_address": "36 ش العشماوى، العتبة، Heliopolis, Cairo Governorate, Egypt", "lat": 30.083485, "lng": 31.3455929, "types": ["point_of_interest", "establishment"], "place_id": "ChIJ1bUFs71AWBQRzvIVY9d-fhI"}, {"name": "Grasp Studios", "formatted_address": "15 Gamal Nouh, Almazah, Heliopolis, Cairo Governorate 11223, Egypt", "lat": 30.0823353, "lng": 31.3471416, "types": ["point_of_interest", "establishment"], "place_id": "ChIJvU8vemk_WBQRfBgXP6f2fYA"}, {"name": "Novus Stanza", "formatted_address": "119 El-Thawra St, Al Matar, El Nozha, Cairo Governorate, Egypt", "lat": 30.0821544, "lng": 31.3435744, "types": ["point_of_interest", "establishment"], "place_id": "ChIJn9PCugQ-WBQRGnwYlGiYYjk"}, {"name": "Fathy", "formatted_address": "17 ش العشماوى، العتبة، Heliopolis, Cairo Governorate, Egypt", "lat": 30.083485, "lng": 31.3455929, "types": ["point_of_interest", "establishment"], "place_id": "ChIJ9RbVnwM-WBQReY72nwJYbas"}, {"name": "Aly Sultan", "formatted_address": "15 ش العشماوى، العتبة، Heliopolis, Cairo Governorate, Egypt", "lat": 30.083485, "lng": 31.3455929, "types": ["point_of_interest", "establishment"], "place_id": "ChIJ9RbVnwM-WBQRRVvjQ1-OzoI"}, {"name": "Christal Light", "formatted_address": "26 ش العشماوى، العتبة، Heliopolis, Cairo Governorate, Egypt", "lat": 30.083485, "lng": 31.3455929, "types": ["point_of_interest", "establishment"], "place_id": "ChIJ9RbVnwM-WBQRyAl9ni6wLoo"}, {"name": "El Aseel", "formatted_address": "20 ش العشماوى، العتبة، Heliopolis, Cairo Governorate, Egypt", "lat": 30.083485, "lng": 31.3455929, "types": ["point_of_interest", "establishment"], "place_id": "ChIJ9RbVnwM-WBQRAbxvj1hDKyQ"}, {"name": "أضواء الشيماء", "formatted_address": "ش Gamal Nouh, Almazah, Heliopolis, Cairo Governorate, Egypt", "lat": 30.08281899999999, "lng": 31.3438767, "types": ["point_of_interest", "store", "establishment"], "place_id": "ChIJVc2zXwM-WBQRfxDYSy2I-8A"}, {"name": "Suzan beauty salon", "formatted_address": "15 Gamal Nouh, Almazah, Heliopolis, Cairo Governorate, Egypt", "lat": 30.0826924, "lng": 31.3445858, "types": ["beauty_salon", "point_of_interest", "establishment"], "place_id": "ChIJp9-XXno_WBQR811JG4NV2Uo"}, {"name": "Mohmed & Ahmed Beauty Salon", "formatted_address": "28 Gamal Nouh, Almazah, Heliopolis, Cairo Governorate, Egypt", "lat": 30.0825228, "lng": 31.3467903, "types": ["beauty_salon", "point_of_interest", "establishment"], "place_id": "ChIJUwo23t4_WBQR1ueGr_2Q6jQ"}, {"name": "Raneen Center For Communications", "formatted_address": "8 Nabil Mahmoud St.، Masaken Al Mohandesin, Heliopolis, Cairo Governorate, Egypt", "lat": 30.08104089999999, "lng": 31.3443621, "types": ["point_of_interest", "establishment"], "place_id": "ChIJbet96QQ-WBQRN1t51EJW2Hw"}, {"name": "Vantage Egypt", "formatted_address": "99 El-Thawra St, Al Matar, El Nozha, Cairo Governorate, Egypt", "lat": 30.082053, "lng": 31.3442585, "types": ["travel_agency", "point_of_interest", "establishment"], "place_id": "ChIJicdRmAQ-WBQRCqy8nQzyJpU"}, {"name": "The Egyptian Group For Trading - Opticon", "formatted_address": "36 El Shaheed Ahmed Wasfy St.، Almazah, Heliopolis, Cairo Governorate, Egypt", "lat": 30.083974, "lng": 31.3452853, "types": ["point_of_interest", "establishment"], "place_id": "ChIJg_J4NQI-WBQRUSQ4dvZ4d3w"}, {"name": "Al Jazeera For Engineering & Trading", "formatted_address": "3 El Shaheed Ahmed Wasfy St.، Almazah, Heliopolis, Cairo Governorate, Egypt", "lat": 30.083974, "lng": 31.3452853, "types": ["point_of_interest", "establishment"], "place_id": "ChIJ_RxQXQM-WBQR7_uTx_HOxKs"}, {"name": "El Ethad For Electric Supplies", "formatted_address": "40 ش العشماوى، العتبة، Heliopolis, Cairo Governorate, Egypt", "lat": 30.083485, "lng": 31.3455929, "types": ["point_of_interest", "establishment"], "place_id": "ChIJ9RbVnwM-WBQRnZnz9t4tAlw"}, {"name": "لمسات للاقمشة والمفروشات والستائر", "formatted_address": "117 El-Thawra St, Al Matar, El Nozha, Cairo Governorate, Egypt", "lat": 30.0820828, "lng": 31.3435315, "types": ["point_of_interest", "establishment"], "place_id": "ChIJxzP1ugQ-WBQR1dwnVu1b9Y0"}, {"name": "Dm Developments", "formatted_address": "114 El-Thawra St, Al Manteqah Al Oula, Heliopolis, Cairo Governorate, Egypt", "lat": 30.0819991, "lng": 31.3459634, "types": ["travel_agency", "general_contractor", "point_of_interest", "establishment"], "place_id": "ChIJMxtKeQQ-WBQRhNrEOnGkzAA"}, {"name": "Al takwa masjed", "formatted_address": "Abd El-Hady Sadik, Almazah, Heliopolis, Cairo Governorate, Egypt", "lat": 30.0827744, "lng": 31.3462835, "types": ["mosque", "place_of_worship", "point_of_interest", "establishment"], "place_id": "ChIJS2b4jwM-WBQR9aAfKHueH00"}, {"name": "Mazen", "formatted_address": "20 ش العشماوى، العتبة، Heliopolis, Cairo Governorate, Egypt", "lat": 30.083485, "lng": 31.3455929, "types": ["point_of_interest", "establishment"], "place_id": "ChIJ9RbVnwM-WBQRft7g91IRIlo"}, {"name": "Magar", "formatted_address": "9 ش العشماوى، العتبة، Heliopolis, Cairo Governorate, Egypt", "lat": 30.083485, "lng": 31.3455929, "types": ["point_of_interest", "establishment"], "place_id": "ChIJ9RbVnwM-WBQRqSfVmsq3rjg"}, {"name": "Aya & Radwa & Azza", "formatted_address": "31 ش العشماوى، العتبة، Heliopolis, Cairo Governorate, Egypt", "lat": 30.083485, "lng": 31.3455929, "types": ["point_of_interest", "establishment"], "place_id": "ChIJIygetb1AWBQRfTHQAgdY3Mc"}, {"name": "Heliopolis Residence", "formatted_address": "102 El-Thawra St, Almazah, Heliopolis, Cairo Governorate, Egypt", "lat": 30.0819611, "lng": 31.3450191, "types": ["general_contractor", "point_of_interest", "establishment"], "place_id": "ChIJIeRAPT8_WBQR26KcnOrRTAc"}, {"name": "صيدلية الإنسانية", "formatted_address": "39 Gamal Nouh, Almazah, Heliopolis, Cairo Governorate, Egypt", "lat": 30.0822318, "lng": 31.3471434, "types": ["pharmacy", "health", "point_of_interest", "store", "establishment"], "place_id": "ChIJSXVw6QM-WBQRGFo_3p6G6sg"}, {"name": "فاميلى سنتر", "formatted_address": "Gamal Nouh, Almazah, Heliopolis, Cairo Governorate, Egypt", "lat": 30.0823604, "lng": 31.3451112, "types": ["supermarket", "grocery_or_supermarket", "food", "point_of_interest", "store", "establishment"], "place_id": "ChIJW83rfQM-WBQRIVqM01IN3Ao"}, {"name": "Picchio Furniture", "formatted_address": "15 جمال نوح، الماظة، قسم مصر الجديدة،، Cairo Governorate, Egypt", "lat": 30.0826575, "lng": 31.3445269, "types": ["furniture_store", "home_goods_store", "point_of_interest", "store", "establishment"], "place_id": "ChIJNW90z3c_WBQRdD6uboXWVH4"}, {"name": "Electro Power", "formatted_address": "40 ش العشماوى، العتبة، Heliopolis, Cairo Governorate, Egypt", "lat": 30.083485, "lng": 31.3455929, "types": ["point_of_interest", "establishment"], "place_id": "ChIJ9RbVnwM-WBQRWBblgTCWJp4"}, {"name": "Global Hills for Realestate & investment", "formatted_address": "26 Gamal Nouh, Almazah, Heliopolis, Cairo Governorate, Egypt", "lat": 30.082504, "lng": 31.3461885, "types": ["real_estate_agency", "point_of_interest", "establishment"], "place_id": "ChIJg5fUpXM_WBQRRuLnJTFnSXg"}, {"name": "ماركت الحياه7", "formatted_address": "26 جمال نوح، الماظة، قسم مصر الجديدة، Egypt، Cairo Governorate, Egypt", "lat": 30.0825267, "lng": 31.346266, "types": ["supermarket", "grocery_or_supermarket", "food", "point_of_interest", "store", "establishment"], "place_id": "ChIJawKY7xk_WBQRtMwGnxvdasM"}, {"name": "Golden Smile Dental Clinic", "formatted_address": "11775, 25 Gamal Nouh, Almaza،, Heliopolis, Cairo Governorate, Egypt", "lat": 30.0823186, "lng": 31.3452893, "types": ["dentist", "health", "point_of_interest", "establishment"], "place_id": "ChIJ_aa0Qpg_WBQR-qJD9zcexEc"}, {"name": "El Adl Wires & Cables", "formatted_address": "10 متفرع من ش العشماوى، العتبة، Heliopolis, Cairo Governorate, Egypt", "lat": 30.083485, "lng": 31.3455929, "types": ["point_of_interest", "establishment"], "place_id": "ChIJox9ovL1AWBQRFenc3wv_Tbs"}, {"name": "Friends Clean", "formatted_address": "39 Gamal Nouh, Almazah, Heliopolis, Cairo Governorate, Egypt", "lat": 30.0823857, "lng": 31.3480427, "types": ["laundry", "point_of_interest", "establishment"], "place_id": "ChIJ12fa5AM-WBQRj0u98vAsMo8"}]