[{"name": "Salah Eldin Square", "formatted_address": "Cleopatra, Almazah, Heliopolis, Cairo Governorate, Egypt", "lat": 31.329797, "types": ["tourist_attraction", "point_of_interest", "establishment"], "place_id": "ChIJy3RkGIsVWBQRa0ALsaVU_l8"}, {"name": "Gamal Eldin Al Afhghani Masjed", "formatted_address": "Al Gamea Sq., El-Bostan, Heliopolis, Cairo Governorate, Egypt", "lat": 31.3283783, "types": ["mosque", "place_of_worship", "point_of_interest", "establishment"], "place_id": "ChIJwQPloosVWBQRrZF7XUAY2IQ"}, {"name": "ميدان الجامع", "formatted_address": "Al Gamea Sq., El-Bostan, Heliopolis, Cairo Governorate, Egypt", "lat": 31.3284471, "types": ["point_of_interest", "establishment"], "place_id": "ChIJm2mEeIsVWBQRCjnDXHwgOjs"}, {"name": "Our Lady of Heliopolis Co-Cathedral", "formatted_address": "Nazih Khalifa crossroad، Al Ahram, Heliopolis, Cairo Governorate, Egypt", "lat": 31.3251828, "types": ["church", "place_of_worship", "point_of_interest", "establishment"], "place_id": "ChIJJdgh-okVWBQR5TqTmKuQ0IM"}, {"name": "Ashraf Ebied", "formatted_address": "2 Al Gamea Sq., El-Bostan, Heliopolis, Cairo Governorate, Egypt", "lat": 31.327878, "types": ["point_of_interest", "establishment"], "place_id": "ChIJQfSToosVWBQRKbF3Pmxyi-w"}, {"name": "Kol Shae", "formatted_address": "2 Al Gamea Sq., Al Matar, El Nozha, Cairo Governorate, Egypt", "lat": 31.328072, "types": ["point_of_interest", "establishment"], "place_id": "ChIJQ6zUnosVWBQRIPz7ZF8CzbY"}, {"name": "صيدليات القماح", "formatted_address": "1 Al Gamea Sq., Al Matar, El Nozha, Cairo Governorate, Egypt", "lat": 31.3284559, "types": ["point_of_interest", "establishment"], "place_id": "ChIJ2ZAAeIsVWBQRuNBfs7lyxQ8"}, {"name": "كايرو لايت cairolight", "formatted_address": "25 شارع هارون الرشيد، Al Gamea Sq., القاهره، Cairo Governorate, Egypt", "lat": 31.3288695, "types": ["point_of_interest", "store", "establishment"], "place_id": "ChIJLeI74RQVWBQRFb3MGJkracQ"}, {"name": "Baron Empain Palace", "formatted_address": "El-Orouba, El-Montaza, Heliopolis, Cairo Governorate 11757, Egypt", "lat": 31.3303332, "types": ["point_of_interest", "establishment"], "place_id": "ChIJ1_GM8iE-WBQRLNVi-RT7vDA"}, {"name": "Mando", "formatted_address": "2 Al Gamea Sq., El-Bostan, Heliopolis, Cairo Governorate, Egypt", "lat": 31.3278531, "types": ["point_of_interest", "establishment"], "place_id": "ChIJD8J8pYsVWBQRD2rT5vCo4PM"}, {"name": "Negmet Heliopolis", "formatted_address": "5 ش الرملة متفرع من اسماعيل رمزى, Al Gamea Sq., Heliopolis, Cairo Governorate, Egypt", "lat": 31.3288131, "types": ["supermarket", "grocery_or_supermarket", "food", "point_of_interest", "store", "establishment"], "place_id": "ChIJ4fyiDosVWBQR_9nQVlRtOVQ"}, {"name": "Original Light", "formatted_address": "18 هارون الرشيد، Al Gamea Sq., Heliopolis, Cairo Governorate 11757, Egypt", "lat": 31.3291594, "types": ["home_goods_store", "point_of_interest", "store", "establishment"], "place_id": "ChIJuaRNC70VWBQRtf4V-CumXPg"}, {"name": "Travel Bug Egypt", "formatted_address": "15 Alexandria St، Al Gamea Sq., Heliopolis, Egypt", "lat": 31.3290733, "types": ["travel_agency", "point_of_interest", "establishment"], "place_id": "ChIJnaNacIsVWBQRPmAwYSIj0PM"}, {"name": "مستشفى الرحمه", "formatted_address": "ميدان الجامع، البستان، قسم مصر الجديدة،، Cairo Governorate, Egypt", "lat": 31.3284559, "types": ["hospital", "health", "point_of_interest", "establishment"], "place_id": "ChIJUxhwuqcVWBQRix7yYU8EIe0"}, {"name": "Koll Shiaa", "formatted_address": "٧ شارع، Ismail Ramzy, ميدان الجامع, Heliopolis, Cairo Governorate, Egypt", "lat": 31.3287233, "types": ["hardware_store", "point_of_interest", "clothing_store", "store", "establishment"], "place_id": "ChIJsy-A84sVWBQReQjVBREswSQ"}, {"name": "Supply Bureau - Heliopolis", "formatted_address": "2 Mansoura, El-Bostan, Heliopolis, Cairo Governorate, Egypt", "lat": 31.3292775, "types": ["point_of_interest", "establishment"], "place_id": "ChIJ-7jLbYsVWBQRFdYCXarehEY"}, {"name": "El Mashour", "formatted_address": "2 Al Gamea Sq., El-Bostan, Heliopolis, Cairo Governorate, Egypt", "lat": 31.3277893, "types": ["point_of_interest", "establishment"], "place_id": "ChIJoSRDpYsVWBQRj09WXbVse08"}, {"name": "Magdy El Attar", "formatted_address": "22 haroun el rashid st.، El-Bostan, Heliopolis, Cairo Governorate, Egypt", "lat": 31.3317705, "types": ["point_of_interest", "establishment"], "place_id": "ChIJ_QWWbhIVWBQRCqT8DclSfWk"}, {"name": "Shafiq Silver", "formatted_address": "19 alexandria st.، El-Bostan, Heliopolis, Cairo Governorate, Egypt", "lat": 31.329465, "types": ["point_of_interest", "establishment"], "place_id": "ChIJi3EjYosVWBQRvXSaWI5htCw"}, {"name": "تريدكو الصياد", "formatted_address": "2ش\\ارع هارون الرش\\يدي، Al Gamea Sq., Egypt", "lat": 31.3277778, "types": ["restaurant", "food", "point_of_interest", "establishment"], "place_id": "ChIJDZs7uHkVWBQRho4feTgi6t8"}, {"name": "N N", "formatted_address": "5 Ismail Ramzy St.، El-Bostan, Heliopolis, Cairo Governorate, Egypt", "lat": 31.3268176, "types": ["point_of_interest", "establishment"], "place_id": "ChIJsy-A84sVWBQR628Fv6dzWBE"}, {"name": "Semeramis", "formatted_address": "7 Ismail Ramzy St.، El-Bostan, Heliopolis, Cairo Governorate, Egypt", "lat": 31.3268176, "types": ["point_of_interest", "establishment"], "place_id": "ChIJsy-A84sVWBQRcLMHAb5Bkw4"}, {"name": "Sayed Abdel Aziz For Glass & Decoration", "formatted_address": "5 El-Rawda, El-Bostan, Heliopolis, Cairo Governorate, Egypt", "lat": 31.3282051, "types": ["point_of_interest", "establishment"], "place_id": "ChIJR-O5fYwVWBQRqODfkMGqKas"}, {"name": "El Eslameya For Building Materials", "formatted_address": "19 Damanhour St.، El-Bostan, Heliopolis, Cairo Governorate, Egypt", "lat": 31.3295194, "types": ["point_of_interest", "establishment"], "place_id": "ChIJSTPMlowVWBQRq3iy7YELkiQ"}, {"name": "Al Rahma Hospital", "formatted_address": "37 Alexandria، Al Gamea Sq., Egypt", "lat": 31.3311896, "types": ["hospital", "health", "point_of_interest", "establishment"], "place_id": "ChIJPRSXzYwVWBQR7m15R66aKcA"}, {"name": "Civil Registry - Heliopolis", "formatted_address": "Al Shareaa Al Gadid, El-Bostan, Heliopolis, Cairo Governorate, Egypt", "lat": 31.327976, "types": ["point_of_interest", "establishment"], "place_id": "ChIJ2-Bth4sVWBQRiBa5cVsM5SU"}, {"name": "Samir Kamal", "formatted_address": "2 Al Gamea Sq., El-Bostan, Heliopolis, Cairo Governorate, Egypt", "lat": 31.3282051, "types": ["health", "point_of_interest", "establishment"], "place_id": "ChIJpTgin4sVWBQRJB70T4y0PUQ"}, {"name": "Koll Shie", "formatted_address": "2 Al Gamea Sq., El-Bostan, Heliopolis, Cairo Governorate, Egypt", "lat": 31.3288544, "types": ["hardware_store", "point_of_interest", "store", "establishment"], "place_id": "ChIJGxtrcYsVWBQRAaozaj62oW0"}, {"name": "بورسلين الامير", "formatted_address": "٢٠ شارع ميدان الجامع، حدايق، Egypt", "lat": 31.3284559, "types": ["home_goods_store", "point_of_interest", "store", "establishment"], "place_id": "ChIJMTikMqw3WBQRYFeATPiqc6c"}, {"name": "El Safa For Spare Parts", "formatted_address": "Al Exanderia, El-Bostan, Heliopolis, Cairo Governorate, Egypt", "lat": 31.329005, "types": ["point_of_interest", "establishment"], "place_id": "ChIJnaNacIsVWBQRNwnX7HR7QQo"}, {"name": "Mostafa Taha Advertising", "formatted_address": "Al Exanderia, El-Bostan, Heliopolis, Cairo Governorate, Egypt", "lat": 31.3294, "types": ["point_of_interest", "establishment"], "place_id": "ChIJt5-LY4sVWBQRpZH0pk9YbvA"}, {"name": "جمعية جمال الدين الأفغانى", "formatted_address": "شارع عمر بن الخطاب، ميدان الاسماعيلية، Heliopolis, Cairo Governorate, Egypt", "lat": 31.3340451, "types": ["hospital", "health", "point_of_interest", "establishment"], "place_id": "ChIJF-EwSgMVWBQR3PWOSSFmnl4"}, {"name": "Soliman Rayad-Glass & Mirror", "formatted_address": "2 Al Gamea Sq., El-Bostan, Heliopolis, Cairo Governorate, Egypt", "lat": 31.3282945, "types": ["point_of_interest", "establishment"], "place_id": "ChIJQaUWgosVWBQRSV8oGsnc7Gs"}, {"name": "ساعاتي مصر الأول", "formatted_address": "ميدان الجامع، البستان، قسم مصر الجديدة،، Cairo Governorate, Egypt", "lat": 31.3284559, "types": ["point_of_interest", "store", "establishment"], "place_id": "ChIJY5f_cu4VWBQR03WhiQjM7Sc"}, {"name": "شركة الصفا لقطع غيار و صيانة الاجهزة المنزلية", "formatted_address": "15 ش اسكندرية - ميدان الجامع بجوار مستشفي الأفغاني, Heliopolis, Cairo Governorate 11757, Egypt", "lat": 31.3291573, "types": ["point_of_interest", "establishment"], "place_id": "ChIJd3472IwVWBQR7Gi9podFbpk"}, {"name": "مجوهرات فيرست", "formatted_address": "20 Othman Ibn Affan, Al Matar, El Nozha, Cairo Governorate, Egypt", "lat": 31.3302445, "types": ["point_of_interest", "establishment"], "place_id": "ChIJgRXzO4sVWBQRPor1xE1SMiM"}, {"name": "Dr. Hesham Hatata", "formatted_address": "18 شارع المنصوره - ميدان الجامع, جوار قسم ومرور مصر الجديده, القاهره, Egypt", "lat": 31.3288758, "types": ["doctor", "health", "point_of_interest", "establishment"], "place_id": "ChIJEdj8fYsVWBQRKnahsHG5XxY"}, {"name": "EL ADAWY", "formatted_address": "١٣ ش الاسكندرية, Al Gamea Sq., Heliopolis, Cairo Governorate, Egypt", "lat": 31.328795, "types": ["jewelry_store", "point_of_interest", "store", "establishment"], "place_id": "ChIJw83xdIsVWBQRw_feuvWN64w"}, {"name": "Samir Jewelry", "formatted_address": "12 Al Gamea Sq., El-Bostan, Heliopolis, Cairo Governorate, Egypt", "lat": 31.3281962, "types": ["jewelry_store", "point_of_interest", "store", "establishment"], "place_id": "ChIJ1wi1nIsVWBQRm0UCmWByIOg"}, {"name": "قصر النيل للديكور", "formatted_address": "18 Damanhour, ميدان الجامع, Heliopolis, Cairo Governorate, Egypt", "lat": 31.329378, "types": ["point_of_interest", "store", "establishment"], "place_id": "ChIJR6QUlIwVWBQR-GyEp8H0fn8"}, {"name": "مجموعة شركات ميديكور", "formatted_address": "38 Haroun El-Rashid, Al Matar, El Nozha, Cairo Governorate, Egypt", "lat": 31.3261497, "types": ["point_of_interest", "establishment"], "place_id": "ChIJ__9vLooVWBQRfyaX53-tyb0"}, {"name": "Wordart", "formatted_address": "ميدان الجامع مصر الجديدة، القاهرة، مصر، Mansoura, ميدان الجامع، Heliopolis, Cairo Governorate 11757, Egypt", "lat": 31.3285625, "types": ["point_of_interest", "establishment"], "place_id": "ChIJE4KPXnAVWBQRHjxaRsok9cY"}, {"name": "Tanmet Al Sahaa WA Al Beaa", "formatted_address": "Al Bustan, Heliopolis, Cairo Governorate, Egypt", "lat": 31.3248877, "types": ["hospital", "health", "point_of_interest", "establishment"], "place_id": "ChIJSeH7g4kVWBQR1RrRgiPR6Ts"}, {"name": "مكتب حازم عصام المحامى (محامى تأسيس شركات )", "formatted_address": "ش هارون الرشيد , ميدان الجامع , مصر الجديدة, Cairo Governorate, Egypt", "lat": 31.3280324, "types": ["lawyer", "point_of_interest", "establishment"], "place_id": "ChIJ03fF4AwVWBQRtpxmc2Rm9GE"}, {"name": "Karkour - House of embroidery - ميدان الجامع", "formatted_address": "3 Sidi Gaer St. Midan, Al Gamea Sq., Cairo Governorate, Egypt", "lat": 31.3284559, "types": ["clothing_store", "point_of_interest", "store", "establishment"], "place_id": "ChIJT28Om60VWBQRptgSwzNGSgM"}, {"name": "بن محمود عامر", "formatted_address": "Haroun El-Rashid, El-Bostan, Heliopolis, Cairo Governorate, Egypt", "lat": 31.32829809999999, "types": ["food", "point_of_interest", "store", "establishment"], "place_id": "ChIJ289Ff4sVWBQR7TvXk-KRLM0"}, {"name": "Hyper Samy Salama & Sons", "formatted_address": "2 Al Gamea Sq., مصر الجديدة، القاهرة، Cairo Governorate, Egypt", "lat": 31.3288245, "types": ["supermarket", "grocery_or_supermarket", "food", "point_of_interest", "store", "establishment"], "place_id": "ChIJ68DCoosVWBQRx40oRDH3QXo"}, {"name": "مستشفي جمال الدين الافغاني", "formatted_address": "El-Bostan, Heliopolis, Cairo Governorate, Egypt", "lat": 31.3284285, "types": ["hospital", "health", "point_of_interest", "establishment"], "place_id": "ChIJ5_Gkd4sVWBQR1vvis4a9abI"}, {"name": "Valansa", "formatted_address": "2 Al Gamea Sq., El-Bostan, Heliopolis, Cairo Governorate, Egypt", "lat": 31.328072, "types": ["jewelry_store", "point_of_interest", "store", "establishment"], "place_id": "ChIJDXh_mIsVWBQRiCqhkApzt3Y"}, {"name": "el-bebawy jewellery", "formatted_address": "Al Gamea Sq., El-Bostan, Heliopolis, Cairo Governorate 11311, Egypt", "lat": 31.3284559, "types": ["jewelry_store", "point_of_interest", "store", "establishment"], "place_id": "ChIJbwYsV8YVWBQRPo4LOE_hhQE"}, {"name": "عمرو الرملى", "formatted_address": "1 Al Gamea Sq., El-Bostan, Heliopolis, Cairo Governorate, Egypt", "lat": 31.3284375, "types": ["point_of_interest", "store", "establishment"], "place_id": "ChIJCXZjdz4VWBQRj9Px_wBQBTg"}, {"name": "Al Hedia", "formatted_address": "12 Ismail Ramzy St.، El-Bostan, Heliopolis, Cairo Governorate, Egypt", "lat": 31.3268176, "types": ["jewelry_store", "point_of_interest", "store", "establishment"], "place_id": "ChIJsy-A84sVWBQRlQiU-FR1rlc"}, {"name": "Elmaghraby", "formatted_address": "11شارع إسكندرية، Al Gamea Sq., Heliopolis, Cairo Governorate, Egypt", "lat": 31.3285206, "types": ["shopping_mall", "point_of_interest", "establishment"], "place_id": "ChIJv4XFTkYVWBQRmzK93PXCNwY"}, {"name": "Zaloum Pharmacy", "formatted_address": "35 متفرع من ميدان الجامع، El-Bostan, القاهرة، Cairo Governorate, Egypt", "lat": 31.3282842, "types": ["pharmacy", "health", "point_of_interest", "store", "establishment"], "place_id": "ChIJm2mEeIsVWBQRZD_SsmgUugs"}, {"name": "Royal", "formatted_address": "2 Al Gamea Sq., El-Bostan, Heliopolis, Cairo Governorate, Egypt", "lat": 31.3277837, "types": ["clothing_store", "point_of_interest", "store", "establishment"], "place_id": "ChIJN07DoosVWBQRwzlrWefSAzs"}, {"name": "ماركيز", "formatted_address": "2 Al Gamea Sq., El-Bostan, Heliopolis, Cairo Governorate, Egypt", "lat": 31.32767179999999, "types": ["jewelry_store", "point_of_interest", "store", "establishment"], "place_id": "ChIJS1maoosVWBQRvGkx8wACI1U"}, {"name": "جزارة الكمال", "formatted_address": "2 Al Gamea Sq., El-Bostan, Heliopolis, Cairo Governorate, Egypt", "lat": 31.32792959999999, "types": ["food", "point_of_interest", "establishment"], "place_id": "ChIJu1lgryoVWBQReDVEUgJ0abA"}, {"name": "مشويات أبو كريم", "formatted_address": "علامة مميزة: بجوار مجوهرات، 10 ش هارون الرشيدى, ميدان الجامع الجديدة، عطفة ياسين، Cairo Governorate, Egypt", "lat": 31.3278472, "types": ["restaurant", "food", "point_of_interest", "establishment"], "place_id": "ChIJ7bW9oosVWBQRSz4rnd3qC1Q"}, {"name": "Soliman Riad Sons Gallery", "formatted_address": "23 Aswan, El-Bostan, Heliopolis, Cairo Governorate, Egypt", "lat": 31.3271931, "types": ["art_gallery", "point_of_interest", "establishment"], "place_id": "ChIJrwbobIwVWBQRHmbFunRRqWw"}, {"name": "خالد الرملى", "formatted_address": "13 Alexandria, El-Bostan, Heliopolis, Cairo Governorate, Egypt", "lat": 31.328828, "types": ["general_contractor", "point_of_interest", "establishment"], "place_id": "ChIJKTeJDCkVWBQRasesUhmKI-I"}]