[{"name": "Mahmoued Hasan Mesbah", "formatted_address": "Al Bustan, Heliopolis, Cairo Governorate, Egypt", "lat": 31.329989, "types": ["point_of_interest", "establishment"], "place_id": "ChIJ-Zp3Xo0VWBQR3FfV5JZHnzc"}, {"name": "Our Lady of Heliopolis Co-Cathedral", "formatted_address": "Nazih Khalifa crossroad، Al Ahram, Heliopolis, Cairo Governorate, Egypt", "lat": 31.3251828, "types": ["church", "place_of_worship", "point_of_interest", "establishment"], "place_id": "ChIJJdgh-okVWBQR5TqTmKuQ0IM"}, {"name": "شركة المصطفى للماستر بيتش", "formatted_address": "4 Aswan, El-Bostan, Heliopolis, Cairo Governorate, Egypt", "lat": 31.3296604, "types": ["point_of_interest", "establishment"], "place_id": "ChIJL0-zm3MVWBQR-ie54VGvJfM"}, {"name": "Flora Market co.", "formatted_address": "ميدان المحكمة، مصر الجديدة، القاهرة، Cairo Governorate, Egypt", "lat": 31.329389, "types": ["point_of_interest", "establishment"], "place_id": "ChIJ732RZY0VWBQRvtCm7c_v7gQ"}, {"name": "Heba Medhat", "formatted_address": "21 Gamal Raslan, El-Bostan, Heliopolis, Cairo Governorate, Egypt", "lat": 31.3305956, "types": ["lodging", "point_of_interest", "establishment"], "place_id": "ChIJM1O3LV8VWBQR-DCJ7mcBcKo"}, {"name": "Meramar", "formatted_address": "Al Bustan, Heliopolis, Cairo Governorate, Egypt", "lat": 31.330013, "types": ["point_of_interest", "establishment"], "place_id": "ChIJPQzWXY0VWBQRdywM9Fslf6M"}, {"name": "Algzar Motors", "formatted_address": "15 Gamal Raslan, El-Bostan, Heliopolis, Cairo Governorate, Egypt", "lat": 31.3299813, "types": ["point_of_interest", "store", "establishment"], "place_id": "ChIJXTzfXY0VWBQRn9zayABWKiE"}, {"name": "Abd El Alem Ibrahim", "formatted_address": "94 القصر العيني، El-Bostan, Heliopolis, Cairo Governorate, Egypt", "lat": 31.3293506, "types": ["point_of_interest", "establishment"], "place_id": "ChIJRUKEZY0VWBQRU0VxJS9eags"}, {"name": "دكتور حسام الإسناوى", "formatted_address": "11 Gamal Raslan, El-Bostan, Heliopolis, Cairo Governorate, Egypt", "lat": 31.3294479, "types": ["doctor", "health", "point_of_interest", "establishment"], "place_id": "ChIJn8jNY40VWBQRVsa9o_atUgg"}, {"name": "Alumitex", "formatted_address": "11 Aswan, El-Bostan, Heliopolis, Cairo Governorate, Egypt", "lat": 31.3294963, "types": ["point_of_interest", "establishment"], "place_id": "ChIJDTra6kUVWBQRlbUSXNrhL0A"}, {"name": "So Cute", "formatted_address": "11 جمال رسلان، Aswan, Heliopolis, Egypt", "lat": 31.3293669, "types": ["point_of_interest", "clothing_store", "store", "establishment"], "place_id": "ChIJRbTKxmoVWBQRp7QnzXFmSNM"}, {"name": "Zahret El Bon - زهرة البن البرازيلي", "formatted_address": "23 Gamal Raslan, El-Bostan, Heliopolis, Cairo Governorate, Egypt", "lat": 31.32929469999999, "types": ["cafe", "food", "point_of_interest", "store", "establishment"], "place_id": "ChIJ4cDqjoYVWBQR_M-OAtctbuQ"}, {"name": "الشركة العامه للتجاره و الاستيراد", "formatted_address": "٢٨ شارع أسوان ميدان المحكمة مصر الجديدة البستان، مصر الجديدة،، Cairo Governorate, Egypt", "lat": 31.3296584, "types": ["point_of_interest", "establishment"], "place_id": "ChIJ_4UgzlIVWBQRnpJQPdxZmB0"}, {"name": "Heliopolis Family Court", "formatted_address": "58 El Hegaz St, El-Nozha, Heliopolis, Cairo Governorate, Egypt", "lat": 31.3297672, "types": ["courthouse", "local_government_office", "point_of_interest", "establishment"], "place_id": "ChIJNxzB6pIVWBQRQx6kT15XA74"}, {"name": "Parking AlGazar", "formatted_address": "البستان، مصر الجديدة،، Cairo Governorate, Egypt", "lat": 31.3301298, "types": ["parking", "point_of_interest", "establishment"], "place_id": "ChIJ2QYRp6IVWBQRTjJL8Jk0ko8"}, {"name": "المستشار محمد هيبه المحامى", "formatted_address": "Al Bustan, Heliopolis, Cairo Governorate, Egypt", "lat": 31.3296573, "types": ["lawyer", "point_of_interest", "establishment"], "place_id": "ChIJJbpXZo0VWBQRsF7O0vZlOj8"}, {"name": "Tseppas MG", "formatted_address": "45 تقاطع ش هارون، Al Matar, El Nozha, Cairo Governorate, Egypt", "lat": 31.3322726, "types": ["bakery", "food", "point_of_interest", "store", "establishment"], "place_id": "ChIJoQXTpPIVWBQR3J-wVnx6f4o"}, {"name": "Abou Aza Cafe", "formatted_address": "2 Aswan, El-Bostan, Heliopolis, Cairo Governorate, Egypt", "lat": 31.3296433, "types": ["cafe", "food", "point_of_interest", "establishment"], "place_id": "ChIJuVytZo0VWBQRtNBqDDM3ZX8"}, {"name": "مهندس ديكور - interior designer mohamed mahdy", "formatted_address": "Al Mahkma, El-Bostan, Heliopolis, Cairo Governorate, Egypt", "lat": 31.3299239, "types": ["point_of_interest", "establishment"], "place_id": "ChIJOSMQu3YVWBQRiUDtgA6ojzg"}, {"name": "Mohsean", "formatted_address": "Al Bustan, Heliopolis, Cairo Governorate, Egypt", "lat": 31.3300329, "types": ["point_of_interest", "establishment"], "place_id": "ChIJTRcqXY0VWBQRk5xfDdE0_bs"}, {"name": "Chevch Dinzo", "formatted_address": "Al Bustan, Heliopolis, Cairo Governorate, Egypt", "lat": 31.3293669, "types": ["point_of_interest", "establishment"], "place_id": "ChIJY6VHYo0VWBQRnnbyhYvqv6s"}, {"name": "Pth Center", "formatted_address": "3 El-Nasir Mohammed, Emberouz WA Moharram Beik, Moharam Bek, Alexandria Governorate, Egypt", "lat": 31.3303179, "types": ["point_of_interest", "establishment"], "place_id": "ChIJZZn-WI0VWBQRagyv1BcJji0"}, {"name": "ام اف بى. MFB LOGISTICS", "formatted_address": "٢٣، Aswan, Egypt", "lat": 31.3299349, "types": ["point_of_interest", "establishment"], "place_id": "ChIJh5XWcT4VWBQRSNQdcgACNz8"}, {"name": "Redcon Construction", "formatted_address": "35 Abou Bakr El-Sedeek, El-Bostan, Heliopolis, Cairo Governorate, Egypt", "lat": 31.3310042, "types": ["general_contractor", "point_of_interest", "establishment"], "place_id": "ChIJn8sJXJIVWBQRcDbhALjTlbU"}, {"name": "Al Gazar Motors", "formatted_address": "Abou Bakr El-Sedeek, El-Bostan, Heliopolis, Cairo Governorate, Egypt", "lat": 31.3301492, "types": ["car_repair", "point_of_interest", "establishment"], "place_id": "ChIJ4bLYXo0VWBQRqC4vmfz3OYg"}, {"name": "El-Rowad", "formatted_address": "2 ش سوهاج متفرع من ش اسوان, ميدان المحكمة, Heliopolis, Cairo Governorate, Egypt", "lat": 31.3298741, "types": ["point_of_interest", "store", "establishment"], "place_id": "ChIJD3kP544VWBQRvmYlsRxIpMk"}, {"name": "Studio Sandy", "formatted_address": "البستان، مصر الجديدة،،, El-Bostan, Heliopolis, Cairo Governorate, Egypt", "lat": 31.3302203, "types": ["clothing_store", "point_of_interest", "store", "establishment"], "place_id": "ChIJ10BUxGgVWBQRQzos67hT8sA"}, {"name": "Ekrame", "formatted_address": "Al Bustan, Heliopolis, Cairo Governorate, Egypt", "lat": 31.3293669, "types": ["hair_care", "health", "point_of_interest", "establishment"], "place_id": "ChIJ65dfYo0VWBQRL8UIJ8Dx8VA"}, {"name": "فلورا ماركت-زهور", "formatted_address": "Al Bustan, Heliopolis, Cairo Governorate, Egypt", "lat": 31.3296573, "types": ["florist", "point_of_interest", "store", "establishment"], "place_id": "ChIJtfL0Zo0VWBQRQBBaJIBLAQs"}, {"name": "صيانه جليم جاز ووايت وستنج هاوس وبلت ان", "formatted_address": "٢٠شارع العقبه، Cairo Governorate, Egypt", "lat": 31.3299916, "types": ["point_of_interest", "establishment"], "place_id": "ChIJA52y2zQVWBQRGlr9YBzMKOM"}, {"name": "Bon Voyage", "formatted_address": "16 Adly, Al Fawalah, Abdeen, Cairo Governorate, Egypt", "lat": 31.244439, "types": ["tourist_attraction", "point_of_interest", "establishment"], "place_id": "ChIJJZ3TEL5AWBQRc-PhG_sO-S0"}, {"name": "GS Hotels Management", "formatted_address": "13 ش محمد باشا رياض، El-Bostan, Heliopolis, Cairo Governorate, Egypt", "lat": 31.3298211, "types": ["university", "point_of_interest", "establishment"], "place_id": "ChIJZ2_bF40VWBQRX2gr-YxI4t4"}, {"name": "مؤسسة مصر الخير- فرع الكوربة", "formatted_address": "2 شارع بغداد متفرع من ابراهيم اللقاني بجوار سور الاتحادية الكوربة، Heliopolis, Cairo Governorate, Egypt", "lat": 31.3226234, "types": ["point_of_interest", "establishment"], "place_id": "ChIJj6WsXZM_WBQRSvVjdFJpiKM"}, {"name": "Misr El Dawleya", "formatted_address": "96 ش محمد فريد، وسط البلد، Abdeen, Cairo Governorate, Egypt", "lat": 31.2442814, "types": ["point_of_interest", "establishment"], "place_id": "ChIJYaZ29JVAWBQRfDHDvqzkKAg"}, {"name": "مؤسسة مصر الخير", "formatted_address": "2 شارع بغداد امام قصر، الاتحادية، المنتزه، مصر الجديدة، محافظة القاهرة‬،، Egypt", "lat": 31.3212989, "types": ["point_of_interest", "establishment"], "place_id": "ChIJBagUIVc_WBQRMZ7m0nVCWiA"}, {"name": "صوت الفن", "formatted_address": "16 Adly, Bab Al Louq, Abdeen, Cairo Governorate, Egypt", "lat": 31.244439, "types": ["point_of_interest", "establishment"], "place_id": "ChIJ__8vEb5AWBQRqaCYbvGsNWU"}, {"name": "Raslan Stores", "formatted_address": "333 Sudan St, Mohandseen Dist, Giza Governorate, Egypt", "lat": 31.1951743, "types": ["electronics_store", "point_of_interest", "store", "establishment"], "place_id": "ChIJIQpJky5BWBQR99GrF2NvwMY"}, {"name": "Dr. Mohamed Ahmed Heshmat", "formatted_address": "28 adly st.، DOWNTOWN، Abdeen, Cairo Governorate, Egypt", "lat": 31.2438927, "types": ["point_of_interest", "establishment"], "place_id": "ChIJP1BdIL5AWBQRjresW9Lvqfs"}, {"name": "Enviro Egypt", "formatted_address": "34 ش عدلى، وسط البلد، Abdeen, Cairo Governorate, Egypt", "lat": 31.2438927, "types": ["point_of_interest", "establishment"], "place_id": "ChIJtZcaApZAWBQR8B1wlb7EUNU"}, {"name": "Ruslan Center honey and herbs and dates", "formatted_address": "Mahetet Al Meah, Al Marg Al Bahreyah, El Marg, Cairo Governorate, Egypt", "lat": 31.34164519999999, "types": ["food", "health", "point_of_interest", "store", "establishment"], "place_id": "ChIJbSxMYRAUWBQRkGAtzjGJh_I"}, {"name": "Misr Investment Co.", "formatted_address": "153 ش محمد فريد، وسط البلد، Abdeen, Cairo Governorate, Egypt", "lat": 31.2442814, "types": ["point_of_interest", "establishment"], "place_id": "ChIJicr4KMIVWBQRKHMsxR6Qh6g"}, {"name": "Bozo", "formatted_address": "3 26 يوليو، المهندسين، Giza District, Cairo Governorate, Egypt", "lat": 31.2451698, "types": ["point_of_interest", "establishment"], "place_id": "ChIJS0-a45VAWBQRHKWunDn7Wnk"}, {"name": "Gold Watch", "formatted_address": "23 Adly St.، DOWNTOWN، Abdeen, Cairo Governorate, Egypt", "lat": 31.2438927, "types": ["point_of_interest", "establishment"], "place_id": "ChIJ410GPb5AWBQRbuArHVt4z0s"}, {"name": "Fagr - Egyptian Group For Public Development", "formatted_address": "127 ش محمد فريد، Al Fawalah, Abdeen, Cairo Governorate, Egypt", "lat": 31.2442814, "types": ["point_of_interest", "establishment"], "place_id": "ChIJw2jHDLlAWBQRVaQakuEpXPw"}, {"name": "دوار", "formatted_address": "16 Adly, Al Fawalah, Abdeen, Cairo Governorate, Egypt", "lat": 31.2444909, "types": ["point_of_interest", "establishment"], "place_id": "ChIJRby8EL5AWBQRcZTnGq2qbu4"}, {"name": "Al- Ahram Book Shop", "formatted_address": "28 Adly, Al Fawalah, Abdeen, Cairo Governorate, Egypt", "lat": 31.2445261, "types": ["book_store", "point_of_interest", "store", "establishment"], "place_id": "ChIJh4qIFL5AWBQRAfPdoirQB6U"}, {"name": "New Society Service Association", "formatted_address": "18 Adly St.، DOWNTOWN، Abdeen, Cairo Governorate, Egypt", "lat": 31.2438927, "types": ["point_of_interest", "establishment"], "place_id": "ChIJtZcaApZAWBQRXp74iGF8f3E"}, {"name": "cairo house hotel", "formatted_address": "20 Adly, Al Fawalah, Abdeen, Cairo Governorate 11511, Egypt", "lat": 31.2437258, "types": ["lodging", "point_of_interest", "establishment"], "place_id": "ChIJV4QCP75AWBQRJH77IiDQSTk"}, {"name": "مؤسسة مصر الخير فرع حسن المأمون", "formatted_address": "shares building, 39 Hassan Ma'moon, Nasr City, Cairo Governorate, Egypt", "lat": 31.3578687, "types": ["point_of_interest", "establishment"], "place_id": "ChIJy0k6zOU9WBQRy3e52MEd8os"}, {"name": "رسلان قطع غيار اصلية", "formatted_address": "ش Al Khalifa Al Zaher, Al Hay as Sabea, Nasr City, Cairo Governorate, Egypt", "lat": 31.327524, "types": ["car_repair", "point_of_interest", "store", "establishment"], "place_id": "ChIJ7dcCs_M-WBQRGHWyhufMLOE"}, {"name": "Ali Baba", "formatted_address": "Al Fawalah, Abdin, Cairo Governorate, Egypt", "lat": 31.24520189999999, "types": ["point_of_interest", "establishment"], "place_id": "ChIJAXo_Ab5AWBQRaH8okAnym2c"}, {"name": "Cairo Khan", "formatted_address": "12, 26 JULY ST، Mohammed Farid, Egypt", "lat": 31.2431635, "types": ["lodging", "point_of_interest", "establishment"], "place_id": "ChIJD1gOLOtAWBQREeCsbGdo3iI"}, {"name": "Sha'ar Hashamayim Synagogue", "formatted_address": "18 شارع عدلي، الفوالة، عابدين، محافظة القاهرة‬،، Egypt", "lat": 31.2436791, "types": ["synagogue", "place_of_worship", "point_of_interest", "establishment"], "place_id": "ChIJDVLmR6hBWBQR6vKEPq4Bl6M"}, {"name": "Aswaf New Look", "formatted_address": "1 Adly St.، DOWNTOWN، Abdeen, Cairo Governorate, Egypt", "lat": 31.2438927, "types": ["point_of_interest", "establishment"], "place_id": "ChIJ410GPb5AWBQRCycdTIOC3Do"}, {"name": "The Anglo Egyptian Bookshop", "formatted_address": "165 Mohammed Farid, Al Fawalah, Abdeen, Cairo Governorate, Egypt", "lat": 31.2443439, "types": ["book_store", "point_of_interest", "store", "establishment"], "place_id": "ChIJYaZ29JVAWBQRnMAS_AVxFIs"}, {"name": "Alexander", "formatted_address": "165 Mohammed Farid, St, Abdeen, Cairo Governorate 11111, Egypt", "lat": 31.2444644, "types": ["lodging", "point_of_interest", "establishment"], "place_id": "ChIJi-trFL5AWBQR613uzPmX5DE"}, {"name": "Cairo international hostel Downtown", "formatted_address": "9 Adly, Al Fawalah, Abdeen, Cairo Governorate, Egypt", "lat": 31.2448464, "types": ["lodging", "point_of_interest", "establishment"], "place_id": "ChIJu3w6ga5BWBQRwqorHLdNWNE"}, {"name": "Zahraa ElShark For Publication", "formatted_address": "الشرق للنشر، 116 شارع محمد فريد، الفوالة، عابدين، محافظة القاهرة‬، دار زهراء، Egypt", "lat": 31.2441194, "types": ["book_store", "point_of_interest", "store", "establishment"], "place_id": "ChIJ0RLsorlAWBQRQyz8mlnOoBw"}, {"name": "مكتبه النهضه المصرية", "formatted_address": "9 Adly, Bab Al Louq, Abdeen, Cairo Governorate, Egypt", "lat": 31.2451544, "types": ["library", "point_of_interest", "establishment"], "place_id": "ChIJM1OFAb5AWBQRZ_HNk2m7O-c"}, {"name": "Milano Hostel", "formatted_address": "16 Adly, Al Fawalah, Abdeen, Cairo Governorate, Egypt", "lat": 31.244482, "types": ["lodging", "point_of_interest", "establishment"], "place_id": "ChIJIeX9Pb5AWBQRVecz770yGr8"}]