[{"name": "Ittihadia Palace", "formatted_address": "Al Nadi، El-Montaza, Heliopolis, Cairo Governorate, Egypt", "lat": 30.0888643, "lng": 31.3193929, "types": ["tourist_attraction", "premise", "point_of_interest", "establishment"], "place_id": "ChIJuftqUS8-WBQRtM7fDk0QcPk"}, {"name": "Baron Empain Palace", "formatted_address": "El-Orouba, El-Montaza, Heliopolis, Cairo Governorate 11757, Egypt", "lat": 30.0866701, "lng": 31.3303332, "types": ["point_of_interest", "establishment"], "place_id": "ChIJ1_GM8iE-WBQRLNVi-RT7vDA"}, {"name": "Our Lady of Heliopolis Co-Cathedral", "formatted_address": "Nazih Khalifa crossroad، Al Ahram, Heliopolis, Cairo Governorate, Egypt", "lat": 30.0935707, "lng": 31.3251828, "types": ["church", "place_of_worship", "point_of_interest", "establishment"], "place_id": "ChIJJdgh-okVWBQR5TqTmKuQ0IM"}, {"name": "Abdeen Palace Museum", "formatted_address": "شارع جمعه عابدين،، El-Gomhoreya Square, Rahbet Abdin, Abdeen, Cairo Governorate, Egypt", "lat": 30.0422696, "lng": 31.248544, "types": ["tourist_attraction", "museum", "point_of_interest", "establishment"], "place_id": "ChIJF_ZR9bpAWBQR_WeDJloU-7o"}, {"name": "مريم عتمان", "formatted_address": "مصر الجديدة، المطار، قسم النزهة،، Cairo Governorate, Egypt", "lat": 30.112315, "lng": 31.3438507, "types": ["point_of_interest", "establishment"], "place_id": "ChIJgxrFUogVWBQRS1UPh4qIBp0"}, {"name": "Nordix Egypt", "formatted_address": "22 متفرع من ش فريد سميكة، Al Matar, El Nozha, Cairo Governorate, Egypt", "lat": 30.1122619, "lng": 31.345483, "types": ["point_of_interest", "establishment"], "place_id": "ChIJAeBmGKEVWBQRTIKZUxqraxg"}, {"name": "حجز فنادق مصر الجديدة", "formatted_address": "مصر الجديدة، Cairo Governorate, Egypt", "lat": 30.112315, "lng": 31.3438507, "types": ["travel_agency", "point_of_interest", "establishment"], "place_id": "ChIJI1h83OMVWBQRtdlkKJjuHuw"}, {"name": "Zazy Collection", "formatted_address": "111 ش فريد سميكة، Al Matar, El Nozha, Cairo Governorate, Egypt", "lat": 30.1122619, "lng": 31.345483, "types": ["point_of_interest", "establishment"], "place_id": "ChIJ3wzJitwVWBQR3wtC0gMctEE"}, {"name": "Golden Park Hotel", "formatted_address": "شارع الحجاز ، مصر الجديده، 221 شارع الحجاز ، هيليوبوليس ،، El Nozha, Cairo Governorate, Egypt", "lat": 30.1153686, "lng": 31.3525102, "types": ["lodging", "point_of_interest", "establishment"], "place_id": "ChIJsQQdRNgVWBQRss6fVxNFk_8"}, {"name": "Media Rack", "formatted_address": "15 Abdel Azim Awadallah St.، Al Matar, Heliopolis, Cairo Governorate, Egypt", "lat": 30.112068, "lng": 31.342883, "types": ["point_of_interest", "establishment"], "place_id": "ChIJFbMI09wVWBQRc68dm8ldfsc"}, {"name": "كيميت توريدات معدات مطارات ومقاولات", "formatted_address": "16 محمد غنيم، Al Matar, El Nozha, Cairo Governorate, Egypt", "lat": 30.11251459999999, "lng": 31.342972, "types": ["point_of_interest", "establishment"], "place_id": "ChIJVVXlqyQ-WBQRnCPy1bxzWSs"}, {"name": "Egyptravel", "formatted_address": "Safer square 12 Hassona, النواوي، Cairo Governorate, Egypt", "lat": 30.112315, "lng": 31.3438507, "types": ["travel_agency", "point_of_interest", "establishment"], "place_id": "ChIJneOVGKdHWBQR2dPurZOd9g8"}, {"name": "Heliopolis Towers Hotel", "formatted_address": "El Shaheed Sayed Zakaria, Sheraton Al Matar, El Nozha, Cairo Governorate 11736, Egypt", "lat": 30.1074763, "lng": 31.3661798, "types": ["lodging", "point_of_interest", "establishment"], "place_id": "ChIJZ9p3820WWBQRmZh2M_MSzOQ"}, {"name": "Bromo Motors", "formatted_address": "160 ميدان الحجاز، Al Matar, El Nozha, Cairo Governorate, Egypt", "lat": 30.1120211, "lng": 31.34491539999999, "types": ["point_of_interest", "establishment"], "place_id": "ChIJQSuK8dwVWBQRTcpR4vGXlyw"}, {"name": "Go Heliopolis - Khozam The First Compound In Heliopolis", "formatted_address": "شارع النزهة، مصر الجديدة،، Egypt", "lat": 30.0732268, "lng": 31.3397646, "types": ["lodging", "point_of_interest", "establishment"], "place_id": "ChIJZ7ZHBKs_WBQRJD3Ntp2Q_ww"}, {"name": "Disruptive Management Solutions - DMS", "formatted_address": "Military College, 03 General Abdulaziz Ali St, Al Matar, El Nozha, Cairo Governorate, Egypt", "lat": 30.112315, "lng": 31.3438507, "types": ["point_of_interest", "establishment"], "place_id": "ChIJxbKCrkoVWBQRRg1tITQb_BQ"}, {"name": "Radisson Blu Hotel, Cairo Heliopolis", "formatted_address": "Abdel Hamid Badawi St Heliopolis, Cairo Governorate 11787, Egypt", "lat": 30.1065093, "lng": 31.3753121, "types": ["lodging", "point_of_interest", "establishment"], "place_id": "ChIJQZJ8fWUWWBQRAUPO9I6SxPg"}, {"name": "Mar Guirguis church", "formatted_address": "Al Matar, El Nozha, Cairo Governorate, Egypt", "lat": 30.112315, "lng": 31.3438507, "types": ["church", "place_of_worship", "point_of_interest", "establishment"], "place_id": "ChIJo7ZMU40VWBQRyM0cS-gcbeM"}, {"name": "هيلتون هيليوبلس", "formatted_address": "Al Matar, El Nozha, Cairo Governorate, Egypt", "lat": 30.112315, "lng": 31.3438507, "types": ["lodging", "point_of_interest", "establishment"], "place_id": "ChIJocT4HcUVWBQRgIk90yuylWM"}, {"name": "مستشفى الحرية التخصصى", "formatted_address": "11 Latif Mansour St، Almazah, El Nozha, Cairo Governorate, Egypt", "lat": 30.112315, "lng": 31.3438507, "types": ["hospital", "health", "point_of_interest", "establishment"], "place_id": "ChIJq7jFPhw-WBQRx7wGgL_7bO8"}, {"name": "The Egyptian Museum", "formatted_address": "شارع ماريت باشا، ميدان التحرير، Egypt", "lat": 30.0475781, "lng": 31.23361389999999, "types": ["museum", "tourist_attraction", "point_of_interest", "establishment"], "place_id": "ChIJw741VYhBWBQRD2Z6OiulDVI"}, {"name": "El Dawleya Cars", "formatted_address": "61 Farid Semeika St.، Al Matar, Heliopolis, Cairo Governorate, Egypt", "lat": 30.112639, "lng": 31.344487, "types": ["point_of_interest", "establishment"], "place_id": "ChIJAeBmGKEVWBQRQZIutCFDKuU"}, {"name": "Lont Group", "formatted_address": "4A Kamal EL Shafie، Ismailia Square، Heliopolis, Cairo Governorate, Egypt", "lat": 30.112315, "lng": 31.3438507, "types": ["travel_agency", "point_of_interest", "establishment"], "place_id": "ChIJ2_pLw4Q_WBQR5wCWEEgCfSw"}, {"name": "شقق مقروشة للايجار في القاهرة", "formatted_address": "ميدان تريومف، Al Matar, El Nozha, Cairo Governorate 11757, Egypt", "lat": 30.112315, "lng": 31.3438507, "types": ["lodging", "point_of_interest", "establishment"], "place_id": "ChIJWZEUunIVWBQR9m5l_WAmnt4"}, {"name": "Egyptair", "formatted_address": "Al Matar, El Nozha, Cairo Governorate, Egypt", "lat": 30.112315, "lng": 31.3438507, "types": ["travel_agency", "point_of_interest", "establishment"], "place_id": "ChIJmeXkw9wVWBQRhp0z_uttSsk"}, {"name": "Adel Sadek Law Firm", "formatted_address": "مصر الجديدة،، Cairo Governorate, Egypt", "lat": 30.112315, "lng": 31.3438507, "types": ["point_of_interest", "establishment"], "place_id": "ChIJJ0tK4Kk_WBQRJY8CWS6y4ok"}, {"name": "الندى للسياحة", "formatted_address": "95 Mohammed Farid, Al Matar, El Nozha, Cairo Governorate, Egypt", "lat": 30.114135, "lng": 31.3429199, "types": ["travel_agency", "point_of_interest", "establishment"], "place_id": "ChIJ87OaqtwVWBQRi2RVO1IZb0w"}, {"name": "معاز السقا", "formatted_address": "14 عبد الحي فتحي، المطار، قسم النزهة،، Cairo Governorate, Egypt", "lat": 30.1125006, "lng": 31.3438292, "types": ["point_of_interest", "establishment"], "place_id": "ChIJv5bKAj8VWBQRkEBXT4OP3sE"}, {"name": "الهندسيه للستائر الرأسيه", "formatted_address": "مصر الجديده، القاهره، مصر فارغ، Egypt", "lat": 30.112315, "lng": 31.3438507, "types": ["home_goods_store", "point_of_interest", "store", "establishment"], "place_id": "ChIJT2uD_nYVWBQRmvvE3fIiJnw"}, {"name": "EGENT Center (Heliopolis Branch)", "formatted_address": "24 el Ahram street, Al Matar, El Nozha, Cairo Governorate, Egypt", "lat": 30.112315, "lng": 31.3438507, "types": ["health", "point_of_interest", "establishment"], "place_id": "ChIJA9dUAxwVWBQRn6gBuXiy7yA"}, {"name": "علي أبوهيف", "formatted_address": "مصر الجديدة الكوربة ش3 البوستة, Heliopolis, Cairo Governorate 11757, Egypt", "lat": 30.112315, "lng": 31.3438507, "types": ["point_of_interest", "establishment"], "place_id": "ChIJ26OLZNcVWBQRr73tM3AyTTM"}, {"name": "Hilton Cairo Heliopolis", "formatted_address": "El-Orouba, Sheraton Al Matar, El Nozha, Cairo Governorate, Egypt", "lat": 30.1067298, "lng": 31.3646213, "types": ["lodging", "point_of_interest", "establishment"], "place_id": "ChIJUYFpLCELRRQRzCxbUHFt6Vs"}, {"name": "فندق كنكورد السلام", "formatted_address": "المطار، قسم النزهة، محافظة القاهرة‬،، Egypt", "lat": 30.112315, "lng": 31.3438507, "types": ["lodging", "point_of_interest", "establishment"], "place_id": "ChIJZYOYs08VWBQRBPgJTZvjWGo"}, {"name": "Porto Heliopolis", "formatted_address": "Almazah, Heliopolis, Cairo Governorate, Egypt", "lat": 30.0827031, "lng": 31.348709, "types": ["lodging", "point_of_interest", "establishment"], "place_id": "ChIJR5FCXgE-WBQR471eyuZuvGw"}, {"name": "المصرية لخدمات المؤتمرات", "formatted_address": "6 Al Abnasy Street, Mansheiet El-Bakry, Cairo Governorate 11341, Egypt", "lat": 30.112315, "lng": 31.3438507, "types": ["point_of_interest", "establishment"], "place_id": "ChIJV2-3ZtM_WBQRppQSBfVwTtY"}, {"name": "Soliman Travel", "formatted_address": "95 ش فريد سميكة، Al Matar, El Nozha, Cairo Governorate, Egypt", "lat": 30.1122619, "lng": 31.345483, "types": ["travel_agency", "point_of_interest", "establishment"], "place_id": "ChIJAeBmGKEVWBQR9txzbMNO-No"}, {"name": "international consultant bureau", "formatted_address": "3 mohamed kamal eldin st, Al Matar, El Nozha, Cairo Governorate, Egypt", "lat": 30.112315, "lng": 31.3438507, "types": ["lawyer", "point_of_interest", "establishment"], "place_id": "ChIJ6--YtSEVWBQRQvC0-UUTb_s"}, {"name": "مطبعة الأندلس", "formatted_address": "مصر الجديده الجرفه سابقن،، Egypt", "lat": 30.112315, "lng": 31.3438507, "types": ["point_of_interest", "establishment"], "place_id": "ChIJCX2oMEEVWBQRqJxm0dvnFks"}, {"name": "Church of the Great Martyr Saint George and Anba Ebram - كنيسة الشهيد العظيم مارجرجس و الأنبا ابرآم", "formatted_address": "54 Abd El-Aziz Fahmy, Al Matar, El Nozha, Cairo Governorate, Egypt", "lat": 30.1080494, "lng": 31.3392792, "types": ["church", "place_of_worship", "point_of_interest", "establishment"], "place_id": "ChIJvzrXsekVWBQRye4OpOsJnNM"}, {"name": "مركز الدكتور امجد الحداد حساسية ومناعه 12ش بطرس غالى روكسي مصر الجديده", "formatted_address": "12 شارع بطرس غالى روكسى، روكسي، مصر الجديده، Cairo Governorate, Egypt", "lat": 30.112315, "lng": 31.343851, "types": ["doctor", "health", "point_of_interest", "establishment"], "place_id": "ChIJf2fnvc4VWBQRy8CF-La2d4c"}, {"name": "اوتوشوب فرع جسر السويس", "formatted_address": "شنودة، 6 عمارات الشرطة - ناصية عزبة، Cairo Governorate, Egypt", "lat": 30.112315, "lng": 31.3438507, "types": ["car_repair", "point_of_interest", "store", "establishment"], "place_id": "ChIJSfibmtoVWBQRKQFQedKNvE0"}, {"name": "مصر الجديدة", "formatted_address": "المطار، قسم النزهة،، Cairo Governorate, Egypt", "lat": 30.111333, "lng": 31.3443623, "types": ["point_of_interest", "store", "establishment"], "place_id": "ChIJJ9PrwbkVWBQRv9pWnoGZE6o"}, {"name": "كمبوند سكاي كابيتال", "formatted_address": "محافظة القاهرة‬،4 ش صلاح الدين من العروبه - مصر الجديده، Cairo Governorate 11736, Egypt", "lat": 30.112315, "lng": 31.3438507, "types": ["real_estate_agency", "lodging", "point_of_interest", "establishment"], "place_id": "ChIJxeUN-f6NVxQR4gOpLWmma2E"}, {"name": "art planet 369", "formatted_address": "Al Matar, El Nozha, Cairo Governorate, Egypt", "lat": 30.112315, "lng": 31.3438507, "types": ["point_of_interest", "establishment"], "place_id": "ChIJgW-2iYQVWBQRAcyJwo7q004"}, {"name": "Arab film school", "formatted_address": "15-Al-Ahram Street, Heliopolis, Cairo Governorate 11757, Egypt", "lat": 30.112315, "lng": 31.3438507, "types": ["point_of_interest", "establishment"], "place_id": "ChIJcYZ1plEVWBQRfQ17CkMcvAQ"}, {"name": "مداك لانظمه الالومنيوم Madac for Aluminum Systems & U-PVC", "formatted_address": "53 شارع احمد زكى النزهه الجديده امام فلوبتير بالاس، مصر الجديده، القاهرة 11843، مصر Masr Elgdeda، Egypt", "lat": 30.112315, "lng": 31.3438507, "types": ["general_contractor", "point_of_interest", "establishment"], "place_id": "ChIJX5vK7EAVWBQRgVSZ83YGpW4"}, {"name": "TOLIP El Galaa - Heliopolis", "formatted_address": "El Orouba St, Sheraton Al Matar, El Nozha, Cairo Governorate, Egypt", "lat": 30.0985969, "lng": 31.3490226, "types": ["lodging", "point_of_interest", "establishment"], "place_id": "ChIJvyeGu-QVWBQRkPqc2rg6IsE"}, {"name": "ورثة احمد حافظ", "formatted_address": "شارع, Cairo Governorate, Egypt", "lat": 30.112315, "lng": 31.3438507, "types": ["point_of_interest", "establishment"], "place_id": "ChIJZ5YXq9wVWBQR8n_hUliQaSQ"}, {"name": "Dr. Mina magdi dental clinic", "formatted_address": "60 Heliopolis st. El ibrahemya 2ndfloor, Egypt", "lat": 30.112315, "lng": 31.3438507, "types": ["dentist", "health", "point_of_interest", "establishment"], "place_id": "ChIJyVgcg9oVWBQRsq6fyvZ8Vu0"}, {"name": "St. Mark Coptic Orthodox Church Cleopatra", "formatted_address": "35 كيلوباترا، الماظة، قسم مصر الجديدة،، Cairo Governorate, Egypt", "lat": 30.0924011, "lng": 31.3296246, "types": ["church", "place_of_worship", "point_of_interest", "establishment"], "place_id": "ChIJH3kNmooVWBQRfL4z5mf-KXU"}, {"name": "OKKA Coffee Machine", "formatted_address": "5 ش ابن سينا - ميدان سفير Heliopolis القاهرة، 11757, Egypt", "lat": 30.112315, "lng": 31.3438507, "types": ["home_goods_store", "point_of_interest", "store", "establishment"], "place_id": "ChIJ30hiuoUVWBQRhk5mzfGj5Yc"}, {"name": "الدرس", "formatted_address": "157 El Hegaz St, Al Matar, El Nozha, Cairo Governorate, Egypt", "lat": 30.109935, "lng": 31.343274, "types": ["university", "point_of_interest", "establishment"], "place_id": "ChIJ2QZWhxIVWBQRsN1TmZk3Rn0"}, {"name": "محمد سعد", "formatted_address": "Al Matar, El Nozha, Cairo Governorate 11757, Egypt", "lat": 30.112315, "lng": 31.3438507, "types": ["furniture_store", "home_goods_store", "point_of_interest", "store", "establishment"], "place_id": "ChIJi0ahxJQVWBQRvGgOE2t1p2c"}, {"name": "English Home Club", "formatted_address": "60 St. Haroun, Heliopolis, Cairo Governorate 11545, Egypt", "lat": 30.112315, "lng": 31.3438507, "types": ["point_of_interest", "establishment"], "place_id": "ChIJK1ZIUY4VWBQRcigafOCQujE"}, {"name": "Martyria Foundation for Culture & Development", "formatted_address": "21 Branshed from Abd Al HI Fathi, Al Matar, El Nozha, Cairo Governorate, Egypt", "lat": 30.1123568, "lng": 31.3444654, "types": ["point_of_interest", "establishment"], "place_id": "ChIJTxObdHwVWBQRcKdxTXopC6Q"}, {"name": "IDP Education & IELTS Testing - Cairo", "formatted_address": "31 Omar Bekir St off Othman Ibn Afan St, Othman Ibn Affan, Nozha, Cairo Governorate 11361, Egypt", "lat": 30.10399, "lng": 31.348553, "types": ["point_of_interest", "establishment"], "place_id": "ChIJYWJmM-EVWBQRsRn2yOGljFo"}, {"name": "Egypt", "formatted_address": "٦ شارع محمد مأمون متفرع من شارع عبدالعظيم عوض الله -خلف مطعم جاد ميدان الحجاز, Egypt", "lat": 30.1117108, "lng": 31.3424551, "types": ["point_of_interest", "establishment"], "place_id": "ChIJC17-PcMVWBQRUNid6oGFCjM"}, {"name": "A|X Heliopolis City Stars Mall", "formatted_address": "City Stars Mall Heliopolis, Il Cairo, 11757, Egypt", "lat": 30.11216649999999, "lng": 31.34367929999999, "types": ["point_of_interest", "clothing_store", "store", "establishment"], "place_id": "ChIJi1N7kww_WBQR2_0TRndb_UU"}, {"name": "Hex Advertising", "formatted_address": "Cairo, Cairo Governorate 11757, Egypt", "lat": 30.112245, "lng": 31.3438043, "types": ["point_of_interest", "establishment"], "place_id": "ChIJeZyDI1M_WBQR0uRSvjPywB0"}, {"name": "سيتى كريب", "formatted_address": "علي،قسم النزهه ، أحمد محمود، Egypt", "lat": 30.112315, "lng": 31.3438507, "types": ["restaurant", "food", "point_of_interest", "store", "establishment"], "place_id": "ChIJFw-y-tkVWBQRDGCNSqSvMdo"}]