[{"name": "El Deeb For Cars", "formatted_address": "25 ش ابو بكر الصديق، كفر الزيات، Heliopolis, Gharbia Governorate, Egypt", "lat": 30.09360119999999, "lng": 31.3285686, "types": ["point_of_interest", "establishment"], "place_id": "ChIJwT_P9YoVWBQRoPxWnVC7SGs"}, {"name": "El Zahraa Central", "formatted_address": "ش سعد زغلول، كفر الزيات، Heliopolis, Gharbia Governorate, Egypt", "lat": 30.09360119999999, "lng": 31.3285686, "types": ["point_of_interest", "establishment"], "place_id": "ChIJwT_P9YoVWBQRBdPLI-RTiPs"}, {"name": "مسجد الأنوار الإسلامية", "formatted_address": "21 Kafr El-Zayat, Almazah, Heliopolis, Cairo Governorate, Egypt", "lat": 30.0933975, "lng": 31.328385, "types": ["mosque", "place_of_worship", "point_of_interest", "establishment"], "place_id": "ChIJizqNX4oVWBQR1QLQUzoTpEA"}, {"name": "Beirut Square Heliopolis - ميدان بيروت مصر الجديدة", "formatted_address": "Beirut Square ( Korba, Almazah, Heliopolis, Cairo Governorate, Egypt", "lat": 30.093057, "lng": 31.3273145, "types": ["point_of_interest", "establishment"], "place_id": "ChIJceNUu3EVWBQRxch3XBiRuiM"}, {"name": "Madian", "formatted_address": "43 ش كليوباترا، Almazah, Heliopolis, Cairo Governorate, Egypt", "lat": 30.09327799999999, "lng": 31.329573, "types": ["point_of_interest", "establishment"], "place_id": "ChIJ0SKX64oVWBQRYUHcjcG8PkM"}, {"name": "Twins", "formatted_address": "43 ش كليوباترا، Almazah, Heliopolis, Cairo Governorate, Egypt", "lat": 30.09323509999999, "lng": 31.3295664, "types": ["point_of_interest", "establishment"], "place_id": "ChIJBeSd64oVWBQRW-0JsRuSVVY"}, {"name": "Our Lady of Heliopolis Co-Cathedral", "formatted_address": "Nazih Khalifa crossroad، Al Ahram, Heliopolis, Cairo Governorate, Egypt", "lat": 30.0935707, "lng": 31.3251828, "types": ["church", "place_of_worship", "point_of_interest", "establishment"], "place_id": "ChIJJdgh-okVWBQR5TqTmKuQ0IM"}, {"name": "Amr Central", "formatted_address": "ش الجسر، سمنود، Heliopolis, Gharbia Governorate, Egypt", "lat": 30.09360119999999, "lng": 31.3285686, "types": ["point_of_interest", "establishment"], "place_id": "ChIJwT_P9YoVWBQRjipxuByfd5s"}, {"name": "Nawader", "formatted_address": "43 ش كليوباترا، Almazah, Heliopolis, Cairo Governorate, Egypt", "lat": 30.093295, "lng": 31.329593, "types": ["point_of_interest", "establishment"], "place_id": "ChIJYy2-64oVWBQRpQsTPE2AuHI"}, {"name": "Mobil Far", "formatted_address": "Almazah, Heliopolis, Cairo Governorate, Egypt", "lat": 30.0932847, "lng": 31.3296527, "types": ["point_of_interest", "establishment"], "place_id": "ChIJO6nr64oVWBQRrFg9_cpQgpA"}, {"name": "RESTORE Language and Culture Center", "formatted_address": "St Korba, 7 Kafr El-Zayat, Almazah, Heliopolis, Cairo Governorate, Egypt", "lat": 30.0935434, "lng": 31.3281382, "types": ["point_of_interest", "establishment"], "place_id": "ChIJizqNX4oVWBQRwSvdbUhA6AY"}, {"name": "The Senosi’s Roof", "formatted_address": "62 Beirut, Almazah, Heliopolis, Cairo Governorate, Egypt", "lat": 30.0923593, "lng": 31.3285691, "types": ["park", "point_of_interest", "establishment"], "place_id": "ChIJdelS5tgVWBQRtrFOt9nZXOM"}, {"name": "Cairo Tower", "formatted_address": "Zamalek, Cairo Governorate, Egypt", "lat": 30.045915, "lng": 31.2242898, "types": ["tourist_attraction", "premise", "museum", "point_of_interest", "establishment"], "place_id": "ChIJpVgdqJpAWBQR_tZY0ny_5mw"}, {"name": "سلطان", "formatted_address": "2 Kafr El-Zayat, Almazah, Heliopolis, Cairo Governorate, Egypt", "lat": 30.0938984, "lng": 31.3276599, "types": ["restaurant", "food", "point_of_interest", "establishment"], "place_id": "ChIJxdpuHSYVWBQRWKCcz9TURjs"}, {"name": "Guzal Accessories", "formatted_address": "43 ش كليوباترا، Almazah, Heliopolis, Cairo Governorate, Egypt", "lat": 30.093295, "lng": 31.329593, "types": ["point_of_interest", "establishment"], "place_id": "ChIJYy2-64oVWBQRuF_nb8Hkj-0"}, {"name": "Brand Names", "formatted_address": "45 ميدان صلاح الدين، مصر الجديدة، القاهرة، Cairo Governorate, Egypt", "lat": 30.093534, "lng": 31.329659, "types": ["point_of_interest", "establishment"], "place_id": "ChIJ7QX-6IoVWBQRRfh8wHlNOhs"}, {"name": "St. Mark Church Hall & Theatre", "formatted_address": "Beirut, Almazah, Heliopolis, Cairo Governorate, Egypt", "lat": 30.0920692, "lng": 31.3298072, "types": ["point_of_interest", "establishment"], "place_id": "ChIJW22wmIoVWBQRV8Q8iyJ2CZ0"}, {"name": "Lingerie One", "formatted_address": "43 ميدان صلاح الدين، Almazah, Heliopolis, Cairo Governorate, Egypt", "lat": 30.093295, "lng": 31.329593, "types": ["point_of_interest", "establishment"], "place_id": "ChIJqUvOiKtAWBQR6HNLz5dPC6o"}, {"name": "Aseraf", "formatted_address": "Almazah, Heliopolis, Cairo Governorate, Egypt", "lat": 30.0941582, "lng": 31.3271244, "types": ["point_of_interest", "establishment"], "place_id": "ChIJczSZ_l4VWBQRRH8X_G6mbGQ"}, {"name": "Galerie Gaby", "formatted_address": "2 Tala St.، Almazah, Heliopolis, Cairo Governorate, Egypt", "lat": 30.0935, "lng": 31.3305, "types": ["point_of_interest", "establishment"], "place_id": "ChIJzee22ooVWBQRkfoxUhSVnkc"}, {"name": "Gana", "formatted_address": "43 ش كليوباترا، Almazah, Heliopolis, Cairo Governorate, Egypt", "lat": 30.0931089, "lng": 31.3294001, "types": ["point_of_interest", "establishment"], "place_id": "ChIJa980k4oVWBQR-6Jxj78C91c"}, {"name": "Middle East Freedom Forum", "formatted_address": "45 ميدان صلاح الدين، مصر الجديدة، القاهرة، Cairo Governorate, Egypt", "lat": 30.093707, "lng": 31.3296, "types": ["point_of_interest", "establishment"], "place_id": "ChIJAc6f6IoVWBQRoVp-Pmmj2EQ"}, {"name": "Flash International Hotels & Cruises Management", "formatted_address": "2 ش سمنود، Almazah, Heliopolis, Cairo Governorate, Egypt", "lat": 30.09409999999999, "lng": 31.3286, "types": ["point_of_interest", "establishment"], "place_id": "ChIJ652-Y4oVWBQRmpENt2ITyvM"}, {"name": "هويدى للاستشارات الهندسية", "formatted_address": "64 Beirut, Al Matar, El Nozha, Cairo Governorate, Egypt", "lat": 30.0926378, "lng": 31.3280756, "types": ["point_of_interest", "establishment"], "place_id": "ChIJfyyKe4oVWBQRLEGI5Qn_Wx0"}, {"name": "Mando Shoes", "formatted_address": "7 ش عثمان بن عفان، Almazah, Heliopolis, Cairo Governorate, Egypt", "lat": 30.094346, "lng": 31.32825699999999, "types": ["point_of_interest", "establishment"], "place_id": "ChIJR89iVooVWBQR3p3Xv90XI0k"}, {"name": "La Praline", "formatted_address": "3 Othman Ibn Affan, Al Matar, El Nozha, Cairo Governorate, Egypt", "lat": 30.0945225, "lng": 31.3285788, "types": ["point_of_interest", "establishment"], "place_id": "ChIJrz-x_4oVWBQRsdPEyAqQ7vA"}, {"name": "Decent", "formatted_address": "Almazah, Heliopolis, Cairo Governorate, Egypt", "lat": 30.093308, "lng": 31.329563, "types": ["point_of_interest", "establishment"], "place_id": "ChIJ92qT64oVWBQRVPyU0-njeWs"}, {"name": "Hany Shoes", "formatted_address": "36 Beirut st.، Almazah, Heliopolis, Cairo Governorate, Egypt", "lat": 30.0925405, "lng": 31.3282802, "types": ["point_of_interest", "establishment"], "place_id": "ChIJwzyxfYoVWBQRynFOHZwQElY"}, {"name": "St. Mark Coptic Orthodox Church Cleopatra", "formatted_address": "35 كيلوباترا، الماظة، قسم مصر الجديدة،، Cairo Governorate, Egypt", "lat": 30.0924011, "lng": 31.3296246, "types": ["church", "place_of_worship", "point_of_interest", "establishment"], "place_id": "ChIJH3kNmooVWBQRfL4z5mf-KXU"}, {"name": "راديو مصر الجديدة", "formatted_address": "5 Othman Ibn Affan, Al Matar, El Nozha, Cairo Governorate, Egypt", "lat": 30.0945225, "lng": 31.3285788, "types": ["point_of_interest", "establishment"], "place_id": "ChIJrz-x_4oVWBQRGy29rfYbMuA"}, {"name": "Maronite Patriarchate", "formatted_address": "50 ش بيروت، Almazah, القاهرة، Cairo Governorate, Egypt", "lat": 30.093678, "lng": 31.3270573, "types": ["church", "place_of_worship", "point_of_interest", "establishment"], "place_id": "ChIJwzyxfYoVWBQRTGDAje688Oo"}, {"name": "Happy Bady", "formatted_address": "43 Cleopatra, Almazah, Heliopolis, Cairo Governorate, Egypt", "lat": 30.0932879, "lng": 31.3298137, "types": ["point_of_interest", "establishment"], "place_id": "ChIJ0SKX64oVWBQR72faWppg7DA"}, {"name": "Saint Rita Church Heliopolis", "formatted_address": "Almazah, Heliopolis, Cairo Governorate, Egypt", "lat": 30.0935989, "lng": 31.3269024, "types": ["church", "place_of_worship", "point_of_interest", "establishment"], "place_id": "ChIJB_TgFIoVWBQRsnefdqWs9Jc"}, {"name": "Egyptian Center For Export", "formatted_address": "ش 9، سمنود، الغربية، Cairo Governorate, Egypt", "lat": 30.0943384, "lng": 31.3285289, "types": ["point_of_interest", "establishment"], "place_id": "ChIJG342_4oVWBQRJHrElLJI2n4"}, {"name": "ميديكور للديكور", "formatted_address": "38 هارون الرشيد، البستان، قسم مصر الجديدة،، Cairo Governorate, Egypt", "lat": 30.0949047, "lng": 31.3261497, "types": ["point_of_interest", "establishment"], "place_id": "ChIJ8zMWDNAVWBQRSdq_dILbAwA"}, {"name": "Middle East Company Courier Service", "formatted_address": "5 Kafr El-Zayat, Almazah, Heliopolis, Cairo Governorate, Egypt", "lat": 30.0936557, "lng": 31.3280229, "types": ["point_of_interest", "establishment"], "place_id": "ChIJnREyXIoVWBQRYYdCTSqRrho"}, {"name": "33", "formatted_address": "8 ش بغداد، Almazah, Heliopolis, Cairo Governorate, Egypt", "lat": 30.0925206, "lng": 31.3269076, "types": ["point_of_interest", "establishment"], "place_id": "ChIJmUbmrSA-WBQRP-86IcpE2n0"}, {"name": "Pastry Shop", "formatted_address": "56 Beirut, Almazah, Heliopolis, Cairo Governorate, Egypt", "lat": 30.09319, "lng": 31.327637, "types": ["point_of_interest", "establishment"], "place_id": "ChIJwzyxfYoVWBQR8R1UNLo84jc"}, {"name": "Post Office - Kafr El Thoabaneya", "formatted_address": "ش الجسر، سمنود، Heliopolis, Gharbia Governorate, Egypt", "lat": 30.09347129999999, "lng": 31.3286223, "types": ["post_office", "finance", "point_of_interest", "establishment"], "place_id": "ChIJwT_P9YoVWBQRVsbdpJhjmM8"}, {"name": "Al-Azhar Mosque", "formatted_address": "El-Darb El-Ahmar, Cairo Governorate, Egypt", "lat": 30.045688, "lng": 31.2626851, "types": ["mosque", "tourist_attraction", "place_of_worship", "point_of_interest", "establishment"], "place_id": "ChIJ9SH986JAWBQR6FIeS8dSZ2c"}, {"name": "Heliopolis", "formatted_address": "Almazah, Heliopolis, Cairo Governorate, Egypt", "lat": 30.0942946, "lng": 31.3277534, "types": ["point_of_interest", "establishment"], "place_id": "ChIJdUEjUIoVWBQRaOFplBb9rJ8"}, {"name": "Sprint For Communication Devices", "formatted_address": "42 Beirut St.، Almazah, Heliopolis, Cairo Governorate, Egypt", "lat": 30.0925405, "lng": 31.3282802, "types": ["point_of_interest", "establishment"], "place_id": "ChIJLenVJIoVWBQRQkgqhSAjJs4"}, {"name": "Cnl Entertainment", "formatted_address": "7 Othman Ibn Affan, Al Matar, El Nozha, Cairo Governorate, Egypt", "lat": 30.0945225, "lng": 31.3285788, "types": ["point_of_interest", "establishment"], "place_id": "ChIJrz-x_4oVWBQRD-RSXr4mxqU"}, {"name": "Salah Al-Din Al-Ayoubi Castle, Salah Salem Street, Cairo", "formatted_address": "Salah Salem St, Al Abageyah, El-Khalifa, Cairo Governorate, Egypt", "lat": 30.0290436, "lng": 31.2594688, "types": ["point_of_interest", "establishment"], "place_id": "ChIJY-3CkKxAWBQRby736eSW2y8"}, {"name": "Howeedy Engineering Consultations", "formatted_address": "No. 64 Beirut Street, Heliopolis، شارع Beirut, El-Nozha, Cairo Governorate 11341, Egypt", "lat": 30.0924596, "lng": 31.3289364, "types": ["point_of_interest", "establishment"], "place_id": "ChIJmY4WhIoVWBQRgt0p3NqmpxY"}, {"name": "Spectra Optics", "formatted_address": "7 ش عثمان بن عفان، Almazah, Heliopolis, Cairo Governorate, Egypt", "lat": 30.094357, "lng": 31.328028, "types": ["point_of_interest", "establishment"], "place_id": "ChIJzUuMOu4VWBQRzQmt8vukEG0"}, {"name": "Dr. Amr Ahmed Abdel Aal", "formatted_address": "9 Othman Ibn Affan, Al Matar, El Nozha, Cairo Governorate, Egypt", "lat": 30.0944518, "lng": 31.3286084, "types": ["point_of_interest", "establishment"], "place_id": "ChIJQ9n__ooVWBQRmBfuJfLtv2o"}, {"name": "Helene", "formatted_address": "74 Beirut St.، Almazah, Heliopolis, Cairo Governorate, Egypt", "lat": 30.0914, "lng": 31.331, "types": ["point_of_interest", "establishment"], "place_id": "ChIJITR1q4oVWBQR2P_9tN13z7A"}, {"name": "Viola Choice House", "formatted_address": "30 Beirut St.، Almazah, Heliopolis, Cairo Governorate, Egypt", "lat": 30.0925405, "lng": 31.3282802, "types": ["point_of_interest", "establishment"], "place_id": "ChIJwzyxfYoVWBQRqgT47-AxHFQ"}, {"name": "Great Choice", "formatted_address": "45 ش كليوباترا، Almazah, Heliopolis, Cairo Governorate, Egypt", "lat": 30.094306, "lng": 31.329856, "types": ["point_of_interest", "establishment"], "place_id": "ChIJt2f_H4sVWBQROWGcBgEBMHk"}, {"name": "Wadi Food", "formatted_address": "2 Kafr El-Zayat, Almazah, Heliopolis, Cairo Governorate, Egypt", "lat": 30.0939252, "lng": 31.3276752, "types": ["supermarket", "grocery_or_supermarket", "food", "point_of_interest", "store", "establishment"], "place_id": "ChIJLcv2FXkVWBQRo9vvnWCX_wA"}, {"name": "Heliopolis Cooling", "formatted_address": "10 ش عثمان بن عفان، El-Bostan, Heliopolis, Cairo Governorate, Egypt", "lat": 30.094673, "lng": 31.3281248, "types": ["point_of_interest", "store", "establishment"], "place_id": "ChIJzUuMOu4VWBQRLL2LZUO16oE"}, {"name": "The Grand Egyptian Museum", "formatted_address": "Cairo - Alexandria Desert Rd, Kafr Nassar, Al Haram, Giza Governorate, Egypt", "lat": 29.9942315, "lng": 31.1187471, "types": ["tourist_attraction", "museum", "point_of_interest", "establishment"], "place_id": "ChIJLQTb2XBFWBQRiILY1EZ_7IU"}, {"name": "Joe Cafe", "formatted_address": "43 ش كليوباترا، Almazah, Heliopolis, Cairo Governorate, Egypt", "lat": 30.093295, "lng": 31.329593, "types": ["cafe", "food", "point_of_interest", "establishment"], "place_id": "ChIJ5_WV64oVWBQRuvrcqhdEeOY"}, {"name": "معرض الكتروليد للاضاءة الحديثة", "formatted_address": "عثمان ابن عفان،، Almazah, Heliopolis, Cairo Governorate, Egypt", "lat": 30.0939442, "lng": 31.3279955, "types": ["home_goods_store", "point_of_interest", "store", "establishment"], "place_id": "ChIJq8-LDaoVWBQRu4-4EwSbrLc"}, {"name": "EL BARRIO EGYPT", "formatted_address": "58 Beirut St, 2 Samannoud, Almazah, Heliopolis, Cairo Governorate, Egypt", "lat": 30.0928652, "lng": 31.3281638, "types": ["restaurant", "food", "point_of_interest", "establishment"], "place_id": "ChIJZac-PbgVWBQRgljSDf8zla8"}, {"name": "The Smokery Heliopolis", "formatted_address": "58 Beirut, Almazah, Heliopolis, Cairo Governorate, Egypt", "lat": 30.0930123, "lng": 31.3281763, "types": ["restaurant", "food", "point_of_interest", "establishment"], "place_id": "ChIJn98YfYoVWBQRLbLvJihB23Y"}, {"name": "Cleopatra Hospital", "formatted_address": "39 Cleopatra Street, Opposite Maidan Salahuddin Square، Almazah, Heliopolis, Egypt", "lat": 30.0930721, "lng": 31.3298159, "types": ["hospital", "health", "point_of_interest", "establishment"], "place_id": "ChIJhdsOk4oVWBQR9Ar3ET-SLGQ"}, {"name": "أدوات سيارات صلاح الدين", "formatted_address": "Almazah, Heliopolis, Cairo Governorate, Egypt", "lat": 30.0942849, "lng": 31.3285063, "types": ["car_repair", "point_of_interest", "store", "establishment"], "place_id": "ChIJX0ls_4oVWBQR4H2wSGRcvGM"}, {"name": "1920s Boutique Hotel & Restaurants", "formatted_address": "58 Beirut, Street, Heliopolis, Cairo Governorate, Egypt", "lat": 30.092922, "lng": 31.328174, "types": ["lodging", "point_of_interest", "establishment"], "place_id": "ChIJmVoMY4oVWBQRJ1c9kfGEEKo"}]