[{"name": "Ittihadia Palace", "formatted_address": "Al Nadi، El-Montaza, Heliopolis, Cairo Governorate, Egypt", "lat": 30.0888643, "lng": 31.3193929, "types": ["tourist_attraction", "premise", "point_of_interest", "establishment"], "place_id": "ChIJuftqUS8-WBQRtM7fDk0QcPk"}, {"name": "Baron Empain Palace", "formatted_address": "El-Orouba, El-Montaza, Heliopolis, Cairo Governorate 11757, Egypt", "lat": 30.0866701, "lng": 31.3303332, "types": ["point_of_interest", "establishment"], "place_id": "ChIJ1_GM8iE-WBQRLNVi-RT7vDA"}, {"name": "Panorama October", "formatted_address": "Salah Salem St, Al Estad, Nasr City, Cairo Governorate, Egypt", "lat": 30.0742728, "lng": 31.3068068, "types": ["tourist_attraction", "museum", "point_of_interest", "establishment"], "place_id": "ChIJmxmkHLU_WBQRzBYJ5_3_jo8"}, {"name": "Our Lady of Heliopolis Co-Cathedral", "formatted_address": "Nazih Khalifa crossroad، Al Ahram, Heliopolis, Cairo Governorate, Egypt", "lat": 30.0935707, "lng": 31.3251828, "types": ["church", "place_of_worship", "point_of_interest", "establishment"], "place_id": "ChIJJdgh-okVWBQR5TqTmKuQ0IM"}, {"name": "مدرسة الديليفراند للغات", "formatted_address": "15 El Khartoum St., Almazah, Heliopolis, Cairo Governorate, Egypt", "lat": 30.0905211, "lng": 31.3306648, "types": ["point_of_interest", "establishment"], "place_id": "ChIJCaLupHD9VxQRRWZde7UOlpw"}, {"name": "Al Thawra Mosque", "formatted_address": "Almazah, Heliopolis, Cairo Governorate, Egypt", "lat": 30.089369, "lng": 31.3301332, "types": ["mosque", "place_of_worship", "point_of_interest", "establishment"], "place_id": "ChIJxT6QNiA-WBQRL3pMhgW-Y4w"}, {"name": "El Korba Square - الكوربة مصر الجديدة", "formatted_address": "7 Abo Al Houl ST., Korba Square, المنتزه، قسم مصر الجديدة، محافظة القاهرة‬،, المنتزه، قسم مصر الجديدة، محافظة, القاهرة‬،, Egypt", "lat": 30.0910293, "lng": 31.324302, "types": ["point_of_interest", "establishment"], "place_id": "ChIJUduKY5k_WBQRwgxGmYZDrhU"}, {"name": "Heliopolis Evangelical Church", "formatted_address": "18 Cleopatra, Almazah, Heliopolis, Cairo Governorate, Egypt", "lat": 30.0913153, "lng": 31.3280276, "types": ["church", "place_of_worship", "point_of_interest", "establishment"], "place_id": "ChIJibHnjiA-WBQRs_geaF2cbjU"}, {"name": "Mosque of Muhammad Ali", "formatted_address": "Al Abageyah, El-Khalifa, Cairo Governorate, Egypt", "lat": 30.0287015, "lng": 31.25991059999999, "types": ["mosque", "tourist_attraction", "place_of_worship", "point_of_interest", "establishment"], "place_id": "ChIJn1b3gKpAWBQRbsg1WfPe1NA"}, {"name": "Cairo Tower", "formatted_address": "Zamalek, Cairo Governorate, Egypt", "lat": 30.045915, "lng": 31.2242898, "types": ["tourist_attraction", "premise", "museum", "point_of_interest", "establishment"], "place_id": "ChIJpVgdqJpAWBQR_tZY0ny_5mw"}, {"name": "Lara", "formatted_address": "36 Al Dliverand, Almazah, Heliopolis, Cairo Governorate, Egypt", "lat": 30.09, "lng": 31.331, "types": ["point_of_interest", "establishment"], "place_id": "ChIJnT0XHiA-WBQRrJxPmP26aTs"}, {"name": "Al-Azhar Mosque", "formatted_address": "El-Darb El-Ahmar, Cairo Governorate, Egypt", "lat": 30.045688, "lng": 31.2626851, "types": ["mosque", "tourist_attraction", "place_of_worship", "point_of_interest", "establishment"], "place_id": "ChIJ9SH986JAWBQR6FIeS8dSZ2c"}, {"name": "St. Mark Church Hall & Theatre", "formatted_address": "Beirut, Almazah, Heliopolis, Cairo Governorate, Egypt", "lat": 30.0920692, "lng": 31.3298072, "types": ["point_of_interest", "establishment"], "place_id": "ChIJW22wmIoVWBQRV8Q8iyJ2CZ0"}, {"name": "Golden Gym", "formatted_address": "El Fayoum, Almazah, Heliopolis, Cairo Governorate, Egypt", "lat": 30.0902063, "lng": 31.3294515, "types": ["point_of_interest", "establishment"], "place_id": "ChIJXYzwQyA-WBQRxcC4aTGAsgs"}, {"name": "Al Kuhaimi Metal Industries", "formatted_address": "2 متفرع من ش كليوباترا، Almazah, Heliopolis, Cairo Governorate, Egypt", "lat": 30.090814, "lng": 31.328258, "types": ["point_of_interest", "establishment"], "place_id": "ChIJxcQq9SA-WBQRTpD2QomrILU"}, {"name": "Abeer’s home", "formatted_address": "36 Al Dliverand, Almazah, Heliopolis, Cairo Governorate, Egypt", "lat": 30.08983619999999, "lng": 31.3305287, "types": ["point_of_interest", "establishment"], "place_id": "ChIJNWGavf0_WBQR7pnTFcdlimI"}, {"name": "Katef Import & Export", "formatted_address": "36 El Delivrande St.، Almazah, Heliopolis, Cairo Governorate, Egypt", "lat": 30.09, "lng": 31.331, "types": ["point_of_interest", "establishment"], "place_id": "ChIJ_XqUISA-WBQRqme0XGyT14M"}, {"name": "EIG - Engineering International Group", "formatted_address": "51 Beirut St.، Almazah, Heliopolis, Cairo Governorate, Egypt", "lat": 30.0909152, "lng": 31.3314223, "types": ["point_of_interest", "establishment"], "place_id": "ChIJzYYm_x8-WBQRmIqroHxYatU"}, {"name": "El Gazzar", "formatted_address": "El Fayoum, Almazah, Heliopolis, Cairo Governorate, Egypt", "lat": 30.0902063, "lng": 31.3294515, "types": ["point_of_interest", "establishment"], "place_id": "ChIJXYzwQyA-WBQRSSgadijNEu8"}, {"name": "Abou Islam Workshop", "formatted_address": "El Fayoum, Almazah, Heliopolis, Cairo Governorate, Egypt", "lat": 30.0902063, "lng": 31.3294515, "types": ["point_of_interest", "establishment"], "place_id": "ChIJXYzwQyA-WBQRDlOYJ_Yq2Zs"}, {"name": "Cairo Consult", "formatted_address": "122 El-Thawra St, El-Montaza, Heliopolis, Cairo Governorate, Egypt", "lat": 30.0903305, "lng": 31.327119, "types": ["point_of_interest", "establishment"], "place_id": "ChIJ_we0WBs-WBQRsGcc4TDst1M"}, {"name": "Salah Al-Din Al-Ayoubi Castle, Salah Salem Street, Cairo", "formatted_address": "Salah Salem St, Al Abageyah, El-Khalifa, Cairo Governorate, Egypt", "lat": 30.0290436, "lng": 31.2594688, "types": ["point_of_interest", "establishment"], "place_id": "ChIJY-3CkKxAWBQRby736eSW2y8"}, {"name": "Shaker Stationery", "formatted_address": "El Fayoum, Almazah, Heliopolis, Cairo Governorate, Egypt", "lat": 30.0902063, "lng": 31.3294515, "types": ["point_of_interest", "establishment"], "place_id": "ChIJXYzwQyA-WBQRdOV9RgRsrv8"}, {"name": "Scope Centre", "formatted_address": "El Fayoum, Almazah, Heliopolis, Cairo Governorate, Egypt", "lat": 30.0902063, "lng": 31.3294515, "types": ["point_of_interest", "establishment"], "place_id": "ChIJXYzwQyA-WBQR_Mgyc-72Vbk"}, {"name": "Zarqaa El Yamama Bookshop", "formatted_address": "El Fayoum, Almazah, Heliopolis, Cairo Governorate, Egypt", "lat": 30.0902063, "lng": 31.3294515, "types": ["point_of_interest", "establishment"], "place_id": "ChIJXYzwQyA-WBQRG4RIjQuHs1k"}, {"name": "Helene", "formatted_address": "74 Beirut St.، Almazah, Heliopolis, Cairo Governorate, Egypt", "lat": 30.0914, "lng": 31.331, "types": ["point_of_interest", "establishment"], "place_id": "ChIJITR1q4oVWBQR2P_9tN13z7A"}, {"name": "Mouchira El Said Galllery", "formatted_address": "23 ش كليوباترا، Almazah, Heliopolis, Cairo Governorate, Egypt", "lat": 30.091051, "lng": 31.328271, "types": ["point_of_interest", "establishment"], "place_id": "ChIJsyZKiiA-WBQRXfvtoMjXCFw"}, {"name": "Academie Royale", "formatted_address": "Almazah, Heliopolis, Cairo Governorate, Egypt", "lat": 30.0908265, "lng": 31.3305286, "types": ["point_of_interest", "establishment"], "place_id": "ChIJszNxECA-WBQRmBgX6-X7yd8"}, {"name": "Moaz For Telecommunications", "formatted_address": "El Fayoum, Almazah, Heliopolis, Cairo Governorate, Egypt", "lat": 30.0902063, "lng": 31.3294515, "types": ["point_of_interest", "establishment"], "place_id": "ChIJXYzwQyA-WBQRkVlSLTSd6Jo"}, {"name": "Sultan El Otour", "formatted_address": "El Fayoum, Almazah, Heliopolis, Cairo Governorate, Egypt", "lat": 30.0902063, "lng": 31.3294515, "types": ["point_of_interest", "establishment"], "place_id": "ChIJXYzwQyA-WBQRCvfNT6n-N38"}, {"name": "Message Phone", "formatted_address": "El Fayoum, Almazah, Heliopolis, Cairo Governorate, Egypt", "lat": 30.0902063, "lng": 31.3294515, "types": ["point_of_interest", "establishment"], "place_id": "ChIJXYzwQyA-WBQRaYPltgG6DEc"}, {"name": "El Rainbow Studio", "formatted_address": "El Fayoum, Almazah, Heliopolis, Cairo Governorate, Egypt", "lat": 30.0902063, "lng": 31.3294515, "types": ["point_of_interest", "establishment"], "place_id": "ChIJXYzwQyA-WBQRDlNQMKF0ZJI"}, {"name": "St. Mark Coptic Orthodox Church Cleopatra", "formatted_address": "35 كيلوباترا، الماظة، قسم مصر الجديدة،، Cairo Governorate, Egypt", "lat": 30.0924011, "lng": 31.3296246, "types": ["church", "place_of_worship", "point_of_interest", "establishment"], "place_id": "ChIJH3kNmooVWBQRfL4z5mf-KXU"}, {"name": "Baron Hotel Heliopolis", "formatted_address": "14 Al Baroon, El-Montaza, Heliopolis, Cairo Governorate, Egypt", "lat": 30.0860748, "lng": 31.3314609, "types": ["lodging", "point_of_interest", "establishment"], "place_id": "ChIJUbVOACI-WBQRWsi5B7gYfxs"}, {"name": "Ararat Armenian Club", "formatted_address": "Almazah, Heliopolis, Cairo Governorate, Egypt", "lat": 30.0911825, "lng": 31.3304312, "types": ["point_of_interest", "establishment"], "place_id": "ChIJI70vDyA-WBQRUtzXEIKCBxo"}, {"name": "Mahmoud El Hawary Telecommunication Center", "formatted_address": "El Fayoum, Almazah, Heliopolis, Cairo Governorate, Egypt", "lat": 30.0902063, "lng": 31.3294515, "types": ["point_of_interest", "establishment"], "place_id": "ChIJXYzwQyA-WBQRJJxRlFt_Tnw"}, {"name": "As-Sahaba Mosque", "formatted_address": "El Fayoum, Almazah, Heliopolis, Cairo Governorate, Egypt", "lat": 30.0903294, "lng": 31.3295679, "types": ["mosque", "place_of_worship", "point_of_interest", "establishment"], "place_id": "ChIJXYzwQyA-WBQRD5fXHhPVrd0"}, {"name": "Go Heliopolis - Khozam The First Compound In Heliopolis", "formatted_address": "شارع النزهة، مصر الجديدة،، Egypt", "lat": 30.0732268, "lng": 31.3397646, "types": ["lodging", "point_of_interest", "establishment"], "place_id": "ChIJZ7ZHBKs_WBQRJD3Ntp2Q_ww"}, {"name": "كراون هوم للاستشارات الهندسية", "formatted_address": "53 Beirut, Al Matar, El Nozha, Cairo Governorate, Egypt", "lat": 30.0907117, "lng": 31.3320529, "types": ["point_of_interest", "establishment"], "place_id": "ChIJZRO45B8-WBQRw3c_Rw86oG0"}, {"name": "Nasayem Stationery", "formatted_address": "El Fayoum, Almazah, Heliopolis, Cairo Governorate, Egypt", "lat": 30.0902063, "lng": 31.3294515, "types": ["point_of_interest", "establishment"], "place_id": "ChIJXYzwQyA-WBQR913eDnegOR0"}, {"name": "Family Park", "formatted_address": "مدخل الرحاب 2 ) الكيلو 26،، Suez Rd, Egypt", "lat": 30.0802783, "lng": 31.5013244, "types": ["park", "tourist_attraction", "point_of_interest", "establishment"], "place_id": "ChIJ97tx7voYWBQR-q4kFfGwYYo"}, {"name": "Notre Dame De La Délivrande", "formatted_address": "15 ش الخرطوم، Almazah, Heliopolis, Cairo Governorate, Egypt", "lat": 30.0907162, "lng": 31.3297539, "types": ["school", "point_of_interest", "establishment"], "place_id": "ChIJ304cbSA-WBQREZyKY1VUJC0"}, {"name": "Fingraft", "formatted_address": "23 Cleopatra, St، Heliopolis, Cairo Governorate, Egypt", "lat": 30.09039589999999, "lng": 31.3276381, "types": ["point_of_interest", "store", "establishment"], "place_id": "ChIJNzl2iyA-WBQRvrd0xuWtQpI"}, {"name": "Houssaper Ararat", "formatted_address": "43 Al Seka Al Hadid، Almazah, Heliopolis, Cairo Governorate, Egypt", "lat": 30.0912623, "lng": 31.3302551, "types": ["point_of_interest", "establishment"], "place_id": "ChIJw0mtDiA-WBQR-uDKevQ2vBE"}, {"name": "Howeedy Engineering Consultations", "formatted_address": "No. 64 Beirut Street, Heliopolis، شارع Beirut, El-Nozha, Cairo Governorate 11341, Egypt", "lat": 30.0924596, "lng": 31.3289364, "types": ["point_of_interest", "establishment"], "place_id": "ChIJmY4WhIoVWBQRgt0p3NqmpxY"}, {"name": "Sama Protein", "formatted_address": "El Fayoum, Almazah, Heliopolis, Cairo Governorate, Egypt", "lat": 30.0902063, "lng": 31.3294515, "types": ["point_of_interest", "establishment"], "place_id": "ChIJXYzwQyA-WBQRdwFvqOGy3Ag"}, {"name": "Koky", "formatted_address": "El Fayoum, Almazah, Heliopolis, Cairo Governorate, Egypt", "lat": 30.0902063, "lng": 31.3294515, "types": ["point_of_interest", "establishment"], "place_id": "ChIJXYzwQyA-WBQR7kMXAN9mYws"}, {"name": "توب موبايل شوب", "formatted_address": "37 El Fayoum, دار السلام، البساتين، Cairo Governorate, Egypt", "lat": 30.0895054, "lng": 31.3305441, "types": ["point_of_interest", "establishment"], "place_id": "ChIJobfdIptHWBQRjJGlVxzrkOc"}, {"name": "Porto Heliopolis", "formatted_address": "Almazah, Heliopolis, Cairo Governorate, Egypt", "lat": 30.0827031, "lng": 31.348709, "types": ["lodging", "point_of_interest", "establishment"], "place_id": "ChIJR5FCXgE-WBQR471eyuZuvGw"}, {"name": "TIA Heights Makadi Bay", "formatted_address": "16 ش الخرطوم، Almazah, Heliopolis, Cairo Governorate, Egypt", "lat": 30.0906763, "lng": 31.3308499, "types": ["point_of_interest", "establishment"], "place_id": "ChIJKVBcGyA-WBQRpzQBndcFhpk"}, {"name": "Mega structure engineering office", "formatted_address": "El Khartoum St., Almazah, Heliopolis, Cairo Governorate, Egypt", "lat": 30.091416, "lng": 31.33014189999999, "types": ["point_of_interest", "establishment"], "place_id": "ChIJIV5iFSk_WBQRT62EPZkHQqE"}, {"name": "(Heliopolis Public library)", "formatted_address": "Beirut, Almazah, Heliopolis, Cairo Governorate, Egypt", "lat": 30.090914, "lng": 31.3328428, "types": ["library", "point_of_interest", "establishment"], "place_id": "ChIJd3h9YvUVWBQR2Oi9DLQTI8E"}, {"name": "Maadi Island", "formatted_address": "Dar Al Salam, Giza Governorate, Egypt", "lat": 29.965527, "lng": 31.239237, "types": ["restaurant", "tourist_attraction", "park", "food", "point_of_interest", "establishment"], "place_id": "ChIJwY7d5MFHWBQRl1nMXlW_tUY"}, {"name": "Heliopolis Towers Hotel", "formatted_address": "El Shaheed Sayed Zakaria, Sheraton Al Matar, El Nozha, Cairo Governorate 11736, Egypt", "lat": 30.1074763, "lng": 31.3661798, "types": ["lodging", "point_of_interest", "establishment"], "place_id": "ChIJZ9p3820WWBQRmZh2M_MSzOQ"}, {"name": "Planet Tours & Travel", "formatted_address": "47 Beirut, Almazah, Heliopolis, Cairo Governorate, Egypt", "lat": 30.09108939999999, "lng": 31.3309827, "types": ["travel_agency", "point_of_interest", "establishment"], "place_id": "ChIJf_QSqkg_WBQRGaTmoPJtcWg"}, {"name": "Radisson Blu Hotel, Cairo Heliopolis", "formatted_address": "Abdel Hamid Badawi St Heliopolis, Cairo Governorate 11787, Egypt", "lat": 30.1065093, "lng": 31.3753121, "types": ["lodging", "point_of_interest", "establishment"], "place_id": "ChIJQZJ8fWUWWBQRAUPO9I6SxPg"}, {"name": "Pervect", "formatted_address": "8 El Khartoum St., Almazah, Heliopolis, Cairo Governorate, Egypt", "lat": 30.0908636, "lng": 31.3293892, "types": ["pharmacy", "health", "point_of_interest", "store", "establishment"], "place_id": "ChIJEdF6biA-WBQRf6hbuXFRcrw"}, {"name": "Khattab Paper Point", "formatted_address": "4 ش صلاح الدين، Almazah, Heliopolis, Cairo Governorate, Egypt", "lat": 30.0918, "lng": 31.3341, "types": ["point_of_interest", "establishment"], "place_id": "ChIJx9lCdfUVWBQRkBpdq15VFcs"}, {"name": "سوبافير لقطع غيار السيارات", "formatted_address": "11 El Khartoum St., Almazah, Heliopolis, Cairo Governorate 12341, Egypt", "lat": 30.0908636, "lng": 31.3293892, "types": ["point_of_interest", "establishment"], "place_id": "ChIJOUydsUw_WBQRnXVA87Kok2I"}, {"name": "St Michael's Church الكنيسة الأسقفية بالكوربة", "formatted_address": "Baghdad St, El-Montaza, Heliopolis, Cairo Governorate, Egypt", "lat": 30.0884753, "lng": 31.3229984, "types": ["church", "place_of_worship", "point_of_interest", "establishment"], "place_id": "ChIJfaLreiY-WBQRlouIfsEe-o8"}]