[{"name": "Ittihadia Palace", "formatted_address": "Al Nadi، El-Montaza, Heliopolis, Cairo Governorate, Egypt", "lat": 30.0888643, "lng": 31.3193929, "types": ["tourist_attraction", "premise", "point_of_interest", "establishment"], "place_id": "ChIJuftqUS8-WBQRtM7fDk0QcPk"}, {"name": "Our Lady of Heliopolis Co-Cathedral", "formatted_address": "Nazih Khalifa crossroad، Al Ahram, Heliopolis, Cairo Governorate, Egypt", "lat": 30.0935707, "lng": 31.3251828, "types": ["church", "place_of_worship", "point_of_interest", "establishment"], "place_id": "ChIJJdgh-okVWBQR5TqTmKuQ0IM"}, {"name": "Baron Empain Palace", "formatted_address": "El-Orouba, El-Montaza, Heliopolis, Cairo Governorate 11757, Egypt", "lat": 30.0866701, "lng": 31.3303332, "types": ["point_of_interest", "establishment"], "place_id": "ChIJ1_GM8iE-WBQRLNVi-RT7vDA"}, {"name": "Easy Tech", "formatted_address": "9 Hasan Lotfy, Mansheya El-Bakry, Heliopolis, Cairo Governorate, Egypt", "lat": 30.0878892, "lng": 31.3054104, "types": ["point_of_interest", "establishment"], "place_id": "ChIJUTGuf9I_WBQRyxQ_1ZkXpZU"}, {"name": "Abdeen Palace Museum", "formatted_address": "شارع جمعه عابدين،، El-Gomhoreya Square, Rahbet Abdin, Abdeen, Cairo Governorate, Egypt", "lat": 30.0422696, "lng": 31.248544, "types": ["tourist_attraction", "museum", "point_of_interest", "establishment"], "place_id": "ChIJF_ZR9bpAWBQR_WeDJloU-7o"}, {"name": "Mahmoud Donya", "formatted_address": "Mansheyat Al Bakri, Heliopolis, Cairo Governorate, Egypt", "lat": 30.0892141, "lng": 31.3047596, "types": ["point_of_interest", "establishment"], "place_id": "ChIJGfIeaNI_WBQRiRRGKV6ZATU"}, {"name": "Sigma Dent", "formatted_address": "9 Ahmed Lotfy El Sayed St.، ABBASSEYA، Heliopolis, Cairo Governorate, Egypt", "lat": 30.0878892, "lng": 31.3054104, "types": ["point_of_interest", "establishment"], "place_id": "ChIJUTGuf9I_WBQR5xrZf94mk9g"}, {"name": "Elgohary Car", "formatted_address": "61 Mansheya El-Bakry, Heliopolis, Cairo Governorate, Egypt", "lat": 30.0887361, "lng": 31.3065865, "types": ["point_of_interest", "establishment"], "place_id": "ChIJ2ThEEj4_WBQRRqJ0KcHX3lk"}, {"name": "City For Arch Models", "formatted_address": "ش Mansheya El-Bakry, Heliopolis, Cairo Governorate, Egypt", "lat": 30.088441, "lng": 31.303395, "types": ["point_of_interest", "establishment"], "place_id": "ChIJqwjVB9I_WBQRlGpF1nLIUz0"}, {"name": "El Dar El Ory", "formatted_address": "29 المقريزي، Mansheya El-Bakry, Heliopolis, Cairo Governorate, Egypt", "lat": 30.0887326, "lng": 31.3064724, "types": ["point_of_interest", "establishment"], "place_id": "ChIJ2Y4lk9I_WBQRqtosL7IgENg"}, {"name": "ستوديو ذات", "formatted_address": "22 El-Khalifa El-Maamoun, Mansheya El-Bakry, Heliopolis, Cairo Governorate, Egypt", "lat": 30.0870556, "lng": 31.3038398, "types": ["point_of_interest", "establishment"], "place_id": "ChIJtYPJ680_WBQRlGibx417NdE"}, {"name": "سنتر حورس التعليمي", "formatted_address": "شارع لطفى حمامات القبة،, Mansheya El-Bakry, Heliopolis, Cairo Governorate, Egypt", "lat": 30.0878181, "lng": 31.3049305, "types": ["point_of_interest", "establishment"], "place_id": "ChIJgS-7a58_WBQRSQUh5JQtX80"}, {"name": "Wellness Clinic Dr. Wagih Sedky", "formatted_address": "El-Khalifa El-Maamoun, Mansheya El-Bakry, Heliopolis, Cairo Governorate, Egypt", "lat": 30.0870449, "lng": 31.3054627, "types": ["point_of_interest", "establishment"], "place_id": "ChIJiXuJ37o_WBQRZMd4kdKfWyc"}, {"name": "Go Heliopolis - Khozam The First Compound In Heliopolis", "formatted_address": "شارع النزهة، مصر الجديدة،، Egypt", "lat": 30.0732268, "lng": 31.3397646, "types": ["lodging", "point_of_interest", "establishment"], "place_id": "ChIJZ7ZHBKs_WBQRJD3Ntp2Q_ww"}, {"name": "مدارس بى كرنك للغات", "formatted_address": "25 Lotfy, Mansheya El-Bakry, Heliopolis, Cairo Governorate, Egypt", "lat": 30.0879178, "lng": 31.305802, "types": ["point_of_interest", "establishment"], "place_id": "ChIJUTGuf9I_WBQRIrGYhLAtlIM"}, {"name": "Aghaby اغابي", "formatted_address": "شارع لطفى حمامات القبة،, منشية البكري، قسم مصر الجديدة، محافظة القاهرة‬،, Egypt", "lat": 30.0879308, "lng": 31.3048805, "types": ["grocery_or_supermarket", "food", "point_of_interest", "store", "establishment"], "place_id": "ChIJj3Xb1ro_WBQR238PaF5_T-A"}, {"name": "El Sharkeya For Air Condition", "formatted_address": "27 Mansheit El Bakry St.، Mansheya El-Bakry, Heliopolis, Cairo Governorate, Egypt", "lat": 30.0889, "lng": 31.3063, "types": ["point_of_interest", "establishment"], "place_id": "ChIJTVtz-M0_WBQRPXL51lEIX14"}, {"name": "Stodio 19", "formatted_address": "7 المقريزي، Mansheya El-Bakry, Heliopolis, Cairo Governorate, Egypt", "lat": 30.0893379, "lng": 31.3054145, "types": ["point_of_interest", "establishment"], "place_id": "ChIJu3kRX9I_WBQRE-mneNV_-Ec"}, {"name": "Eilfia Law Firm", "formatted_address": "11351، 11 al tayar hassan lotfi street, Heliopolis, Cairo Government، Cairo Governorate 11351, Egypt", "lat": 30.0887267, "lng": 31.3054328, "types": ["lawyer", "point_of_interest", "establishment"], "place_id": "ChIJxUnIHbUVWBQRElOklimvTFk"}, {"name": "El Rahman Mosque", "formatted_address": "Mansheya El-Bakry, Heliopolis, Cairo Governorate, Egypt", "lat": 30.0881408, "lng": 31.3070608, "types": ["mosque", "place_of_worship", "point_of_interest", "establishment"], "place_id": "ChIJrw0mTcY_WBQRMVVTg8sB2Uo"}, {"name": "محمد صبرى القاضى", "formatted_address": "Hasan Lotfy, حمامات القبة، Heliopolis, Cairo Governorate, Egypt", "lat": 30.0879978, "lng": 31.3053371, "types": ["doctor", "health", "point_of_interest", "establishment"], "place_id": "ChIJ-X7xftI_WBQRU2nmPvhX_XI"}, {"name": "International Trading", "formatted_address": "3 Al Tabreezi, Mansheya El-Bakry, Heliopolis, Cairo Governorate, Egypt", "lat": 30.0888731, "lng": 31.3063756, "types": ["point_of_interest", "establishment"], "place_id": "ChIJM9Y97dI_WBQRnAig1OMNRC8"}, {"name": "Masjed Manshyet Elbakry", "formatted_address": "Mansheya El-Bakry, Mansheyat as Sadr, Heliopolis, Cairo Governorate, Egypt", "lat": 30.0892365, "lng": 31.3059051, "types": ["mosque", "place_of_worship", "point_of_interest", "establishment"], "place_id": "ChIJYU8L8dI_WBQR1dLrLx1DSXE"}, {"name": "Triumph Plaza Hotel", "formatted_address": "Intersection Of Ihsan Abdel Kodous St. with, El-Khalifa El-Maamoun, st, Cairo Governorate 11757, Egypt", "lat": 30.0864639, "lng": 31.3060439, "types": ["lodging", "point_of_interest", "establishment"], "place_id": "ChIJdQaFc80_WBQRaTzpSBv1-BQ"}, {"name": "شركة شارميست للسياحة", "formatted_address": "Mansheya El-Bakry, حمامات القبة، Heliopolis, Cairo Governorate, Egypt", "lat": 30.0890548, "lng": 31.3057222, "types": ["travel_agency", "point_of_interest", "establishment"], "place_id": "ChIJVbn99NI_WBQRqxNFp1ZUnhY"}, {"name": "محور الفردوس", "formatted_address": "Keswa, El-Gamaleya, El Gamaliya, Cairo Governorate, Egypt", "lat": 30.0539873, "lng": 31.28057799999999, "types": ["park", "point_of_interest", "establishment"], "place_id": "ChIJgfNAB4Y_WBQRCoLcil2RCwo"}, {"name": "Clinic heliopolis", "formatted_address": "18 alkhalifa almamoon street, Mansheya El-Bakry, Heliopolis, Cairo Governorate 11774, Egypt", "lat": 30.0870516, "lng": 31.3032997, "types": ["health", "point_of_interest", "establishment"], "place_id": "ChIJa2IvUS0_WBQRsm9EeNkNT3Q"}, {"name": "مكتب د.محمود عبد الفتاح", "formatted_address": "Hasan Lotfy, حمامات القبة، Heliopolis, Cairo Governorate, Egypt", "lat": 30.0889562, "lng": 31.3054927, "types": ["lawyer", "point_of_interest", "establishment"], "place_id": "ChIJ0zQWYNI_WBQRW-AeS7DJKv4"}, {"name": "عيادة الدكتور خالد البلتاجي", "formatted_address": "لطفي، منشية البكري، قسم مصر الجديدة،، Cairo Governorate, Egypt", "lat": 30.0882038, "lng": 31.306867, "types": ["health", "point_of_interest", "establishment"], "place_id": "ChIJC7TkLQU_WBQRegQ4DI6wHeU"}, {"name": "El Saie Consulting engineering", "formatted_address": "19 Lotfy, Mansheya El-Bakry, Heliopolis, Cairo Governorate, Egypt", "lat": 30.0878623, "lng": 31.3058052, "types": ["point_of_interest", "establishment"], "place_id": "ChIJH1gSgdI_WBQRNaTedlyxUNc"}, {"name": "Abu El Khair Masjed", "formatted_address": "El-Khalifa El-Maamoun, Mansheya El-Bakry, Heliopolis, Cairo Governorate, Egypt", "lat": 30.0871765, "lng": 31.3044665, "types": ["mosque", "place_of_worship", "point_of_interest", "establishment"], "place_id": "ChIJNzJxlM0_WBQRuVnnpOPeF9Q"}, {"name": "Maadi Island", "formatted_address": "Dar Al Salam, Giza Governorate, Egypt", "lat": 29.965527, "lng": 31.239237, "types": ["restaurant", "tourist_attraction", "park", "food", "point_of_interest", "establishment"], "place_id": "ChIJwY7d5MFHWBQRl1nMXlW_tUY"}, {"name": "مؤسسة البغدادى للتوريدات", "formatted_address": "شارع لطفى حمامات القبة، Cairo Governorate, Egypt", "lat": 30.087956, "lng": 31.3050035, "types": ["point_of_interest", "establishment"], "place_id": "ChIJ3QVfeNI_WBQRrP1UC5lGu5g"}, {"name": "The Great Pyramid of Giza", "formatted_address": "Al Haram, Nazlet El-Semman, Al Giza Desert, Giza Governorate, Egypt", "lat": 29.9792345, "lng": 31.1342019, "types": ["tourist_attraction", "premise", "point_of_interest", "establishment"], "place_id": "ChIJGymPrIdFWBQRJCSloj8vDIE"}, {"name": "مسجد أبو بخير بدر المقاول", "formatted_address": "المقريزي، حمامات القبة، Heliopolis, Cairo Governorate, Egypt", "lat": 30.0873008, "lng": 31.3044542, "types": ["mosque", "place_of_worship", "point_of_interest", "establishment"], "place_id": "ChIJRR4cks0_WBQRlXxOl-aBAwk"}, {"name": "Porto Heliopolis", "formatted_address": "Almazah, Heliopolis, Cairo Governorate, Egypt", "lat": 30.0827031, "lng": 31.348709, "types": ["lodging", "point_of_interest", "establishment"], "place_id": "ChIJR5FCXgE-WBQR471eyuZuvGw"}, {"name": "منال أحمد عبد اللطيف", "formatted_address": "شارع El-Khalifa El-Maamoun, حمامات القبة، Heliopolis, Cairo Governorate, Egypt", "lat": 30.0870941, "lng": 31.303934, "types": ["lawyer", "point_of_interest", "establishment"], "place_id": "ChIJtZSf680_WBQRzG7LucY8PxA"}, {"name": "Golden Fingers", "formatted_address": "13a Al Ghabarti, Mansheya El-Bakry, Heliopolis, Cairo Governorate, Egypt", "lat": 30.0880756, "lng": 31.3070449, "types": ["point_of_interest", "establishment"], "place_id": "ChIJ61QOvdI_WBQR46XjH2Q0kGE"}, {"name": "المصرية الدولية للإستشارات القانونية", "formatted_address": "11A Hasan Lotfy, Mansheya El-Bakry, Heliopolis, Cairo Governorate 11351, Egypt", "lat": 30.0889512, "lng": 31.3054415, "types": ["point_of_interest", "establishment"], "place_id": "ChIJJca_XoM_WBQR6cCIipF0W0w"}, {"name": "Heliopolis Sporting Club (HSC)", "formatted_address": "17 El-Sayed El-Marghany, Mansheya El-Bakry, Heliopolis, Cairo Governorate, Egypt", "lat": 30.0883155, "lng": 31.3164398, "types": ["point_of_interest", "establishment"], "place_id": "ChIJB9zy8B4-WBQRz_zRpJte8sA"}, {"name": "Misr Radiology Center", "formatted_address": "8 El-Khalifa El-Maamoun, Mansheya El-Bakry, Heliopolis, Cairo Governorate, Egypt", "lat": 30.0869168, "lng": 31.3022116, "types": ["doctor", "health", "point_of_interest", "establishment"], "place_id": "ChIJxVvF2c0_WBQRYA4XDa6iHs0"}, {"name": "Heliopolis Towers Hotel", "formatted_address": "El Shaheed Sayed Zakaria, Sheraton Al Matar, El Nozha, Cairo Governorate 11736, Egypt", "lat": 30.1074763, "lng": 31.3661798, "types": ["lodging", "point_of_interest", "establishment"], "place_id": "ChIJZ9p3820WWBQRmZh2M_MSzOQ"}, {"name": "د/ مصطفى محمود مصطفى", "formatted_address": "31 Mansheya El-Bakry, Heliopolis, Cairo Governorate, Egypt", "lat": 30.0882595, "lng": 31.3069783, "types": ["health", "point_of_interest", "establishment"], "place_id": "ChIJq8h-kTQ_WBQRQ_zHYiT0C_Y"}, {"name": "بيت المهندسين", "formatted_address": "Mansheya El-Bakry, Heliopolis, Cairo Governorate, Egypt", "lat": 30.0888643, "lng": 31.3043899, "types": ["point_of_interest", "establishment"], "place_id": "ChIJ_-Os9ZM_WBQRtHxz30ZNViE"}, {"name": "Lotfi", "formatted_address": "Kobri Al Merghani, Mansheya El-Bakry, Heliopolis, Cairo Governorate, Egypt", "lat": 30.0900459, "lng": 31.3149692, "types": ["shoe_store", "point_of_interest", "store", "establishment"], "place_id": "ChIJaQKXry4-WBQRLmE-cqj_vrs"}, {"name": "Eye Subspecialty Center", "formatted_address": "ش El-Khalifa El-Maamoun, Mansheya El-Bakry, Heliopolis, Cairo Governorate, Egypt", "lat": 30.0870087, "lng": 31.3033972, "types": ["hospital", "doctor", "health", "point_of_interest", "establishment"], "place_id": "ChIJxVvF2c0_WBQRrtSL3uTmXW8"}, {"name": "مركز القاضي لعلاج الاورام اد محمد صبري القاضى", "formatted_address": "Hasan Lotfy, Mansheya El-Bakry, Heliopolis, Cairo Governorate, Egypt", "lat": 30.0871104, "lng": 31.3054283, "types": ["health", "point_of_interest", "establishment"], "place_id": "ChIJFTBsJkw_WBQR6xkkG97WqoA"}, {"name": "Vota", "formatted_address": "شارع منشية البكرى، الحمام، El-Qobba, Heliopolis, Cairo Governorate, Egypt", "lat": 30.0885144, "lng": 31.3038867, "types": ["point_of_interest", "establishment"], "place_id": "ChIJBVpwDNI_WBQR_qdQzMCypKo"}, {"name": "Ishaq Hakeem", "formatted_address": "19 Lotfy, Mansheya El-Bakry, Heliopolis, Cairo Governorate, Egypt", "lat": 30.087136, "lng": 31.3056304, "types": ["car_repair", "point_of_interest", "store", "establishment"], "place_id": "ChIJLdsMeM0_WBQRN0HnAn_LPLA"}, {"name": "المهندس للتوكيلات التجارية", "formatted_address": "Mansheyat Al Bakri, Heliopolis, Cairo Governorate, Egypt", "lat": 30.0876485, "lng": 31.3072022, "types": ["clothing_store", "point_of_interest", "store", "establishment"], "place_id": "ChIJP0-eo9I_WBQRGpG2QD3z6C4"}, {"name": "Citystars Heliopolis", "formatted_address": "Citystars, Cairo Governorate 11771, Egypt", "lat": 30.0728734, "lng": 31.3458082, "types": ["shopping_mall", "point_of_interest", "establishment"], "place_id": "ChIJo0ecE_gVWBQRGGrouhZFdME"}, {"name": "عيادة الدكتور محمد صبري القاضى", "formatted_address": "Hasan Lotfy, Mansheya El-Bakry, Heliopolis, Cairo Governorate, Egypt", "lat": 30.0870932, "lng": 31.3053549, "types": ["health", "point_of_interest", "establishment"], "place_id": "ChIJ_UFOgs0_WBQRjNHkCcK3hd4"}, {"name": "دار مسنين الإحسان", "formatted_address": "الخليفة المأمون، منشية البكري، قسم مصر الجديدة، محافظة القاهرة‬،، Egypt", "lat": 30.0883241, "lng": 31.3047444, "types": ["lodging", "point_of_interest", "establishment"], "place_id": "ChIJ5R37rc8_WBQRWN5Sk_t1udc"}, {"name": "Agent UBER Company", "formatted_address": "17 أ لطفي مصر الجديدة بجوار فيلا عاطف صدقي محطة الحرس الجمهوري مصر الجديدة، 11736, Egypt", "lat": 30.087838, "lng": 31.305801, "types": ["car_dealer", "point_of_interest", "store", "establishment"], "place_id": "ChIJa8bjg9I_WBQRuWrF0NSy3_M"}, {"name": "دكتور كمال عثمان", "formatted_address": "Tawfik Lotfy, Mansheya El-Bakry, Heliopolis, Cairo Governorate 11234, Egypt", "lat": 30.0878464, "lng": 31.3040471, "types": ["point_of_interest", "establishment"], "place_id": "ChIJCf3KkZ0_WBQR_wSIRnJlveo"}, {"name": "St. Mark Coptic Orthodox Church Cleopatra", "formatted_address": "35 كيلوباترا، الماظة، قسم مصر الجديدة،، Cairo Governorate, Egypt", "lat": 30.0924011, "lng": 31.3296246, "types": ["church", "place_of_worship", "point_of_interest", "establishment"], "place_id": "ChIJH3kNmooVWBQRfL4z5mf-KXU"}, {"name": "Sonesta Hotel Tower & Casino Cairo", "formatted_address": "3 El Tayaran St, Ash Sharekat, Nasr City, Cairo Governorate, Egypt", "lat": 30.0789591, "lng": 31.3175599, "types": ["casino", "lodging", "point_of_interest", "establishment"], "place_id": "ChIJKYApCUc-WBQROTn4JL8ozhI"}, {"name": "Spiroplastic", "formatted_address": "شارع منشية البكرى، الحمام، El-Qobba, Heliopolis, Cairo Governorate, Egypt", "lat": 30.0886873, "lng": 31.3042957, "types": ["point_of_interest", "store", "establishment"], "place_id": "ChIJh4SActI_WBQRIaPWBmU6UDE"}, {"name": "Studio Zat", "formatted_address": "22 El-Khalifa El-Maamoun, Mansheya El-Bakry, Heliopolis, Cairo Governorate, Egypt", "lat": 30.087082, "lng": 31.3039226, "types": ["point_of_interest", "establishment"], "place_id": "ChIJp_wC7M0_WBQRpFrnitcDaNo"}, {"name": "Homey store", "formatted_address": "2 El Gabarty St., from 47 El Khalifa El Maamoun St., in front of Triumph Hotel, Heliopolis, محافظة القاهرة‬،, Egypt", "lat": 30.0873976, "lng": 31.3073069, "types": ["lodging", "home_goods_store", "point_of_interest", "store", "establishment"], "place_id": "ChIJY5LJcFo_WBQRlAVx_JhagA8"}]