[{"name": "Ittihadia Palace", "formatted_address": "Al Nadi، El-Montaza, Heliopolis, Cairo Governorate, Egypt", "lat": 30.0888643, "lng": 31.3193929, "types": ["tourist_attraction", "premise", "point_of_interest", "establishment"], "place_id": "ChIJuftqUS8-WBQRtM7fDk0QcPk"}, {"name": "Baron Empain Palace", "formatted_address": "El-Orouba, El-Montaza, Heliopolis, Cairo Governorate 11757, Egypt", "lat": 30.0866701, "lng": 31.3303332, "types": ["point_of_interest", "establishment"], "place_id": "ChIJ1_GM8iE-WBQRLNVi-RT7vDA"}, {"name": "دار مريم للرعاية", "formatted_address": "20 شارع محمود فؤاد, متفرع من جمال نوح ,ألماظة, Heliopolis, Cairo, Cairo Governorate 11341, Egypt", "lat": 30.082801, "lng": 31.347116, "types": ["lodging", "point_of_interest", "establishment"], "place_id": "ChIJxehFh34_WBQRJUW53CQK3-E"}, {"name": "Go Heliopolis - Khozam The First Compound In Heliopolis", "formatted_address": "شارع النزهة، مصر الجديدة،، Egypt", "lat": 30.0732268, "lng": 31.3397646, "types": ["lodging", "point_of_interest", "establishment"], "place_id": "ChIJZ7ZHBKs_WBQRJD3Ntp2Q_ww"}, {"name": "Afify", "formatted_address": "9 ش العشماوى، العتبة، Heliopolis, Cairo Governorate, Egypt", "lat": 30.083485, "lng": 31.3455929, "types": ["point_of_interest", "establishment"], "place_id": "ChIJ9RbVnwM-WBQR4Cbc267HdIM"}, {"name": "Porto Heliopolis", "formatted_address": "Almazah, Heliopolis, Cairo Governorate, Egypt", "lat": 30.0827031, "lng": 31.348709, "types": ["lodging", "point_of_interest", "establishment"], "place_id": "ChIJR5FCXgE-WBQR471eyuZuvGw"}, {"name": "Our Lady of Heliopolis Co-Cathedral", "formatted_address": "Nazih Khalifa crossroad، Al Ahram, Heliopolis, Cairo Governorate, Egypt", "lat": 30.0935707, "lng": 31.3251828, "types": ["church", "place_of_worship", "point_of_interest", "establishment"], "place_id": "ChIJJdgh-okVWBQR5TqTmKuQ0IM"}, {"name": "The Egyptian Museum", "formatted_address": "شارع ماريت باشا، ميدان التحرير، Egypt", "lat": 30.0475781, "lng": 31.23361389999999, "types": ["museum", "tourist_attraction", "point_of_interest", "establishment"], "place_id": "ChIJw741VYhBWBQRD2Z6OiulDVI"}, {"name": "El Nour", "formatted_address": "8 ش العشماوى، العتبة، Heliopolis, Cairo Governorate, Egypt", "lat": 30.083485, "lng": 31.3455929, "types": ["point_of_interest", "establishment"], "place_id": "ChIJ9RbVnwM-WBQRxNx4czMg06A"}, {"name": "لوبرجين", "formatted_address": "131 Omar Ibn El-Khattab, Almazah, Heliopolis, Cairo Governorate, Egypt", "lat": 30.0837527, "lng": 31.3473345, "types": ["point_of_interest", "establishment"], "place_id": "ChIJoTkNxgM-WBQRyKTcA9XkfoM"}, {"name": "Ahmed Abdel Moneim", "formatted_address": "36 ش العشماوى، العتبة، Heliopolis, Cairo Governorate, Egypt", "lat": 30.083485, "lng": 31.3455929, "types": ["point_of_interest", "establishment"], "place_id": "ChIJ1bUFs71AWBQRzvIVY9d-fhI"}, {"name": "Abdeen Palace Museum", "formatted_address": "شارع جمعه عابدين،، El-Gomhoreya Square, Rahbet Abdin, Abdeen, Cairo Governorate, Egypt", "lat": 30.0422696, "lng": 31.248544, "types": ["tourist_attraction", "museum", "point_of_interest", "establishment"], "place_id": "ChIJF_ZR9bpAWBQR_WeDJloU-7o"}, {"name": "Golden Home", "formatted_address": "137 Omar Ibn El-Khattab, Almazah, Heliopolis, Cairo Governorate, Egypt", "lat": 30.082972, "lng": 31.3474488, "types": ["point_of_interest", "establishment"], "place_id": "ChIJUWR06QM-WBQRvlQ8bSBcKzY"}, {"name": "Papimpex Wilfried Heinzel Cairo", "formatted_address": "42 ش الماظة، Almazah, Heliopolis, Cairo Governorate, Egypt", "lat": 30.0855, "lng": 31.34679999999999, "types": ["point_of_interest", "establishment"], "place_id": "ChIJd78yPgM-WBQRDazdnvVJKWw"}, {"name": "El Ethad For Electric Supplies", "formatted_address": "40 ش العشماوى، العتبة، Heliopolis, Cairo Governorate, Egypt", "lat": 30.083485, "lng": 31.3455929, "types": ["point_of_interest", "establishment"], "place_id": "ChIJ9RbVnwM-WBQRnZnz9t4tAlw"}, {"name": "Apps Account Marketing Agency", "formatted_address": "14 محمود فؤاد، Almazah, Nasr City, Cairo Governorate 11775, Egypt", "lat": 30.0833164, "lng": 31.3469399, "types": ["point_of_interest", "establishment"], "place_id": "ChIJ35JJ5qI_WBQRlTsjhk9FT70"}, {"name": "Fathy", "formatted_address": "17 ش العشماوى، العتبة، Heliopolis, Cairo Governorate, Egypt", "lat": 30.083485, "lng": 31.3455929, "types": ["point_of_interest", "establishment"], "place_id": "ChIJ9RbVnwM-WBQReY72nwJYbas"}, {"name": "Said & Nino", "formatted_address": "27 ش العشماوى، العتبة، Heliopolis, Cairo Governorate, Egypt", "lat": 30.083485, "lng": 31.3455929, "types": ["point_of_interest", "establishment"], "place_id": "ChIJ9RbVnwM-WBQRq1WF1xcB-pw"}, {"name": "Coiffeur Lollita", "formatted_address": "Mahmoud Fouad, Almazah, Heliopolis, Cairo Governorate, Egypt", "lat": 30.0831545, "lng": 31.3468121, "types": ["beauty_salon", "point_of_interest", "establishment"], "place_id": "ChIJC6IXlQM-WBQRdv7phrdgKA4"}, {"name": "Al takwa masjed", "formatted_address": "Abd El-Hady Sadik, Almazah, Heliopolis, Cairo Governorate, Egypt", "lat": 30.0827744, "lng": 31.3462835, "types": ["mosque", "place_of_worship", "point_of_interest", "establishment"], "place_id": "ChIJS2b4jwM-WBQR9aAfKHueH00"}, {"name": "French Egyptian For Covering Cables Wire", "formatted_address": "25 ش العشماوى، العتبة، Heliopolis, Cairo Governorate, Egypt", "lat": 30.083485, "lng": 31.3455929, "types": ["point_of_interest", "establishment"], "place_id": "ChIJ9RbVnwM-WBQROaHRFBJpEJ0"}, {"name": "Mazen", "formatted_address": "20 ش العشماوى، العتبة، Heliopolis, Cairo Governorate, Egypt", "lat": 30.083485, "lng": 31.3455929, "types": ["point_of_interest", "establishment"], "place_id": "ChIJ9RbVnwM-WBQRft7g91IRIlo"}, {"name": "Speed", "formatted_address": "Almazah, Heliopolis, Cairo Governorate, Egypt", "lat": 30.0847465, "lng": 31.3468341, "types": ["point_of_interest", "establishment"], "place_id": "ChIJmXoCSwI-WBQRZbJ8tlxrTdA"}, {"name": "Abdu Mostafa Mosque", "formatted_address": "Almazah, Heliopolis, Cairo Governorate, Egypt", "lat": 30.08489329999999, "lng": 31.3464631, "types": ["mosque", "place_of_worship", "point_of_interest", "establishment"], "place_id": "ChIJD2zCSAI-WBQRbTz2SaZh_zo"}, {"name": "Aya & Radwa & Azza", "formatted_address": "31 ش العشماوى، العتبة، Heliopolis, Cairo Governorate, Egypt", "lat": 30.083485, "lng": 31.3455929, "types": ["point_of_interest", "establishment"], "place_id": "ChIJIygetb1AWBQRfTHQAgdY3Mc"}, {"name": "Sanabel Forage", "formatted_address": "133 Omar Ibn El-Khattab, Almazah, Heliopolis, Cairo Governorate, Egypt", "lat": 30.0834957, "lng": 31.3475521, "types": ["point_of_interest", "establishment"], "place_id": "ChIJJZlixAM-WBQR4MQzRFDnw7c"}, {"name": "ايكوفارم للصناعات الدوائية", "formatted_address": "12 Abd El-Hady Sadik, Almazah, Heliopolis, Cairo Governorate, Egypt", "lat": 30.0828544, "lng": 31.3463689, "types": ["point_of_interest", "establishment"], "place_id": "ChIJ-3MUkAM-WBQRbvB7KYszIYQ"}, {"name": "FilKhedma", "formatted_address": "12 ش Abd El-Hady Sadik, Almazah, Heliopolis, Cairo Governorate, Egypt", "lat": 30.0828617, "lng": 31.346491, "types": ["local_government_office", "point_of_interest", "establishment"], "place_id": "ChIJRbyUHtE_WBQRt9IWr4Q7TG0"}, {"name": "Aloush Heliopolis", "formatted_address": "الماظة ، مصر الجديدة ، عمارة 135, Heliopolis, Cairo Governorate, Egypt", "lat": 30.08342399999999, "lng": 31.347398, "types": ["cafe", "restaurant", "food", "point_of_interest", "establishment"], "place_id": "ChIJM7jmwwM-WBQRCv7xsNzKuvA"}, {"name": "Citystars Heliopolis", "formatted_address": "Citystars, Cairo Governorate 11771, Egypt", "lat": 30.0728734, "lng": 31.3458082, "types": ["shopping_mall", "point_of_interest", "establishment"], "place_id": "ChIJo0ecE_gVWBQRGGrouhZFdME"}, {"name": "Electro Power", "formatted_address": "40 ش العشماوى، العتبة، Heliopolis, Cairo Governorate, Egypt", "lat": 30.083485, "lng": 31.3455929, "types": ["point_of_interest", "establishment"], "place_id": "ChIJ9RbVnwM-WBQRWBblgTCWJp4"}, {"name": "Borders Egypt Center Heliopolis", "formatted_address": "34 Ahmed Wasfi, Almazah, Heliopolis, Cairo Governorate, Egypt", "lat": 30.0846602, "lng": 31.3471003, "types": ["point_of_interest", "establishment"], "place_id": "ChIJRW71pjQ_WBQRVdO6jwWX-tY"}, {"name": "Acacia Travel", "formatted_address": "10 Abdel Hady Sadek St.، Almazah, Heliopolis, Cairo Governorate, Egypt", "lat": 30.083055, "lng": 31.3464299, "types": ["travel_agency", "point_of_interest", "establishment"], "place_id": "ChIJAU1skAM-WBQRceeF6XJVbQI"}, {"name": "Dar Al Eshara", "formatted_address": "Masaken Al Mohandesin, Nasr City, Cairo Governorate, Egypt", "lat": 30.0811408, "lng": 31.3488, "types": ["point_of_interest", "establishment"], "place_id": "ChIJLyhTqQY-WBQRc1aMkVsnYv8"}, {"name": "Shape & Function", "formatted_address": "23 ishaq yaaqub st.، Almazah, Heliopolis, Cairo Governorate, Egypt", "lat": 30.0861206, "lng": 31.3438602, "types": ["point_of_interest", "establishment"], "place_id": "ChIJ7TdCwwI-WBQRXfAmfK0eziI"}, {"name": "Abdou Sholah", "formatted_address": "36 ش العشماوى، العتبة، Heliopolis, Cairo Governorate, Egypt", "lat": 30.083485, "lng": 31.3455929, "types": ["point_of_interest", "establishment"], "place_id": "ChIJ9RbVnwM-WBQRI8z0bk33EqY"}, {"name": "WH Holidays", "formatted_address": "7 Almaza Square, Omar Ibn El-Khattab Street, Heliopolis, Cairo Governorate 11775, Egypt", "lat": 30.0855725, "lng": 31.3465855, "types": ["travel_agency", "point_of_interest", "establishment"], "place_id": "ChIJpxOV6vcVWBQROXEjRZo_zQ8"}, {"name": "Beit ward", "formatted_address": "مجمع مطاعم تيفولي دوم, Almazah, Heliopolis, Cairo Governorate, Egypt", "lat": 30.0864862, "lng": 31.3476597, "types": ["restaurant", "food", "point_of_interest", "establishment"], "place_id": "ChIJl4wtjso_WBQRnbNuDhI4cC4"}, {"name": "Heliopolis Towers Hotel", "formatted_address": "El Shaheed Sayed Zakaria, Sheraton Al Matar, El Nozha, Cairo Governorate 11736, Egypt", "lat": 30.1074763, "lng": 31.3661798, "types": ["lodging", "point_of_interest", "establishment"], "place_id": "ChIJZ9p3820WWBQRmZh2M_MSzOQ"}, {"name": "Charlie's Restaurant", "formatted_address": "13 El-Thawra St, El-Montaza, Heliopolis, Cairo Governorate, Egypt", "lat": 30.0807614, "lng": 31.3546341, "types": ["point_of_interest", "establishment"], "place_id": "ChIJpfMJG_49WBQRX8g6h1NgzmA"}, {"name": "The Child Museum", "formatted_address": "34 Abou Bakr El-Sedeek, El-Bostan, Heliopolis, Cairo Governorate, Egypt", "lat": 30.1022381, "lng": 31.33694599999999, "types": ["tourist_attraction", "museum", "point_of_interest", "establishment"], "place_id": "ChIJz-2ngvIVWBQR0usMZT-HkR8"}, {"name": "Computer & Communication Concept - C & CC", "formatted_address": "6 Aflaton St.، Masaken Al Mohandesin, Heliopolis, Cairo Governorate, Egypt", "lat": 30.079575, "lng": 31.344988, "types": ["point_of_interest", "establishment"], "place_id": "ChIJVznwLfEVWBQR_2KCGtndzME"}, {"name": "Tivoli Dome", "formatted_address": "Omar Ibn El-Khattab, Almazah, Heliopolis, Cairo Governorate, Egypt", "lat": 30.0860882, "lng": 31.3479517, "types": ["food", "point_of_interest", "establishment"], "place_id": "ChIJsSxOPgI-WBQRz6H2FJMg2uE"}, {"name": "Radisson Blu Hotel, Cairo Heliopolis", "formatted_address": "Abdel Hamid Badawi St Heliopolis, Cairo Governorate 11787, Egypt", "lat": 30.1065093, "lng": 31.3753121, "types": ["lodging", "point_of_interest", "establishment"], "place_id": "ChIJQZJ8fWUWWBQRAUPO9I6SxPg"}, {"name": "InterContinental Citystars Cairo, an IHG Hotel", "formatted_address": "Omar Ibn El Khattab، Street، Cairo Governorate 11737, Egypt", "lat": 30.0724583, "lng": 31.3478955, "types": ["lodging", "point_of_interest", "establishment"], "place_id": "ChIJJYCniw4-WBQRDaNySSZ_iuI"}, {"name": "Emad Yohanna", "formatted_address": "137 Omar Ibn El-Khattab, Almazah, Heliopolis, Cairo Governorate, Egypt", "lat": 30.0829719, "lng": 31.3474488, "types": ["point_of_interest", "establishment"], "place_id": "ChIJByEpvgU_WBQRa41ufdIpulE"}, {"name": "ESLSCA Business School , Heliopolis Campus", "formatted_address": "51 from Thawra St، Abd El-Moneim Hafez, Heliopolis, Egypt", "lat": 30.086126, "lng": 31.3462815, "types": ["university", "point_of_interest", "establishment"], "place_id": "ChIJlSX7ZwI-WBQRJxlJfpP_mR4"}, {"name": "Lemon Spaces sheraton Heliopolis", "formatted_address": "Building # 19، El-Safa, Sheraton Al Matar, El Nozha, Cairo Governorate, Egypt", "lat": 30.1058785, "lng": 31.3667492, "types": ["lodging", "point_of_interest", "establishment"], "place_id": "ChIJ0dUH_3oXWBQRT1ZYgsJShvE"}, {"name": "Armada Cairo", "formatted_address": "الماظة ، مصر الجديدة ، عمارة 135, Heliopolis, Cairo Governorate, Egypt", "lat": 30.08342399999999, "lng": 31.347398, "types": ["restaurant", "food", "point_of_interest", "establishment"], "place_id": "ChIJuVfKCxg_WBQRLOdSGdQpmNg"}, {"name": "The Learning Center", "formatted_address": "34 ش الشهيد احمد وصفى، Almazah, Heliopolis, Cairo Governorate, Egypt", "lat": 30.084798, "lng": 31.346784, "types": ["point_of_interest", "establishment"], "place_id": "ChIJLU2mSwI-WBQR_sz-_1W0B8o"}, {"name": "Pottery Cafe - Tivoli Dome Heliopolis", "formatted_address": "Almazah, Heliopolis, Cairo Governorate, Egypt", "lat": 30.0858389, "lng": 31.347715, "types": ["cafe", "food", "point_of_interest", "establishment"], "place_id": "ChIJw9uBFwI-WBQRXQFCXBmTqCM"}, {"name": "(Heliopolis Public library)", "formatted_address": "Beirut, Almazah, Heliopolis, Cairo Governorate, Egypt", "lat": 30.090914, "lng": 31.3328428, "types": ["library", "point_of_interest", "establishment"], "place_id": "ChIJd3h9YvUVWBQR2Oi9DLQTI8E"}, {"name": "Golden Park Hotel", "formatted_address": "شارع الحجاز ، مصر الجديده، 221 شارع الحجاز ، هيليوبوليس ،، El Nozha, Cairo Governorate, Egypt", "lat": 30.1153686, "lng": 31.3525102, "types": ["lodging", "point_of_interest", "establishment"], "place_id": "ChIJsQQdRNgVWBQRss6fVxNFk_8"}, {"name": "Gramophone (Helioples)", "formatted_address": "Safir Square, 10 Mahmoud Hafez, El-Nozha, El Nozha, Cairo Governorate 11757, Egypt", "lat": 30.1000232, "lng": 31.3378181, "types": ["point_of_interest", "establishment"], "place_id": "ChIJs0qB4vgVWBQRDEc1plllL_A"}, {"name": "Heliopolis Developers Group", "formatted_address": "شارع Makram Ebeid, Al Manteqah as Sadesah, Nasr City, Cairo Governorate 11762, Egypt", "lat": 30.06249639999999, "lng": 31.3446167, "types": ["general_contractor", "point_of_interest", "establishment"], "place_id": "ChIJY-NFOnI-WBQRv7lSZBvESCY"}, {"name": "St. Mark Coptic Orthodox Church Cleopatra", "formatted_address": "35 كيلوباترا، الماظة، قسم مصر الجديدة،، Cairo Governorate, Egypt", "lat": 30.0924011, "lng": 31.3296246, "types": ["church", "place_of_worship", "point_of_interest", "establishment"], "place_id": "ChIJH3kNmooVWBQRfL4z5mf-KXU"}, {"name": "La Bella", "formatted_address": "Almazah, Heliopolis, Cairo Governorate, Egypt", "lat": 30.0824686, "lng": 31.3466115, "types": ["beauty_salon", "point_of_interest", "establishment"], "place_id": "ChIJdyiwjgM-WBQRJsu-B1Sd6ok"}, {"name": "Le Chateau لوشاتو", "formatted_address": "122عمر بن الخطاب، الماظة، مصر الجديدة،، محافظة، Cairo Governorate, Egypt", "lat": 30.0835601, "lng": 31.3477119, "types": ["home_goods_store", "point_of_interest", "store", "establishment"], "place_id": "ChIJxfIB2wM-WBQRuqVgsGnTP18"}, {"name": "Baron Hotel Heliopolis", "formatted_address": "14 Al Baroon, El-Montaza, Heliopolis, Cairo Governorate, Egypt", "lat": 30.0860748, "lng": 31.3314609, "types": ["lodging", "point_of_interest", "establishment"], "place_id": "ChIJUbVOACI-WBQRWsi5B7gYfxs"}, {"name": "TOLIP El Galaa - Heliopolis", "formatted_address": "El Orouba St, Sheraton Al Matar, El Nozha, Cairo Governorate, Egypt", "lat": 30.0985969, "lng": 31.3490226, "types": ["lodging", "point_of_interest", "establishment"], "place_id": "ChIJvyeGu-QVWBQRkPqc2rg6IsE"}]