[{"name": "Bon Voyage", "formatted_address": "16 Adly, Al Fawalah, Abdeen, Cairo Governorate, Egypt", "lat": 31.244439, "types": ["tourist_attraction", "point_of_interest", "establishment"], "place_id": "ChIJJZ3TEL5AWBQRc-PhG_sO-S0"}, {"name": "Ittihadia Palace", "formatted_address": "Al Nadi، El-Montaza, Heliopolis, Cairo Governorate, Egypt", "lat": 31.3193929, "types": ["tourist_attraction", "premise", "point_of_interest", "establishment"], "place_id": "ChIJuftqUS8-WBQRtM7fDk0QcPk"}, {"name": "مكتب عصام عبدالعزيز وشركاه للمحاسبه والمراجعه", "formatted_address": "الشهيد أحمد زكي، منطي، قليوب، القليوبية،، Egypt", "lat": 31.2428493, "types": ["point_of_interest", "establishment"], "place_id": "ChIJtbkbutBrWBQRNSg9zhqwmnQ"}, {"name": "رمضان السيد ابرهيم", "formatted_address": "الشهيد أحمد زكي، منطي، قليوب، القليوبية،، منطي، قليوب، القليوبية،، Egypt", "lat": 31.24282299999999, "types": ["point_of_interest", "establishment"], "place_id": "ChIJfTXEcWxrWBQRHoIuYtZ3otg"}, {"name": "Mickey East", "formatted_address": "22 ش احمد زكى، Shubra Al Kheimah, Qalyub, Al Qalyubia Governorate, Egypt", "lat": 31.2431309, "types": ["home_goods_store", "point_of_interest", "store", "establishment"], "place_id": "ChIJ6QmfI8NqWBQRumrVuxDbs1A"}, {"name": "مركز ام النور لصيانة الاجهزة المنزلية", "formatted_address": "الشهيد أحمد زكي، منطي، قليوب،، Al Qalyubia Governorate, Egypt", "lat": 31.2431626, "types": ["electronics_store", "point_of_interest", "store", "establishment"], "place_id": "ChIJ1dnrrHlrWBQR7B4eTlyWcE8"}, {"name": "المتحدة للألوميتال", "formatted_address": "الشهيد أحمد زكي، منطي، قليوب،، منطي، قليوب، القليوبية،، Egypt", "lat": 31.2431574, "types": ["point_of_interest", "establishment"], "place_id": "ChIJb53GvqprWBQRTRLydWjj1WE"}, {"name": "Baron Empain Palace", "formatted_address": "El-Orouba, El-Montaza, Heliopolis, Cairo Governorate 11757, Egypt", "lat": 31.3303332, "types": ["point_of_interest", "establishment"], "place_id": "ChIJ1_GM8iE-WBQRLNVi-RT7vDA"}, {"name": "Khalf Al Ebour Mosque", "formatted_address": "Ahmed Zaki, Mansheya El-Bakry, Heliopolis, Cairo Governorate, Egypt", "lat": 31.3050612, "types": ["mosque", "place_of_worship", "point_of_interest", "establishment"], "place_id": "ChIJdRQSUco_WBQRdjJVZTqf7jA"}, {"name": "فندق دار المشاة", "formatted_address": "Al Shahid Al Mokadem Ahmed Zaki, Mansheya El-Bakry, Heliopolis, Cairo Governorate, Egypt", "lat": 31.301998, "types": ["lodging", "point_of_interest", "establishment"], "place_id": "ChIJkxoi8Mk_WBQRh9ZqCloMkL0"}, {"name": "صوت الفن", "formatted_address": "16 Adly, Bab Al Louq, Abdeen, Cairo Governorate, Egypt", "lat": 31.244439, "types": ["point_of_interest", "establishment"], "place_id": "ChIJ__8vEb5AWBQRqaCYbvGsNWU"}, {"name": "Our Lady of Heliopolis Co-Cathedral", "formatted_address": "Nazih Khalifa crossroad، Al Ahram, Heliopolis, Cairo Governorate, Egypt", "lat": 31.3251828, "types": ["church", "place_of_worship", "point_of_interest", "establishment"], "place_id": "ChIJJdgh-okVWBQR5TqTmKuQ0IM"}, {"name": "Misr El Dawleya", "formatted_address": "96 ش محمد فريد، وسط البلد، Abdeen, Cairo Governorate, Egypt", "lat": 31.2442814, "types": ["point_of_interest", "establishment"], "place_id": "ChIJYaZ29JVAWBQRfDHDvqzkKAg"}, {"name": "Dr. Mohamed Ahmed Heshmat", "formatted_address": "28 adly st.، DOWNTOWN، Abdeen, Cairo Governorate, Egypt", "lat": 31.2438927, "types": ["point_of_interest", "establishment"], "place_id": "ChIJP1BdIL5AWBQRjresW9Lvqfs"}, {"name": "مصنع النسر لاستك الكروشيه والنسيج", "formatted_address": "منطي، Egypt", "lat": 31.2439245, "types": ["store", "point_of_interest", "establishment"], "place_id": "ChIJZ9ARoNZrWBQRUp2jeKsvEo4"}, {"name": "رويال لاب", "formatted_address": "229 Ahmed Zaki, Dar El-Salam, El Basatin, Cairo Governorate, Egypt", "lat": 31.2584526, "types": ["point_of_interest", "establishment"], "place_id": "ChIJQ-K5IYZHWBQRqsICFv0wsZM"}, {"name": "Enviro Egypt", "formatted_address": "34 ش عدلى، وسط البلد، Abdeen, Cairo Governorate, Egypt", "lat": 31.2438927, "types": ["point_of_interest", "establishment"], "place_id": "ChIJtZcaApZAWBQR8B1wlb7EUNU"}, {"name": "Heliopolis Towers Hotel", "formatted_address": "El Shaheed Sayed Zakaria, Sheraton Al Matar, El Nozha, Cairo Governorate 11736, Egypt", "lat": 31.3661798, "types": ["lodging", "point_of_interest", "establishment"], "place_id": "ChIJZ9p3820WWBQRmZh2M_MSzOQ"}, {"name": "مطعم جود الشام", "formatted_address": "خلف عمارات العبور شارع الشهيد أحمد زكي بجوار دار المشاه وامام نادي اطلايع، الجيش، Cairo Governorate, Egypt", "lat": 31.30507679999999, "types": ["restaurant", "food", "point_of_interest", "establishment"], "place_id": "ChIJdw6_Tco_WBQRPSTj1vqLiYM"}, {"name": "New Society Service Association", "formatted_address": "18 Adly St.، DOWNTOWN، Abdeen, Cairo Governorate, Egypt", "lat": 31.2438927, "types": ["point_of_interest", "establishment"], "place_id": "ChIJtZcaApZAWBQRXp74iGF8f3E"}, {"name": "مسجد الهدى المحمدى", "formatted_address": "Ahmed Zaki, Ezbet Nafie, El Basatin, Cairo Governorate, Egypt", "lat": 31.2590154, "types": ["mosque", "place_of_worship", "point_of_interest", "establishment"], "place_id": "ChIJzYyrmohHWBQRMhjh0sFXrUM"}, {"name": "Sha'ar Hashamayim Synagogue", "formatted_address": "18 شارع عدلي، الفوالة، عابدين، محافظة القاهرة‬،، Egypt", "lat": 31.2436791, "types": ["synagogue", "place_of_worship", "point_of_interest", "establishment"], "place_id": "ChIJDVLmR6hBWBQR6vKEPq4Bl6M"}, {"name": "Abou Deif", "formatted_address": "188 ahmed zaky st.، Dar El-Salam, El Basatin, Cairo Governorate, Egypt", "lat": 31.2446245, "types": ["point_of_interest", "establishment"], "place_id": "ChIJI6GlTZlHWBQRwTteseZW0Xk"}, {"name": "Uim", "formatted_address": "96 ش محمد فريد، وسط البلد، Abdeen, Cairo Governorate, Egypt", "lat": 31.2442814, "types": ["point_of_interest", "establishment"], "place_id": "ChIJYaZ29JVAWBQRlUL8vCc7E9s"}, {"name": "El Amana-Haberdashery", "formatted_address": "Al Fawalah, Abdin, Cairo Governorate, Egypt", "lat": 31.24520159999999, "types": ["point_of_interest", "establishment"], "place_id": "ChIJo604Ab5AWBQRde9ys4nZq1s"}, {"name": "Bozo", "formatted_address": "3 26 يوليو، المهندسين، Giza District, Cairo Governorate, Egypt", "lat": 31.2451698, "types": ["point_of_interest", "establishment"], "place_id": "ChIJS0-a45VAWBQRHKWunDn7Wnk"}, {"name": "Aswaf New Look", "formatted_address": "1 Adly St.، DOWNTOWN، Abdeen, Cairo Governorate, Egypt", "lat": 31.2438927, "types": ["point_of_interest", "establishment"], "place_id": "ChIJ410GPb5AWBQRCycdTIOC3Do"}, {"name": "Tourist Information", "formatted_address": "Al Fawalah, Abdeen, Cairo Governorate, Egypt", "lat": 31.2450233, "types": ["travel_agency", "point_of_interest", "establishment"], "place_id": "ChIJ410GPb5AWBQRe549_LKuZ9Y"}, {"name": "عطية شمس الدين", "formatted_address": "عمارة ٢٦٥شارع احمد زكي.المعادي، Cairo Governorate, Egypt", "lat": 31.236183, "types": ["hardware_store", "furniture_store", "home_goods_store", "point_of_interest", "store", "establishment"], "place_id": "ChIJ5yoFA4RHWBQRfyEONLGD2NU"}, {"name": "Gold Watch", "formatted_address": "23 Adly St.، DOWNTOWN، Abdeen, Cairo Governorate, Egypt", "lat": 31.2438927, "types": ["point_of_interest", "establishment"], "place_id": "ChIJ410GPb5AWBQRbuArHVt4z0s"}, {"name": "Roma Group", "formatted_address": "Egypt, Cairo Governorate, Abdeen, Al Fawalah, محمد فريد، 邮政编码: 11111", "lat": 31.2445284, "types": ["point_of_interest", "establishment"], "place_id": "ChIJweGhHr5AWBQRXT3ZtAgs6CE"}, {"name": "Church of the Great Martyr Saint George and Anba Ebram - كنيسة الشهيد العظيم مارجرجس و الأنبا ابرآم", "formatted_address": "54 Abd El-Aziz Fahmy, Al Matar, El Nozha, Cairo Governorate, Egypt", "lat": 31.3392792, "types": ["church", "place_of_worship", "point_of_interest", "establishment"], "place_id": "ChIJvzrXsekVWBQRye4OpOsJnNM"}, {"name": "Cooper For Aluminum", "formatted_address": "54 ش محمد فريد، Al Fawalah, Abdeen, Cairo Governorate, Egypt", "lat": 31.2442814, "types": ["point_of_interest", "establishment"], "place_id": "ChIJYaZ29JVAWBQRAE2cOU0iLTg"}, {"name": "Green Way", "formatted_address": "18 Adly St.، DOWNTOWN، Abdeen, Cairo Governorate, Egypt", "lat": 31.2438927, "types": ["travel_agency", "point_of_interest", "establishment"], "place_id": "ChIJtZcaApZAWBQRHiiiwz5STk0"}, {"name": "Fagr - Egyptian Group For Public Development", "formatted_address": "127 ش محمد فريد، Al Fawalah, Abdeen, Cairo Governorate, Egypt", "lat": 31.2442814, "types": ["point_of_interest", "establishment"], "place_id": "ChIJw2jHDLlAWBQRVaQakuEpXPw"}, {"name": "شركه سياحه عمره وحج", "formatted_address": "باشا، Adly, Al Fawalah, Abdeen, Cairo Governorate 11511, Egypt", "lat": 31.2438492, "types": ["travel_agency", "point_of_interest", "establishment"], "place_id": "ChIJc1l6HZVBWBQRm5MyHFe6Y4g"}, {"name": "Maadi Sound Newspaper", "formatted_address": "98 Street 218, Maadi as Sarayat Al Gharbeyah, Maadi, Cairo Governorate, Egypt", "lat": 31.2822781, "types": ["point_of_interest", "establishment"], "place_id": "ChIJD7WDc2k4WBQRQnxwr0VoAgQ"}, {"name": "Radisson Blu Hotel, Cairo Heliopolis", "formatted_address": "Abdel Hamid Badawi St Heliopolis, Cairo Governorate 11787, Egypt", "lat": 31.3753121, "types": ["lodging", "point_of_interest", "establishment"], "place_id": "ChIJQZJ8fWUWWBQRAUPO9I6SxPg"}, {"name": "Heliopolis Sporting Club (HSC)", "formatted_address": "17 El-Sayed El-Marghany, Mansheya El-Bakry, Heliopolis, Cairo Governorate, Egypt", "lat": 31.3164398, "types": ["point_of_interest", "establishment"], "place_id": "ChIJB9zy8B4-WBQRz_zRpJte8sA"}, {"name": "Luxer pastries & cakes", "formatted_address": "Ahmed Zaki, Ezbet Nafie, El Basatin, Cairo Governorate, Egypt", "lat": 31.2582712, "types": ["food", "point_of_interest", "store", "establishment"], "place_id": "ChIJvwDQWGZHWBQR76AqN_nbxoI"}, {"name": "cairo house hotel", "formatted_address": "20 Adly, Al Fawalah, Abdeen, Cairo Governorate 11511, Egypt", "lat": 31.2437258, "types": ["lodging", "point_of_interest", "establishment"], "place_id": "ChIJV4QCP75AWBQRJH77IiDQSTk"}, {"name": "Cairo Khan", "formatted_address": "12, 26 JULY ST، Mohammed Farid, Egypt", "lat": 31.2431635, "types": ["lodging", "point_of_interest", "establishment"], "place_id": "ChIJD1gOLOtAWBQREeCsbGdo3iI"}, {"name": "Sonesta Hotel Tower & Casino Cairo", "formatted_address": "3 El Tayaran St, Ash Sharekat, Nasr City, Cairo Governorate, Egypt", "lat": 31.3175599, "types": ["casino", "lodging", "point_of_interest", "establishment"], "place_id": "ChIJKYApCUc-WBQROTn4JL8ozhI"}, {"name": "البان الغربية", "formatted_address": "١٩ شارع احمد ذكى من ابراهيم عبد الرازق، Ain Shams, Ain Shams Sharkeya, Ein Shams, Cairo Governorate, Egypt", "lat": 31.32526619999999, "types": ["food", "point_of_interest", "store", "establishment"], "place_id": "ChIJPfSvs7AVWBQR3CNaSb1mUF4"}, {"name": "AAW - Alliance For Arab Women", "formatted_address": "28 Adly St.، DOWNTOWN، Abdeen, Cairo Governorate, Egypt", "lat": 31.2438927, "types": ["point_of_interest", "establishment"], "place_id": "ChIJ410GPb5AWBQRJdwVCJBfV0s"}, {"name": "مؤسسة الزهراوان", "formatted_address": "4 Al Shahid Moustafa Tabalah, Almazah, Heliopolis, Cairo Governorate, Egypt", "lat": 31.34515399999999, "types": ["point_of_interest", "establishment"], "place_id": "ChIJBWy_rvkVWBQRmw2XrIBI0nk"}, {"name": "Golden Park Hotel", "formatted_address": "شارع الحجاز ، مصر الجديده، 221 شارع الحجاز ، هيليوبوليس ،، El Nozha, Cairo Governorate, Egypt", "lat": 31.3525102, "types": ["lodging", "point_of_interest", "establishment"], "place_id": "ChIJsQQdRNgVWBQRss6fVxNFk_8"}, {"name": "دوار", "formatted_address": "16 Adly, Al Fawalah, Abdeen, Cairo Governorate, Egypt", "lat": 31.2444909, "types": ["point_of_interest", "establishment"], "place_id": "ChIJRby8EL5AWBQRcZTnGq2qbu4"}, {"name": "الكرنك", "formatted_address": "أحمد زكي، عزبة نافع، البساتين،، Cairo Governorate, Egypt", "lat": 31.2578041, "types": ["restaurant", "food", "point_of_interest", "establishment"], "place_id": "ChIJkfGs6ARHWBQRnmv8kULfh8M"}, {"name": "TOLIP El Galaa - Heliopolis", "formatted_address": "El Orouba St, Sheraton Al Matar, El Nozha, Cairo Governorate, Egypt", "lat": 31.3490226, "types": ["lodging", "point_of_interest", "establishment"], "place_id": "ChIJvyeGu-QVWBQRkPqc2rg6IsE"}, {"name": "Welad El Balad", "formatted_address": "16 Adly, Al Fawalah, Abdeen, Cairo Governorate, Egypt", "lat": 31.244439, "types": ["point_of_interest", "establishment"], "place_id": "ChIJoY4JHVtXWBQR3DsONy0cXOA"}, {"name": "Super Man", "formatted_address": "8a 26 July St, Al Fawalah, Abdeen, Cairo Governorate, Egypt", "lat": 31.2448758, "types": ["clothing_store", "point_of_interest", "store", "establishment"], "place_id": "ChIJ39Ys_5VAWBQRqED5_6afJTs"}, {"name": "Milano Hostel", "formatted_address": "16 Adly, Al Fawalah, Abdeen, Cairo Governorate, Egypt", "lat": 31.244482, "types": ["lodging", "point_of_interest", "establishment"], "place_id": "ChIJIeX9Pb5AWBQRVecz770yGr8"}, {"name": "El-Melegy", "formatted_address": "٩٥، Ahmed Zaki, الحدائق، Maadi, Cairo Governorate, Egypt", "lat": 31.2595045, "types": ["restaurant", "food", "point_of_interest", "establishment"], "place_id": "ChIJs6DBe4lHWBQRvMxVTbWnE6s"}, {"name": "Lemon Spaces sheraton Heliopolis", "formatted_address": "Building # 19، El-Safa, Sheraton Al Matar, El Nozha, Cairo Governorate, Egypt", "lat": 31.3667492, "types": ["lodging", "point_of_interest", "establishment"], "place_id": "ChIJ0dUH_3oXWBQRT1ZYgsJShvE"}, {"name": "ADIB", "formatted_address": "10 العاشر من رمضان، Manti, Qalyub, Al Qalyubia Governorate, Egypt", "lat": 31.2329103, "types": ["atm", "finance", "point_of_interest", "establishment"], "place_id": "ChIJLbtRI-9qWBQRZHVhJ4Wowi0"}, {"name": "Khattab Paper Point", "formatted_address": "4 ش صلاح الدين، Almazah, Heliopolis, Cairo Governorate, Egypt", "lat": 31.3341, "types": ["point_of_interest", "establishment"], "place_id": "ChIJx9lCdfUVWBQRkBpdq15VFcs"}, {"name": "Cairo international hostel Downtown", "formatted_address": "9 Adly, Al Fawalah, Abdeen, Cairo Governorate, Egypt", "lat": 31.2448464, "types": ["lodging", "point_of_interest", "establishment"], "place_id": "ChIJu3w6ga5BWBQRwqorHLdNWNE"}, {"name": "Alexander", "formatted_address": "165 Mohammed Farid, St, Abdeen, Cairo Governorate 11111, Egypt", "lat": 31.2444644, "types": ["lodging", "point_of_interest", "establishment"], "place_id": "ChIJi-trFL5AWBQR613uzPmX5DE"}, {"name": "Al- Ahram Book Shop", "formatted_address": "28 Adly, Al Fawalah, Abdeen, Cairo Governorate, Egypt", "lat": 31.2445261, "types": ["book_store", "point_of_interest", "store", "establishment"], "place_id": "ChIJh4qIFL5AWBQRAfPdoirQB6U"}]