[{"name": "Inception", "formatted_address": "22 ش الشهيد محمد قنايه، Almazah, Heliopolis, Cairo Governorate, Egypt", "lat": 30.0904696, "lng": 31.347, "types": ["point_of_interest", "establishment"], "place_id": "ChIJm8TjF_kVWBQRNU1Sh8w675k"}, {"name": "Chill out Kids Park Almaza", "formatted_address": "Almazah, Heliopolis, Cairo Governorate, Egypt", "lat": 30.0897129, "lng": 31.3470468, "types": ["park", "point_of_interest", "establishment"], "place_id": "ChIJD7Ak2G8VWBQRI1esLNmJkO0"}, {"name": "Kalex Co. Ltd.", "formatted_address": "22 ش الشهيد محمد قناية، Almazah, Heliopolis, Cairo Governorate, Egypt", "lat": 30.0904696, "lng": 31.347, "types": ["point_of_interest", "establishment"], "place_id": "ChIJm8TjF_kVWBQR1Wq6T7KTHVQ"}, {"name": "Ittihadia Palace", "formatted_address": "Al Nadi، El-Montaza, Heliopolis, Cairo Governorate, Egypt", "lat": 30.0888643, "lng": 31.3193929, "types": ["tourist_attraction", "premise", "point_of_interest", "establishment"], "place_id": "ChIJuftqUS8-WBQRtM7fDk0QcPk"}, {"name": "Almaza Garden", "formatted_address": "149 El-Sayed El-Merghany, Almazah, Heliopolis, Cairo Governorate 11775 El-Sayed El-Merghany, Almazah, Heliopolis, Cairo Governorate 11775, Egypt", "lat": 30.0925956, "lng": 31.3450227, "types": ["park", "point_of_interest", "establishment"], "place_id": "ChIJuUh7hvkVWBQRlARgzUumDK0"}, {"name": "Baron Empain Palace", "formatted_address": "El-Orouba, El-Montaza, Heliopolis, Cairo Governorate 11757, Egypt", "lat": 30.0866701, "lng": 31.3303332, "types": ["point_of_interest", "establishment"], "place_id": "ChIJ1_GM8iE-WBQRLNVi-RT7vDA"}, {"name": "حضانة هامتى دامتى", "formatted_address": "9 Al Shahid Moustafa Tabalah, Almazah, Heliopolis, Cairo Governorate, Egypt", "lat": 30.0904698, "lng": 31.345218, "types": ["point_of_interest", "establishment"], "place_id": "ChIJL4yJq_kVWBQRDM-agPx1p8E"}, {"name": "Santa Egypt", "formatted_address": "8 ش الشهيد اسماعيل فهمى، Almazah, Heliopolis, Cairo Governorate, Egypt", "lat": 30.0909526, "lng": 31.344971, "types": ["point_of_interest", "establishment"], "place_id": "ChIJOTVgpfkVWBQRxQVQm7OrHs0"}, {"name": "El Hady", "formatted_address": "17 Al Shahid Kamal Al Fasakhani, Almazah, Heliopolis, Cairo Governorate, Egypt", "lat": 30.0912794, "lng": 31.3471716, "types": ["mosque", "place_of_worship", "point_of_interest", "establishment"], "place_id": "ChIJ2bZiQfkVWBQRogXC0DdMm1o"}, {"name": "Dr Amr Kotb د عمرو قطب", "formatted_address": "30 Al Shahid Mohammed Qenaya, Almazah, Heliopolis, Cairo Governorate, Egypt", "lat": 30.091744, "lng": 31.34632079999999, "types": ["doctor", "health", "point_of_interest", "establishment"], "place_id": "ChIJhQQgktwVWBQRu-ddw_iUdlM"}, {"name": "Dash Clinic Dr. Dalia Shehab", "formatted_address": "26 Al Shahid Mohammed Qenaya, Almazah, Heliopolis, Cairo Governorate, Egypt", "lat": 30.09173729999999, "lng": 31.3460998, "types": ["health", "point_of_interest", "establishment"], "place_id": "ChIJF5yXFfkVWBQRUu3h4lWAiLk"}, {"name": "مجموعة شركات سيما", "formatted_address": "2 ش El-Shaheed Ismail Fahmy, Almazah, Heliopolis, Cairo Governorate, Egypt", "lat": 30.0907566, "lng": 31.3446524, "types": ["point_of_interest", "establishment"], "place_id": "ChIJZzZwsfkVWBQReyqGBfgBNh0"}, {"name": "Tears", "formatted_address": "7 Mohammed Rasheed Reda, Almazah, Heliopolis, Cairo Governorate, Egypt", "lat": 30.0883857, "lng": 31.3428188, "types": ["point_of_interest", "establishment"], "place_id": "ChIJI5JHAPgVWBQRg00qomcCL0g"}, {"name": "the Community Egypt - tC Egypt", "formatted_address": "in front of Egypt Air Hospital، ١٨ شارع الشهيد صبحي نصر، ألماظة- مصر الجديدة - أمام مستشفى مصر للطيران 18 El Shaheed Sobhy Nasr, Al Maza، Almazah, Heliopolis, Egypt", "lat": 30.0917788, "lng": 31.3451647, "types": ["point_of_interest", "establishment"], "place_id": "ChIJm913ZfkVWBQR7oyf09bOQm4"}, {"name": "The Egyptian Museum", "formatted_address": "شارع ماريت باشا، ميدان التحرير، Egypt", "lat": 30.0475781, "lng": 31.23361389999999, "types": ["museum", "tourist_attraction", "point_of_interest", "establishment"], "place_id": "ChIJw741VYhBWBQRD2Z6OiulDVI"}, {"name": "Areيka", "formatted_address": "41 Al Shahid Mohammed Qenaya, Almazah, Heliopolis, Cairo Governorate, Egypt", "lat": 30.0895977, "lng": 31.3462542, "types": ["cafe", "food", "point_of_interest", "establishment"], "place_id": "ChIJm4jU-vgVWBQRzDt02PAih2I"}, {"name": "Our Lady of Heliopolis Co-Cathedral", "formatted_address": "Nazih Khalifa crossroad، Al Ahram, Heliopolis, Cairo Governorate, Egypt", "lat": 30.0935707, "lng": 31.3251828, "types": ["church", "place_of_worship", "point_of_interest", "establishment"], "place_id": "ChIJJdgh-okVWBQR5TqTmKuQ0IM"}, {"name": "The Lighthouse", "formatted_address": "28-24 Al Shahid Mohammed Qenaya, Almazah, Heliopolis, Cairo Governorate, Egypt", "lat": 30.0916869, "lng": 31.3459609, "types": ["doctor", "health", "point_of_interest", "establishment"], "place_id": "ChIJI57UYU0VWBQRUgeZ7c4J9aU"}, {"name": "Ketchup", "formatted_address": "ش El-Sayed El-Marghany, Almazah, Heliopolis, Cairo Governorate, Egypt", "lat": 30.0927792, "lng": 31.3453272, "types": ["point_of_interest", "establishment"], "place_id": "ChIJ1dCYgPkVWBQR53oof5Slc48"}, {"name": "Moghamarat Rally Point", "formatted_address": "79 Galal Al Din Al Deswqi, Almazah, Heliopolis, Cairo Governorate, Egypt", "lat": 30.0880451, "lng": 31.3475491, "types": ["travel_agency", "point_of_interest", "establishment"], "place_id": "ChIJ0f7-lbEVWBQRzHlsN9JVYsg"}, {"name": "Retail tec company", "formatted_address": "5 El-Shaheed Sobhy Nasr, Almazah, Heliopolis, Cairo Governorate, Egypt", "lat": 30.0912103, "lng": 31.3445696, "types": ["point_of_interest", "establishment"], "place_id": "ChIJaehGfCgVWBQRq6DqOhTRlx4"}, {"name": "Aqua Marina For Tourism Investment & Development", "formatted_address": "3 el shaheed sobhy nasr st.، Almazah, Heliopolis, Cairo Governorate, Egypt", "lat": 30.0910806, "lng": 31.3444674, "types": ["point_of_interest", "establishment"], "place_id": "ChIJN5IMvPkVWBQRVespvv_cPns"}, {"name": "Nexus Shipping", "formatted_address": "6 El-Shaheed Sobhy Nasr, Almazah, Heliopolis, Cairo Governorate, Egypt", "lat": 30.0913399, "lng": 31.3441782, "types": ["point_of_interest", "establishment"], "place_id": "ChIJO_23qfAVWBQRQKaEqYQFXJc"}, {"name": "ladybird Magazine", "formatted_address": "28 Al Shahid Mohammed Qenaya, Almazah, Heliopolis, Cairo Governorate, Egypt", "lat": 30.0917432, "lng": 31.3463315, "types": ["point_of_interest", "establishment"], "place_id": "ChIJ54Mp2blAWBQRkd96uPU5Qys"}, {"name": "Nile International", "formatted_address": "2 El Shaheed Ismail Fahmy St.، Almazah, Heliopolis, Cairo Governorate, Egypt", "lat": 30.090715, "lng": 31.344692, "types": ["point_of_interest", "establishment"], "place_id": "ChIJOTVgpfkVWBQRCyQpRPk2ZhE"}, {"name": "Teksystems", "formatted_address": "28 Al Shahid Mohammed Qenaya, Almazah, El Nozha, Cairo Governorate, Egypt", "lat": 30.0917471, "lng": 31.3463227, "types": ["point_of_interest", "establishment"], "place_id": "ChIJ94HgJLcFWBQRQYlP9WJcbAY"}, {"name": "Boskalis Internatioal Misr", "formatted_address": "Almazah, Heliopolis, Cairo Governorate, Egypt", "lat": 30.0910366, "lng": 31.3442352, "types": ["point_of_interest", "establishment"], "place_id": "ChIJbSHHt_kVWBQRjgPEG7BLnsE"}, {"name": "Atef Barber", "formatted_address": "22 Al Shahid Mohammed Qenaya, Almazah, Heliopolis, Cairo Governorate, Egypt", "lat": 30.0904682, "lng": 31.34699689999999, "types": ["hair_care", "health", "point_of_interest", "establishment"], "place_id": "ChIJkVTXq8MVWBQRZcOEJDNteds"}, {"name": "مكتبة الرحاب", "formatted_address": "84 Omar Ibn El-Khattab, Almazah, Heliopolis, Cairo Governorate, Egypt", "lat": 30.0887923, "lng": 31.344759, "types": ["point_of_interest", "establishment"], "place_id": "ChIJAQDEaPgVWBQRqdfjvG3515A"}, {"name": "technology gateway", "formatted_address": "33 الشهيد محمد قنايه، الماظة، قسم مصر الجديدة، محافظة القاهرة‬،، Egypt", "lat": 30.0901923, "lng": 31.34760339999999, "types": ["point_of_interest", "establishment"], "place_id": "ChIJ5_MQSfkXWBQRioKHM_Z1AfQ"}, {"name": "Heliopolis Towers Hotel", "formatted_address": "El Shaheed Sayed Zakaria, Sheraton Al Matar, El Nozha, Cairo Governorate 11736, Egypt", "lat": 30.1074763, "lng": 31.3661798, "types": ["lodging", "point_of_interest", "establishment"], "place_id": "ChIJZ9p3820WWBQRmZh2M_MSzOQ"}, {"name": "National Co. For Import & Export", "formatted_address": "27 ش الشهيد محمد قناية، Almazah, Heliopolis, Cairo Governorate, Egypt", "lat": 30.0904696, "lng": 31.347, "types": ["point_of_interest", "establishment"], "place_id": "ChIJm8TjF_kVWBQRbw_wtmZa3zE"}, {"name": "Como Plast", "formatted_address": "49 تقسيم الجمعية، حدائق القبة، القاهرة، Cairo Governorate, Egypt", "lat": 30.089803, "lng": 31.3474806, "types": ["point_of_interest", "establishment"], "place_id": "ChIJMZPhJvkVWBQRv9E_669SQ9Q"}, {"name": "وادي النيل للرعاية والخدمات الطبية", "formatted_address": "Almazah, Heliopolis, Cairo Governorate, Egypt", "lat": 30.0908747, "lng": 31.3464152, "types": ["point_of_interest", "establishment"], "place_id": "ChIJad83EvkVWBQRZRliYdNSb14"}, {"name": "TC acadmy", "formatted_address": "18 El-Shaheed Sobhy Nasr, Almazah, Heliopolis, Cairo Governorate, Egypt", "lat": 30.0918024, "lng": 31.3452133, "types": ["church", "place_of_worship", "point_of_interest", "establishment"], "place_id": "ChIJxYNTaWoVWBQRnAzbNoFqsuw"}, {"name": "Heliopolis Home", "formatted_address": "28 Al Shahid John Alias Gamal Rd, Almazah, Heliopolis, Cairo Governorate, Egypt", "lat": 30.0909227, "lng": 31.3463849, "types": ["point_of_interest", "establishment"], "place_id": "ChIJsSVH4JMVWBQRGLs_XwrEVT0"}, {"name": "The Bunker", "formatted_address": "Almazah, Heliopolis, Cairo Governorate, Egypt", "lat": 30.0919106, "lng": 31.3464799, "types": ["point_of_interest", "establishment"], "place_id": "ChIJKdVCWIAVWBQRKWsBCKGl_jM"}, {"name": "مؤسسة الزهراوان", "formatted_address": "4 Al Shahid Moustafa Tabalah, Almazah, Heliopolis, Cairo Governorate, Egypt", "lat": 30.0906521, "lng": 31.34515399999999, "types": ["point_of_interest", "establishment"], "place_id": "ChIJBWy_rvkVWBQRmw2XrIBI0nk"}, {"name": "Nshape ارض الجولف", "formatted_address": "Asmaa Fahmi, Al Golf, Nasr City, Cairo Governorate, Egypt", "lat": 30.079046, "lng": 31.3382582, "types": ["point_of_interest", "establishment"], "place_id": "ChIJK24uUhc-WBQROSbDAGuBic8"}, {"name": "Saint Mary Church - Ard El-Golf", "formatted_address": "Shams Al Din Al Zahabi, Al Golf, Nasr City, Cairo Governorate, Egypt", "lat": 30.0825805, "lng": 31.33328239999999, "types": ["church", "place_of_worship", "point_of_interest", "establishment"], "place_id": "ChIJz961RBg-WBQR2HK25harflQ"}, {"name": "Arabian Architecture", "formatted_address": "2 El-Shaheed Ismail Fahmy, st, Heliopolis, Cairo Governorate, Egypt", "lat": 30.090691, "lng": 31.3445795, "types": ["point_of_interest", "establishment"], "place_id": "ChIJE6Wa0YIVWBQRzBqV0tG1qoc"}, {"name": "شكشك", "formatted_address": "Almazah, Heliopolis, Cairo Governorate, Egypt", "lat": 30.087907, "lng": 31.3458103, "types": ["point_of_interest", "establishment"], "place_id": "ChIJzSLVNDQVWBQRiQSUuT319ZM"}, {"name": "DAE Egypt Ltd.", "formatted_address": "2 El-Shaheed Ismail Fahmy, Almazah, Heliopolis, Cairo Governorate, Egypt", "lat": 30.0907566, "lng": 31.3446524, "types": ["travel_agency", "point_of_interest", "establishment"], "place_id": "ChIJZzZwsfkVWBQRctJDrBZKEyE"}, {"name": "الشهيد محمد حسونة", "formatted_address": "5-25 الشهيد محمود حسونه، النزهة، قسم النزهة،، Cairo Governorate, Egypt", "lat": 30.10007909999999, "lng": 31.3477113, "types": ["point_of_interest", "establishment"], "place_id": "ChIJDVIrjZMVWBQR2qXTlypHnTM"}, {"name": "Noury Khattab Mosque", "formatted_address": "شارع الطيران، أمام مجلس محلي، Al Hay as Sabea, مدينة نصر،، Cairo Governorate, Egypt", "lat": 30.052882, "lng": 31.3265719, "types": ["mosque", "place_of_worship", "point_of_interest", "establishment"], "place_id": "ChIJyyg0O18-WBQRMBqHloa1xbw"}, {"name": "بوسكاليس انترناشونال ايجيبت", "formatted_address": "El-Shaheed Sobhy Nasr, Almazah, Heliopolis, Cairo Governorate, Egypt", "lat": 30.09139099999999, "lng": 31.344606, "types": ["local_government_office", "point_of_interest", "establishment"], "place_id": "ChIJobdwzNsVWBQROMUer-Dou2w"}, {"name": "BIM Road", "formatted_address": "El-Shaheed Ismail Fahmy, Almazah, Heliopolis, Cairo Governorate, Egypt", "lat": 30.0907466, "lng": 31.3446897, "types": ["point_of_interest", "establishment"], "place_id": "ChIJe50tFEwVWBQRSpzxbf1_9ag"}, {"name": "Real Estate Registration Office - El Fayyoum Suburbs", "formatted_address": "9 منطقة الجون، وسط البلد، الفيوم، Cairo Governorate, Egypt", "lat": 30.0903472, "lng": 31.3464245, "types": ["local_government_office", "point_of_interest", "establishment"], "place_id": "ChIJo6YRG_kVWBQRpuUh8WLkulg"}, {"name": "مكتب لتاجير السيارات", "formatted_address": "الأكاديمية، الأباجية، قسم الخليفة،، Cairo Governorate, Egypt", "lat": 30.0910795, "lng": 31.3464514, "types": ["point_of_interest", "establishment"], "place_id": "ChIJN_jgYQAVWBQRaDCugAMDejI"}, {"name": "Archer Consulting", "formatted_address": "Mohammed Abou Salem, Almazah, Heliopolis, Cairo Governorate, Egypt", "lat": 30.0890291, "lng": 31.3456786, "types": ["point_of_interest", "establishment"], "place_id": "ChIJ75C99fgVWBQRxx_dcGBPJPU"}, {"name": "Citystars Heliopolis", "formatted_address": "Citystars, Cairo Governorate 11771, Egypt", "lat": 30.0728734, "lng": 31.3458082, "types": ["shopping_mall", "point_of_interest", "establishment"], "place_id": "ChIJo0ecE_gVWBQRGGrouhZFdME"}, {"name": "Aqarpedia - عقاربيديا", "formatted_address": "11775, 151 السيد الميرغني، الماظة، قسم مصر الجديدة، محافظة القاهرة‬، Cairo, 11775, Egypt", "lat": 30.0919405, "lng": 31.3446697, "types": ["real_estate_agency", "point_of_interest", "establishment"], "place_id": "ChIJadGIBdEVWBQRBPASz6SBZDI"}, {"name": "Church of the Great Martyr Saint George and Anba Ebram - كنيسة الشهيد العظيم مارجرجس و الأنبا ابرآم", "formatted_address": "54 Abd El-Aziz Fahmy, Al Matar, El Nozha, Cairo Governorate, Egypt", "lat": 30.1080494, "lng": 31.3392792, "types": ["church", "place_of_worship", "point_of_interest", "establishment"], "place_id": "ChIJvzrXsekVWBQRye4OpOsJnNM"}, {"name": "St. Mark Coptic Orthodox Church Cleopatra", "formatted_address": "35 كيلوباترا، الماظة، قسم مصر الجديدة،، Cairo Governorate, Egypt", "lat": 30.0924011, "lng": 31.3296246, "types": ["church", "place_of_worship", "point_of_interest", "establishment"], "place_id": "ChIJH3kNmooVWBQRfL4z5mf-KXU"}, {"name": "الشركة المصرية الفرعونية للاسكان", "formatted_address": "Almazah, Heliopolis, Cairo Governorate, Egypt", "lat": 30.0904019, "lng": 31.3460211, "types": ["real_estate_agency", "point_of_interest", "establishment"], "place_id": "ChIJ-8glZH4VWBQRitL4-3ZJnzY"}, {"name": "New Towers For Real Estate", "formatted_address": "11775, 151 El-Sayed El-Merghany, Almazah, Heliopolis, Cairo Governorate, Egypt", "lat": 30.0919577, "lng": 31.3446623, "types": ["real_estate_agency", "point_of_interest", "establishment"], "place_id": "ChIJ32nalvkVWBQRlAwa2OFaAAE"}, {"name": "Radisson Blu Hotel, Cairo Heliopolis", "formatted_address": "Abdel Hamid Badawi St Heliopolis, Cairo Governorate 11787, Egypt", "lat": 30.1065093, "lng": 31.3753121, "types": ["lodging", "point_of_interest", "establishment"], "place_id": "ChIJQZJ8fWUWWBQRAUPO9I6SxPg"}, {"name": "Mangam proguction copany", "formatted_address": "4 Al Shahid John Alias Gamal Rd, Almazah, Heliopolis, Cairo Governorate, Egypt", "lat": 30.0907704, "lng": 31.3463183, "types": ["point_of_interest", "establishment"], "place_id": "ChIJpeOgi6MVWBQRyJtyk9-1YAY"}, {"name": "مراكز كوينز للتجميل - مصر الجديدة Queens Beauty Clinics - Heliopolis", "formatted_address": "56 شارع محمد رمزى بك, ميدان تريومف, Heliopolis, Cairo Governorate, Egypt", "lat": 30.10029579999999, "lng": 31.3417657, "types": ["beauty_salon", "hair_care", "doctor", "health", "point_of_interest", "establishment"], "place_id": "ChIJw9uhro4VWBQRkJX84GLpUGc"}, {"name": "TOLIP El Galaa - Heliopolis", "formatted_address": "El Orouba St, Sheraton Al Matar, El Nozha, Cairo Governorate, Egypt", "lat": 30.0985969, "lng": 31.3490226, "types": ["lodging", "point_of_interest", "establishment"], "place_id": "ChIJvyeGu-QVWBQRkPqc2rg6IsE"}]