[{"name": "Dr. Gasser El Beshri", "formatted_address": "19 Al Shahid Mohammed Al Shaabani, Almazah, Heliopolis, Cairo Governorate, Egypt", "lat": 30.0866005, "lng": 31.3420384, "types": ["health", "point_of_interest", "establishment"], "place_id": "ChIJqdOQ2xw-WBQRQg1d1ZDZJhk"}, {"name": "Theleague.club", "formatted_address": "Al Shahid Mohammed Al Shaabani, Almazah, Heliopolis, Cairo Governorate, Egypt", "lat": 30.0848358, "lng": 31.341493, "types": ["point_of_interest", "establishment"], "place_id": "ChIJqdOQ2xw-WBQRjl4oOVHhsN4"}, {"name": "Forum International", "formatted_address": "4 ش الشهيد عبد المنعم حافظ، مصر الجديدة، القاهرة، Cairo Governorate, Egypt", "lat": 30.0846, "lng": 31.3416, "types": ["point_of_interest", "establishment"], "place_id": "ChIJnZg5vxw-WBQRFCgh6DsrQho"}, {"name": "El Hoda Mosque", "formatted_address": "55 El-Nozha, Almazah, Heliopolis, Cairo Governorate, Egypt", "lat": 30.0861469, "lng": 31.3416213, "types": ["mosque", "place_of_worship", "point_of_interest", "establishment"], "place_id": "ChIJVRHbJh0-WBQRNi3gi3KmPVo"}, {"name": "حضانة هابى كيدز", "formatted_address": "14 الشهيد محمد الشباني، الماظة، مصر الجديدة،، Cairo Governorate, Egypt", "lat": 30.0864251, "lng": 31.3418647, "types": ["school", "point_of_interest", "establishment"], "place_id": "ChIJmYkT4rU_WBQRWQqsyEYkgR8"}, {"name": "رإفت مازن هارون", "formatted_address": "19 Al Shahid Mohammed Al Shaabani, Almazah, Heliopolis, Cairo Governorate, Egypt", "lat": 30.0865644, "lng": 31.34205609999999, "types": ["pharmacy", "health", "point_of_interest", "store", "establishment"], "place_id": "ChIJOxf9pPU_WBQRvH5kEwaBWmM"}, {"name": "Emad Zedan", "formatted_address": "55 El-Nozha, Almazah, Heliopolis, Cairo Governorate, Egypt", "lat": 30.0864315, "lng": 31.3416398, "types": ["point_of_interest", "establishment"], "place_id": "ChIJX7ewOh0-WBQRL6bDKVPiZag"}, {"name": "Lady", "formatted_address": "55 El-Nozha, Almazah, Heliopolis, Cairo Governorate, Egypt", "lat": 30.0857897, "lng": 31.3416093, "types": ["point_of_interest", "establishment"], "place_id": "ChIJo0eb3hw-WBQRnQTbaPCHwnw"}, {"name": "Awlad Abo Ads", "formatted_address": "10 Hasan Mousa El-Akad, Almazah, Heliopolis, Cairo Governorate, Egypt", "lat": 30.08634, "lng": 31.3404477, "types": ["point_of_interest", "establishment"], "place_id": "ChIJw03XAh0-WBQRrwWKXLqcmQ0"}, {"name": "Dr.Ahmed Bahaa dental clinic", "formatted_address": "14 al shahid mohamed, Al Shahid Mohammed Al Shaabani, Almazah, Heliopolis, Cairo Governorate, Egypt", "lat": 30.0858965, "lng": 31.3416126, "types": ["dentist", "health", "point_of_interest", "establishment"], "place_id": "ChIJGQsrEDU_WBQRAnVEpt7i3Bw"}, {"name": "مسجد الصلاح", "formatted_address": "31 Abd El-Moneim Hafez, Almazah, Heliopolis, Cairo Governorate, Egypt", "lat": 30.0850091, "lng": 31.3444556, "types": ["mosque", "place_of_worship", "point_of_interest", "establishment"], "place_id": "ChIJTdsCHgM-WBQRnJGUsQ6tWHA"}, {"name": "Letterlust Studio", "formatted_address": "Al Shahid Mohammed Al Shaabani, Almazah, Heliopolis, Cairo Governorate, Egypt", "lat": 30.0847955, "lng": 31.3415048, "types": ["point_of_interest", "establishment"], "place_id": "ChIJqdOQ2xw-WBQRSa_8F0b3uQ8"}, {"name": "BETA Greens New Cairo", "formatted_address": "43 El-Nozha, St، Heliopolis, Cairo Governorate, Egypt", "lat": 30.085099, "lng": 31.3411097, "types": ["point_of_interest", "establishment"], "place_id": "ChIJO-PM6xw-WBQREDwr89M_9So"}, {"name": "Steps Digital Marketing Egypt", "formatted_address": "19 Al Shahid Mohammed Al Shaabani, Almazah, Heliopolis, Cairo Governorate, Egypt", "lat": 30.08651, "lng": 31.3420617, "types": ["point_of_interest", "establishment"], "place_id": "ChIJh8eYOh0-WBQRFFYeCsHqP9U"}, {"name": "Safty", "formatted_address": "78 El-Thawra St, Almazah, Heliopolis, Cairo Governorate, Egypt", "lat": 30.0836795, "lng": 31.3416093, "types": ["point_of_interest", "establishment"], "place_id": "ChIJvYYToRw-WBQRxAUK0QGsxAY"}, {"name": "العونى للبلاستيك", "formatted_address": "37 El-Horeya, Almazah, Heliopolis, Cairo Governorate, Egypt", "lat": 30.0872465, "lng": 31.341855, "types": ["point_of_interest", "establishment"], "place_id": "ChIJVVWBRx0-WBQRbTrHg80vivE"}, {"name": "Colette", "formatted_address": "78 El-Thawra St, Almazah, Heliopolis, Cairo Governorate, Egypt", "lat": 30.08372379999999, "lng": 31.34205609999999, "types": ["point_of_interest", "establishment"], "place_id": "ChIJU7xUrxw-WBQRLtVUP7O3dd8"}, {"name": "Divas Footwear & Lounge", "formatted_address": "6 متفرع من ش النزهة، Almazah, Heliopolis, Cairo Governorate, Egypt", "lat": 30.084591, "lng": 31.341756, "types": ["point_of_interest", "establishment"], "place_id": "ChIJyRF8yAI-WBQRoyvcKjx3HMQ"}, {"name": "Arc", "formatted_address": "3 Ishaq Yaaqub St.، Almazah, Heliopolis, Cairo Governorate, Egypt", "lat": 30.0861206, "lng": 31.3438602, "types": ["point_of_interest", "establishment"], "place_id": "ChIJ7TdCwwI-WBQRa5fNmqGpzqU"}, {"name": "ITQAN Web and Graphic Design", "formatted_address": "Al Shahid Mohammed Al Shaabani, Almazah, Heliopolis, Cairo Governorate, Egypt", "lat": 30.08641119999999, "lng": 31.3414031, "types": ["point_of_interest", "establishment"], "place_id": "ChIJ-RimJB0-WBQR4QzDf4nNWrg"}, {"name": "Excford", "formatted_address": "11 Lotfy Basha Selim, Almazah, Heliopolis, Cairo Governorate, Egypt", "lat": 30.0882109, "lng": 31.3426592, "types": ["point_of_interest", "establishment"], "place_id": "ChIJ2y3j__cVWBQRGr04vwrmZAw"}, {"name": "Dar El Asnan Heliopolis branch", "formatted_address": "59 El nozha, street, El Nozha, Cairo Governorate, Egypt", "lat": 30.08699549999999, "lng": 31.3415805, "types": ["dentist", "health", "point_of_interest", "establishment"], "place_id": "ChIJOQNguj4_WBQRildTJT7WsDA"}, {"name": "Heavens Collection", "formatted_address": "51 El Nozha St.، Almazah, Heliopolis, Cairo Governorate, Egypt", "lat": 30.086019, "lng": 31.341134, "types": ["point_of_interest", "establishment"], "place_id": "ChIJX6-CGxIVWBQRF-4CKNNU29k"}, {"name": "د جاسر", "formatted_address": "55 El-Nozha, Almazah, Heliopolis, Cairo Governorate, Egypt", "lat": 30.0864016, "lng": 31.3412991, "types": ["doctor", "health", "point_of_interest", "establishment"], "place_id": "ChIJXXzrM1U_WBQRty3leQYG7_s"}, {"name": "INTERNATIONAL OVERSEAS AGENCY", "formatted_address": "11 Mahmoud Hafez St,Saffir Square,Heliopolis, Misr El Gededa, Cairo Governorate, Egypt", "lat": 30.0851674, "lng": 31.3426592, "types": ["point_of_interest", "establishment"], "place_id": "ChIJt9Gu5vEVWBQR2zWjHa5O1lg"}, {"name": "Egypchem International for Agrochemicals", "formatted_address": "53 El-Nozha, Almazah, Heliopolis, Cairo Governorate, Egypt", "lat": 30.08622, "lng": 31.3413201, "types": ["point_of_interest", "establishment"], "place_id": "ChIJsX4sIB0-WBQRCiOwoBpTQJM"}, {"name": "Move`n Dance", "formatted_address": "46 El Nozha St.، Almazah, Heliopolis, Cairo Governorate, Egypt", "lat": 30.084883, "lng": 31.340355, "types": ["point_of_interest", "establishment"], "place_id": "ChIJX6-CGxIVWBQR-jx1pMaAZK0"}, {"name": "Madinet Nasr For Housing & Development", "formatted_address": "Almazah, Heliopolis, Cairo Governorate, Egypt", "lat": 30.0835862, "lng": 31.3413354, "types": ["point_of_interest", "establishment"], "place_id": "ChIJz2kloBw-WBQRfAx74CW5u10"}, {"name": "مركز الام الظهر والرقبة", "formatted_address": "49 El-Nozha, Almazah, Heliopolis, Cairo Governorate, Egypt", "lat": 30.0858346, "lng": 31.341116, "types": ["health", "point_of_interest", "establishment"], "place_id": "ChIJNxs24Rw-WBQRU54fhGc3gr0"}, {"name": "SIAC, Industrial Construction & Engineering Company", "formatted_address": "6 Hasan Al-Shereey St.,، off Nozha St.,، Heliopolis, Cairo Governorate 11341, Egypt", "lat": 30.0866732, "lng": 31.3402269, "types": ["general_contractor", "point_of_interest", "establishment"], "place_id": "ChIJ6wHMMyc-WBQRyA-jzN_7CEo"}, {"name": "Thawq Coffee - ذَوق", "formatted_address": "6 Abdel Moneim Ismail, Off Nozha Street, Heliopolis ٦ شارع عبد المنعم إسماعيل، متفرع من شارع النزهة،, Heliopolis, Cairo Governorate, Egypt", "lat": 30.0869462, "lng": 31.34202, "types": ["food", "point_of_interest", "store", "establishment"], "place_id": "ChIJjexLYTQ_WBQRdobxovl_We4"}, {"name": "Design World for architecture", "formatted_address": "1 Abd El-Moneim Hafez, Almazah, Heliopolis, Cairo Governorate 11775, Egypt", "lat": 30.0843992, "lng": 31.34107959999999, "types": ["point_of_interest", "establishment"], "place_id": "ChIJCSsNJ6k_WBQRuubx9pYpBvs"}, {"name": "Sharqawy Orthodontics", "formatted_address": "13 mohammed al shaabani, Almazah, Heliopolis, Cairo Governorate, Egypt", "lat": 30.0859413, "lng": 31.3419449, "types": ["dentist", "health", "point_of_interest", "establishment"], "place_id": "ChIJ0QhJAlg_WBQRQemqDyASvCM"}, {"name": "BETA Egypt", "formatted_address": "11311،, 43 El-Nozha, Cairo Governorate, Egypt", "lat": 30.0850611, "lng": 31.3410965, "types": ["general_contractor", "point_of_interest", "establishment"], "place_id": "ChIJjf7sguUVWBQRWIpNyYNZvg0"}, {"name": "GLU", "formatted_address": "Almazah, Heliopolis, Cairo Governorate, Egypt", "lat": 30.085487, "lng": 31.342904, "types": ["point_of_interest", "establishment"], "place_id": "ChIJMwEAKwM-WBQRh1DbvZToMIE"}, {"name": "Esc", "formatted_address": "47 الحرية، الماظة، قسم مصر الجديدة،، Cairo Governorate, Egypt", "lat": 30.08738739999999, "lng": 31.3426034, "types": ["point_of_interest", "establishment"], "place_id": "ChIJJY-Vq4Q_WBQRS2pMLN-o-Ao"}, {"name": "Al-Hussain Mosque", "formatted_address": "Al-Mashhad Al-Hussaini شارع المشهد الحسين، شارع Hasan El-Adawy, امتداد، Egypt", "lat": 30.0476847, "lng": 31.2630585, "types": ["mosque", "tourist_attraction", "place_of_worship", "point_of_interest", "establishment"], "place_id": "ChIJtV4bG2A_WBQRVZjDa4cjz_E"}, {"name": "Saad Mohamed Saad", "formatted_address": "36 El-Horeya, Almazah, Heliopolis, Cairo Governorate, Egypt", "lat": 30.0878419, "lng": 31.342866, "types": ["furniture_store", "home_goods_store", "point_of_interest", "store", "establishment"], "place_id": "ChIJBT0rRh0-WBQRyW2rUIHsLS0"}, {"name": "Blaze Café - Heliopolis", "formatted_address": "49 El nozha، Street، Almazah, Heliopolis, Cairo Governorate, Egypt", "lat": 30.0858336, "lng": 31.34112519999999, "types": ["cafe", "restaurant", "food", "point_of_interest", "establishment"], "place_id": "ChIJMxn25hw-WBQRnxEjEl_Kc0k"}, {"name": "Persan", "formatted_address": "3 Eshak Yaekoob, Almazah, Heliopolis, Cairo Governorate, Egypt", "lat": 30.0854057, "lng": 31.3414996, "types": ["home_goods_store", "point_of_interest", "store", "establishment"], "place_id": "ChIJU8_53Bw-WBQRbpQFiP-Ml6I"}, {"name": "Cleo", "formatted_address": "46 El Nozha St، Almazah, Heliopolis, Cairo Governorate, Egypt", "lat": 30.084883, "lng": 31.340355, "types": ["point_of_interest", "establishment"], "place_id": "ChIJ5-_5DBs-WBQRVn1jrV7F6XU"}, {"name": "مكتب ناصر صاحب عمارة الكربة", "formatted_address": "الحرية، الماظة، قسم مصر الجديدة،، Cairo Governorate, Egypt", "lat": 30.0874657, "lng": 31.3425453, "types": ["point_of_interest", "establishment"], "place_id": "ChIJmZVQd7M_WBQRVSNDHD9hJDA"}, {"name": "GTR", "formatted_address": "111 El-Thawra St, Masaken Al Mohandesin, Heliopolis, Cairo Governorate, Egypt", "lat": 30.0833175, "lng": 31.3416736, "types": ["point_of_interest", "establishment"], "place_id": "ChIJ_we0WBs-WBQRVPk7dZ9v9Qs"}, {"name": "The Wellness Hub", "formatted_address": "12-14 Hasan Mousa El-Akad, Almazah, Heliopolis, Cairo Governorate, Egypt", "lat": 30.0862778, "lng": 31.3388333, "types": ["point_of_interest", "establishment"], "place_id": "ChIJayLQThw-WBQRyW1jLgGkRAE"}, {"name": "مركز ا.د حسام السيسي لتجميل الانف فرع مصر الجديدة", "formatted_address": "28 شارع الشهيد محمد عبد الهادى متفرع من شارع النزهة، ارض، Al Golf, Heliopolis, Cairo Governorate 11736, Egypt", "lat": 30.0818737, "lng": 31.3405216, "types": ["doctor", "health", "point_of_interest", "establishment"], "place_id": "ChIJk9lX6FBBWBQRe8fPL1WnRmM"}, {"name": "Light Star For Contracting & Import", "formatted_address": "106 ش جسر السويس، النزهة الجديدة، القاهرة، Cairo Governorate, Egypt", "lat": 30.0867082, "lng": 31.3408247, "types": ["point_of_interest", "establishment"], "place_id": "ChIJqahOGh0-WBQR_TgeHA3IOJM"}, {"name": "BLTECHNOLOGY CO., LTD", "formatted_address": "39 El-Horeya, Almazah, Heliopolis, Cairo Governorate, Egypt", "lat": 30.0872238, "lng": 31.34203209999999, "types": ["point_of_interest", "establishment"], "place_id": "ChIJa6J_Dh0-WBQRG_EYt-dDoqw"}, {"name": "Egygab", "formatted_address": "43 شارع الحرية، متفرع من شارع النزهه، برج إيجي جاب, Cairo Governorate 11223, Egypt", "lat": 30.0872162, "lng": 31.3424424, "types": ["general_contractor", "point_of_interest", "establishment"], "place_id": "ChIJ0RTkSx0-WBQR2ji3ufcEwls"}, {"name": "Rolex watch", "formatted_address": "6 عبد المنعم حافظ، الماظة، مصر الجديدة، محافظة القاهرة‬،، Egypt", "lat": 30.0844913, "lng": 31.3416306, "types": ["point_of_interest", "store", "establishment"], "place_id": "ChIJw-Hk52o_WBQRt0fSgfj4UWM"}, {"name": "مؤسسة إتجاه", "formatted_address": "56 Nozha St, Cairo Governorate, Egypt", "lat": 30.0863685, "lng": 31.3405857, "types": ["point_of_interest", "establishment"], "place_id": "ChIJyXtP_Rw-WBQRDNV54KV7zxY"}, {"name": "The cocoa tree", "formatted_address": "6 Abd El-Moneim Ismail, Almazah, Heliopolis, Cairo Governorate, Egypt", "lat": 30.086757, "lng": 31.3422165, "types": ["food", "point_of_interest", "establishment"], "place_id": "ChIJ-RtzMecXWBQRXQHjgnv6u80"}, {"name": "Cranes", "formatted_address": "41 El Nozha, Street, Cairo Governorate 11736, Egypt", "lat": 30.084835, "lng": 31.3411724, "types": ["point_of_interest", "establishment"], "place_id": "ChIJ5-_5DBs-WBQRNUKYyVXZNTI"}, {"name": "Cafe Tabasco", "formatted_address": "8 الشهيد عبد المنعم إسماعيل، Almazah, Heliopolis, Cairo Governorate, Egypt", "lat": 30.0867245, "lng": 31.3423369, "types": ["cafe", "food", "point_of_interest", "establishment"], "place_id": "ChIJ81NaMR0-WBQRBF9kO3o29Ow"}, {"name": "DBC Physiotherapy", "formatted_address": "Almazah, Heliopolis, Cairo Governorate, Egypt", "lat": 30.0855243, "lng": 31.3412294, "types": ["physiotherapist", "health", "point_of_interest", "establishment"], "place_id": "ChIJb3yT5xw-WBQR9c5J9GzBhdc"}, {"name": "Hollywood Clinic", "formatted_address": "47 شارع النزهة ، مصر الجديدة ، الطابق الخامس ، أعلى كيا موتورز Cairo القاهرة، 11736, Egypt", "lat": 30.0855119, "lng": 31.3412704, "types": ["point_of_interest", "establishment"], "place_id": "ChIJy6--6hA_WBQR1oE6cWAoz8A"}, {"name": "Capital trade - FMCG", "formatted_address": "44 El-Nozha, Almazah, Heliopolis, Cairo Governorate, Egypt", "lat": 30.0846667, "lng": 31.3403879, "types": ["point_of_interest", "establishment"], "place_id": "ChIJKUklNRs_WBQReGWdhIc1Pos"}, {"name": "Dplace", "formatted_address": "Yacoub, 9 Eshaq, Street 9, Cairo Governorate, Egypt", "lat": 30.08550009999999, "lng": 31.3424499, "types": ["point_of_interest", "establishment"], "place_id": "ChIJCeWrOCM_WBQR60kzYXsbMoY"}, {"name": "Emystore.eg", "formatted_address": "10 شارع الشهيد عبد المنعم إسماعيل،, Almazah, Heliopolis, Cairo Governorate ‏, Cairo Governorate 11757, Egypt", "lat": 30.0867519, "lng": 31.342369, "types": ["shopping_mall", "point_of_interest", "establishment"], "place_id": "ChIJ38eiOvYVWBQRlBMytdbrUT0"}, {"name": "أولاد عليوه للبطاريات و تناجر الشحن", "formatted_address": "شارع الأزهار متفرع من شارع الحرية، محطة التعاون ميدان المطرية، محافظة القاهرة‬،، Egypt", "lat": 30.0875531, "lng": 31.34153809999999, "types": ["point_of_interest", "establishment"], "place_id": "ChIJE7BzepQVWBQRlJea6SrsgZk"}, {"name": "Kafafy", "formatted_address": "6 متفرع من ش النزهة، Almazah, Heliopolis, Cairo Governorate, Egypt", "lat": 30.0856639, "lng": 31.34216109999999, "types": ["general_contractor", "point_of_interest", "establishment"], "place_id": "ChIJ7RP32Rw-WBQRVb_T54XKtug"}]