[{"name": "MO Designs", "formatted_address": "٣ عمارات المروة الجديدة الدور التاسع شقة ٩٠٢ ارض الجولف مصر الجديدة الدور التاسع شقة, Egypt", "lat": 30.112315, "lng": 31.3438507, "types": ["point_of_interest", "establishment"], "place_id": "ChIJBYvMaNQVWBQRrrb61nFSHbU"}, {"name": "مريم عتمان", "formatted_address": "مصر الجديدة، المطار، قسم النزهة،، Cairo Governorate, Egypt", "lat": 30.112315, "lng": 31.3438507, "types": ["point_of_interest", "establishment"], "place_id": "ChIJgxrFUogVWBQRS1UPh4qIBp0"}, {"name": "المصرية لخدمات المؤتمرات", "formatted_address": "6 Al Abnasy Street, Mansheiet El-Bakry, Cairo Governorate 11341, Egypt", "lat": 30.112315, "lng": 31.3438507, "types": ["point_of_interest", "establishment"], "place_id": "ChIJV2-3ZtM_WBQRppQSBfVwTtY"}, {"name": "شركة مصر للهندسة والتجارة - ميتكا (فرع فريد سميكة)", "formatted_address": "11 رفعت صالح، المطار، قسم النزهة، محافظة القاهرة‬،، Egypt", "lat": 30.1135201, "lng": 31.3447407, "types": ["point_of_interest", "establishment"], "place_id": "ChIJl4HkaUIVWBQRIVEO1dWcPP4"}, {"name": "Disruptive Management Solutions - DMS", "formatted_address": "Military College, 03 General Abdulaziz Ali St, Al Matar, El Nozha, Cairo Governorate, Egypt", "lat": 30.112315, "lng": 31.3438507, "types": ["point_of_interest", "establishment"], "place_id": "ChIJxbKCrkoVWBQRRg1tITQb_BQ"}, {"name": "art planet 369", "formatted_address": "Al Matar, El Nozha, Cairo Governorate, Egypt", "lat": 30.112315, "lng": 31.3438507, "types": ["point_of_interest", "establishment"], "place_id": "ChIJgW-2iYQVWBQRAcyJwo7q004"}, {"name": "Zazy Collection", "formatted_address": "111 ش فريد سميكة، Al Matar, El Nozha, Cairo Governorate, Egypt", "lat": 30.1122619, "lng": 31.345483, "types": ["point_of_interest", "establishment"], "place_id": "ChIJ3wzJitwVWBQR3wtC0gMctEE"}, {"name": "الهندسيه للستائر الرأسيه", "formatted_address": "مصر الجديده، القاهره، مصر فارغ، Egypt", "lat": 30.112315, "lng": 31.3438507, "types": ["home_goods_store", "point_of_interest", "store", "establishment"], "place_id": "ChIJT2uD_nYVWBQRmvvE3fIiJnw"}, {"name": "محمد سعد", "formatted_address": "Al Matar, El Nozha, Cairo Governorate 11757, Egypt", "lat": 30.112315, "lng": 31.3438507, "types": ["furniture_store", "home_goods_store", "point_of_interest", "store", "establishment"], "place_id": "ChIJi0ahxJQVWBQRvGgOE2t1p2c"}, {"name": "EGENT Center (Heliopolis Branch)", "formatted_address": "24 el Ahram street, Al Matar, El Nozha, Cairo Governorate, Egypt", "lat": 30.112315, "lng": 31.3438507, "types": ["health", "point_of_interest", "establishment"], "place_id": "ChIJA9dUAxwVWBQRn6gBuXiy7yA"}, {"name": "مركز الدكتور امجد الحداد حساسية ومناعه 12ش بطرس غالى روكسي مصر الجديده", "formatted_address": "12 شارع بطرس غالى روكسى، روكسي، مصر الجديده، Cairo Governorate, Egypt", "lat": 30.112315, "lng": 31.343851, "types": ["doctor", "health", "point_of_interest", "establishment"], "place_id": "ChIJf2fnvc4VWBQRy8CF-La2d4c"}, {"name": "Mawared Co.", "formatted_address": "8mahmoud anwar، Al Matar, قسم الheliopolis، Cairo Governorate, Egypt", "lat": 30.112315, "lng": 31.3438507, "types": ["point_of_interest", "establishment"], "place_id": "ChIJdef1uc8VWBQR7hrEBoAXd1Q"}, {"name": "كمبوند سكاي كابيتال", "formatted_address": "محافظة القاهرة‬،4 ش صلاح الدين من العروبه - مصر الجديده، Cairo Governorate 11736, Egypt", "lat": 30.112315, "lng": 31.3438507, "types": ["real_estate_agency", "lodging", "point_of_interest", "establishment"], "place_id": "ChIJxeUN-f6NVxQR4gOpLWmma2E"}, {"name": "hpl شركه ايجي ستون", "formatted_address": "Al Matar, El Nozha, Cairo Governorate, Egypt", "lat": 30.112315, "lng": 31.3438507, "types": ["point_of_interest", "establishment"], "place_id": "ChIJR4hu_1cVWBQRl9XH9i0N40I"}, {"name": "Arab film school", "formatted_address": "15-Al-Ahram Street, Heliopolis, Cairo Governorate 11757, Egypt", "lat": 30.112315, "lng": 31.3438507, "types": ["point_of_interest", "establishment"], "place_id": "ChIJcYZ1plEVWBQRfQ17CkMcvAQ"}, {"name": "علي أبوهيف", "formatted_address": "مصر الجديدة الكوربة ش3 البوستة, Heliopolis, Cairo Governorate 11757, Egypt", "lat": 30.112315, "lng": 31.3438507, "types": ["point_of_interest", "establishment"], "place_id": "ChIJ26OLZNcVWBQRr73tM3AyTTM"}, {"name": "Media Rack", "formatted_address": "15 Abdel Azim Awadallah St.، Al Matar, Heliopolis, Cairo Governorate, Egypt", "lat": 30.112068, "lng": 31.342883, "types": ["point_of_interest", "establishment"], "place_id": "ChIJFbMI09wVWBQRc68dm8ldfsc"}, {"name": "اوتوشوب فرع جسر السويس", "formatted_address": "شنودة، 6 عمارات الشرطة - ناصية عزبة، Cairo Governorate, Egypt", "lat": 30.112315, "lng": 31.3438507, "types": ["car_repair", "point_of_interest", "store", "establishment"], "place_id": "ChIJSfibmtoVWBQRKQFQedKNvE0"}, {"name": "El Dawleya For Contracting & Real Estate Investment", "formatted_address": "10 متفرع من ش فريد سميكة، Al Matar, El Nozha, Cairo Governorate, Egypt", "lat": 30.1122619, "lng": 31.345483, "types": ["point_of_interest", "establishment"], "place_id": "ChIJxb7NmcQVWBQRrHWB2iy156w"}, {"name": "مداك لانظمه الالومنيوم Madac for Aluminum Systems & U-PVC", "formatted_address": "53 شارع احمد زكى النزهه الجديده امام فلوبتير بالاس، مصر الجديده، القاهرة 11843، مصر Masr Elgdeda، Egypt", "lat": 30.112315, "lng": 31.3438507, "types": ["general_contractor", "point_of_interest", "establishment"], "place_id": "ChIJX5vK7EAVWBQRgVSZ83YGpW4"}, {"name": "El Dawleya Cars", "formatted_address": "61 Farid Semeika St.، Al Matar, Heliopolis, Cairo Governorate, Egypt", "lat": 30.112639, "lng": 31.344487, "types": ["point_of_interest", "establishment"], "place_id": "ChIJAeBmGKEVWBQRQZIutCFDKuU"}, {"name": "international consultant bureau", "formatted_address": "3 mohamed kamal eldin st, Al Matar, El Nozha, Cairo Governorate, Egypt", "lat": 30.112315, "lng": 31.3438507, "types": ["lawyer", "point_of_interest", "establishment"], "place_id": "ChIJ6--YtSEVWBQRQvC0-UUTb_s"}, {"name": "شقق مقروشة للايجار في القاهرة", "formatted_address": "ميدان تريومف، Al Matar, El Nozha, Cairo Governorate 11757, Egypt", "lat": 30.112315, "lng": 31.3438507, "types": ["lodging", "point_of_interest", "establishment"], "place_id": "ChIJWZEUunIVWBQR9m5l_WAmnt4"}, {"name": "amany elcherif", "formatted_address": "elshahed mohamed abdelhady، 18، المطار، قسم النزهة، محافظة القاهرة‬،، Egypt", "lat": 30.112315, "lng": 31.3438507, "types": ["point_of_interest", "establishment"], "place_id": "ChIJqTJ_tOcVWBQRSf4BJUlgOdE"}, {"name": "Lont Group", "formatted_address": "4A Kamal EL Shafie، Ismailia Square، Heliopolis, Cairo Governorate, Egypt", "lat": 30.112315, "lng": 31.3438507, "types": ["travel_agency", "point_of_interest", "establishment"], "place_id": "ChIJ2_pLw4Q_WBQR5wCWEEgCfSw"}, {"name": "Bromo Motors", "formatted_address": "160 ميدان الحجاز، Al Matar, El Nozha, Cairo Governorate, Egypt", "lat": 30.1120211, "lng": 31.34491539999999, "types": ["point_of_interest", "establishment"], "place_id": "ChIJQSuK8dwVWBQRTcpR4vGXlyw"}, {"name": "Mohamed hassan", "formatted_address": "Roxy, Al Matar, El Nozha, Cairo Governorate, Egypt", "lat": 30.112315, "lng": 31.3438507, "types": ["general_contractor", "point_of_interest", "establishment"], "place_id": "ChIJWcrQp1cVWBQRxa48aNK0CZw"}, {"name": "Sucash Gallery", "formatted_address": "12 ش الشهيد عبد المنعم حافظ، Al Marg Al Qebleyah, El Marg, Cairo Governorate, Egypt", "lat": 30.1501344, "lng": 31.328246, "types": ["point_of_interest", "establishment"], "place_id": "ChIJlTvgJkEUWBQRaAVTVXDP6o0"}, {"name": "Egypt", "formatted_address": "٦ شارع محمد مأمون متفرع من شارع عبدالعظيم عوض الله -خلف مطعم جاد ميدان الحجاز, Egypt", "lat": 30.1117108, "lng": 31.3424551, "types": ["point_of_interest", "establishment"], "place_id": "ChIJC17-PcMVWBQRUNid6oGFCjM"}, {"name": "ورثة احمد حافظ", "formatted_address": "شارع, Cairo Governorate, Egypt", "lat": 30.112315, "lng": 31.3438507, "types": ["point_of_interest", "establishment"], "place_id": "ChIJZ5YXq9wVWBQR8n_hUliQaSQ"}, {"name": "مدرسه الشهيد مصطفى يسري عميره نموذجيه", "formatted_address": "Al Matar, El Nozha, Cairo Governorate, Egypt", "lat": 30.112315, "lng": 31.3438507, "types": ["school", "point_of_interest", "establishment"], "place_id": "ChIJzbSZLmYVWBQRzZGYGv6rPYI"}, {"name": "go fianance", "formatted_address": "Al Matar, El Nozha, Cairo Governorate, Egypt", "lat": 30.112315, "lng": 31.3438507, "types": ["point_of_interest", "establishment"], "place_id": "ChIJp4eMKKYVWBQRkImXhuDazGc"}, {"name": "parrot crafts", "formatted_address": "19 mohamed elshaibani street, Al Matar, El Nozha, Cairo Governorate, Egypt", "lat": 30.112315, "lng": 31.3438507, "types": ["point_of_interest", "establishment"], "place_id": "ChIJpWN11U4VWBQRdMRql2T4eK4"}, {"name": "A|X Heliopolis City Stars Mall", "formatted_address": "City Stars Mall Heliopolis, Il Cairo, 11757, Egypt", "lat": 30.11216649999999, "lng": 31.34367929999999, "types": ["point_of_interest", "clothing_store", "store", "establishment"], "place_id": "ChIJi1N7kww_WBQR2_0TRndb_UU"}, {"name": "diamond decoration", "formatted_address": "ارض الجولف مصر الجديدة ، 30 الحرية، Egypt", "lat": 30.112315, "lng": 31.3438507, "types": ["point_of_interest", "establishment"], "place_id": "ChIJmeXkw9wVWBQRe5NpWmzLXls"}, {"name": "اتيليه جميل السورى محل ملابس", "formatted_address": "10 عمارات الشريف ش اسوان متفرح من محكمة مصر الجدبدة، El-Bostan, Heliopolis, Cairo Governorate, Egypt", "lat": 30.112315, "lng": 31.3438507, "types": ["clothing_store", "point_of_interest", "store", "establishment"], "place_id": "ChIJ7xKIC-cVWBQR2u2Dq2C5agk"}, {"name": "هيلتون هيليوبلس", "formatted_address": "Al Matar, El Nozha, Cairo Governorate, Egypt", "lat": 30.112315, "lng": 31.3438507, "types": ["lodging", "point_of_interest", "establishment"], "place_id": "ChIJocT4HcUVWBQRgIk90yuylWM"}, {"name": "معاز السقا", "formatted_address": "مصر الجديدة، المطار، قسم النزهة، محافظة القاهرة‬،، Egypt", "lat": 30.112315, "lng": 31.3438507, "types": ["school", "point_of_interest", "establishment"], "place_id": "ChIJnVjy6JQVWBQRQ3ih7tn5Nws"}, {"name": "فندق كنكورد السلام", "formatted_address": "المطار، قسم النزهة، محافظة القاهرة‬،، Egypt", "lat": 30.112315, "lng": 31.3438507, "types": ["lodging", "point_of_interest", "establishment"], "place_id": "ChIJZYOYs08VWBQRBPgJTZvjWGo"}, {"name": "princess toys", "formatted_address": "Al Matar, El Nozha, Cairo Governorate, Egypt", "lat": 30.112315, "lng": 31.3438507, "types": ["point_of_interest", "store", "establishment"], "place_id": "ChIJqSpPHO8VWBQRezuQybllP-8"}, {"name": "Hex Advertising", "formatted_address": "Cairo, Cairo Governorate 11757, Egypt", "lat": 30.112245, "lng": 31.3438043, "types": ["point_of_interest", "establishment"], "place_id": "ChIJeZyDI1M_WBQR0uRSvjPywB0"}, {"name": "Gonline for Trading", "formatted_address": "8 Sayed Afifi, Al Matar, El Nozha, Cairo Governorate, Egypt", "lat": 30.112315, "lng": 31.3438507, "types": ["point_of_interest", "establishment"], "place_id": "ChIJD41-uccVWBQR6NYWzQjgGzY"}, {"name": "Egipto Tour", "formatted_address": "Triumph square, 9 Mostafa Sadek El Rafae Street, Al Matar, El Nozha, Cairo Governorate 11361, Egypt", "lat": 30.112315, "lng": 31.3438507, "types": ["travel_agency", "point_of_interest", "establishment"], "place_id": "ChIJz1YOGw4VWBQR2H8smMZ423g"}, {"name": "كريم ماركت", "formatted_address": "مصر الجديدة، المطار، قسم النزهة،، Cairo Governorate, Egypt", "lat": 30.112315, "lng": 31.3438507, "types": ["shopping_mall", "point_of_interest", "establishment"], "place_id": "ChIJu3GsBjMVWBQRgV_jNi2P-t4"}, {"name": "مطبعة الأندلس", "formatted_address": "مصر الجديده الجرفه سابقن،، Egypt", "lat": 30.112315, "lng": 31.3438507, "types": ["point_of_interest", "establishment"], "place_id": "ChIJCX2oMEEVWBQRqJxm0dvnFks"}, {"name": "عماد", "formatted_address": "مصر الجديدة، المطار، قسم النزهة،، Cairo Governorate, Egypt", "lat": 30.112315, "lng": 31.3438507, "types": ["restaurant", "food", "point_of_interest", "establishment"], "place_id": "ChIJ7_hwCNwVWBQRI3LeecOunC8"}, {"name": "Move Your Asana", "formatted_address": "Al Matar, El Nozha, Cairo Governorate, Egypt", "lat": 30.112315, "lng": 31.3438507, "types": ["gym", "health", "point_of_interest", "establishment"], "place_id": "ChIJyy1ze9IVWBQR6EITHhHFbTU"}, {"name": "Dr. Mina magdi dental clinic", "formatted_address": "60 Heliopolis st. El ibrahemya 2ndfloor, Egypt", "lat": 30.112315, "lng": 31.3438507, "types": ["dentist", "health", "point_of_interest", "establishment"], "place_id": "ChIJyVgcg9oVWBQRsq6fyvZ8Vu0"}, {"name": "مصر الجديدة", "formatted_address": "المطار، قسم النزهة،، Cairo Governorate, Egypt", "lat": 30.111333, "lng": 31.3443623, "types": ["point_of_interest", "store", "establishment"], "place_id": "ChIJJ9PrwbkVWBQRv9pWnoGZE6o"}, {"name": "النادى النهرى للمحاماه", "formatted_address": "مصر الجديدة، المطار، قسم النزهة،، Cairo Governorate, Egypt", "lat": 30.112315, "lng": 31.3438507, "types": ["gym", "health", "point_of_interest", "establishment"], "place_id": "ChIJVTBXv4cVWBQRFs-yzY6OY5k"}, {"name": "Al Omran", "formatted_address": "ش الشهيد خير الله، Al Marg Al Qebleyah, El Marg, Cairo Governorate, Egypt", "lat": 30.1501344, "lng": 31.328246, "types": ["point_of_interest", "establishment"], "place_id": "ChIJlTvgJkEUWBQRHUDI3Yb7d4I"}, {"name": "مدرسة البطل علي فهمي بالصوالح", "formatted_address": "مصر الجديدة، المطار، قسم النزهة،، Cairo Governorate, Egypt", "lat": 30.112315, "lng": 31.3438507, "types": ["school", "point_of_interest", "establishment"], "place_id": "ChIJz-uM8hIVWBQRWR8pB_-1pOE"}, {"name": "Egyptair", "formatted_address": "Al Matar, El Nozha, Cairo Governorate, Egypt", "lat": 30.112315, "lng": 31.3438507, "types": ["travel_agency", "point_of_interest", "establishment"], "place_id": "ChIJmeXkw9wVWBQRhp0z_uttSsk"}, {"name": "Mar Guirguis church", "formatted_address": "Al Matar, El Nozha, Cairo Governorate, Egypt", "lat": 30.112315, "lng": 31.3438507, "types": ["church", "place_of_worship", "point_of_interest", "establishment"], "place_id": "ChIJo7ZMU40VWBQRyM0cS-gcbeM"}, {"name": "Graphic House Maged Yacoub", "formatted_address": "17 Mohammed Mahmoud Kassim, Al Matar, El Nozha, Cairo Governorate, Egypt", "lat": 30.112722, "lng": 31.3431435, "types": ["point_of_interest", "establishment"], "place_id": "ChIJkbObydwVWBQR2fxgJ3kLfgw"}, {"name": "New khalifa", "formatted_address": "roxy, 2 Dimsuq street, Al Matar, El Nozha, Cairo Governorate, Egypt", "lat": 30.112315, "lng": 31.3438507, "types": ["food", "point_of_interest", "establishment"], "place_id": "ChIJs9rBu-Y_WBQRT34u3gM2KM8"}, {"name": "حجز فنادق مصر الجديدة", "formatted_address": "مصر الجديدة، Cairo Governorate, Egypt", "lat": 30.112315, "lng": 31.3438507, "types": ["travel_agency", "point_of_interest", "establishment"], "place_id": "ChIJI1h83OMVWBQRtdlkKJjuHuw"}, {"name": "الجيزة", "formatted_address": "Al Matar, El Nozha, Cairo Governorate, Egypt", "lat": 30.112315, "lng": 31.3438507, "types": ["restaurant", "food", "point_of_interest", "establishment"], "place_id": "ChIJgZe0hhsVWBQRb1sBrfjhhC0"}, {"name": "Angel store", "formatted_address": "Al Matar, _روكسي_مصر الجديدة، Cairo Governorate, Egypt", "lat": 30.112315, "lng": 31.343851, "types": ["electronics_store", "home_goods_store", "point_of_interest", "store", "establishment"], "place_id": "ChIJIzdf2CkVWBQRg3nb1OjMRdY"}, {"name": "كلية البنات الإسلامية", "formatted_address": "Al Matar, El Nozha, Cairo Governorate, Egypt", "lat": 30.112315, "lng": 31.3438507, "types": ["school", "point_of_interest", "establishment"], "place_id": "ChIJm_9G-NIVWBQRek3167HyMZE"}]