[{"name": "Merryland Park", "formatted_address": "El-Montaza, Heliopolis, Cairo Governorate, Egypt", "lat": 30.0979257, "lng": 31.3189812, "types": ["park", "tourist_attraction", "point_of_interest", "establishment"], "place_id": "ChIJH9vwOoYVWBQR90_jkGUJbSU"}, {"name": "Ittihadia Palace", "formatted_address": "Al Nadi، El-Montaza, Heliopolis, Cairo Governorate, Egypt", "lat": 30.0888643, "lng": 31.3193929, "types": ["tourist_attraction", "premise", "point_of_interest", "establishment"], "place_id": "ChIJuftqUS8-WBQRtM7fDk0QcPk"}, {"name": "Our Lady of Heliopolis Co-Cathedral", "formatted_address": "Nazih Khalifa crossroad، Al Ahram, Heliopolis, Cairo Governorate, Egypt", "lat": 30.0935707, "lng": 31.3251828, "types": ["church", "place_of_worship", "point_of_interest", "establishment"], "place_id": "ChIJJdgh-okVWBQR5TqTmKuQ0IM"}, {"name": "Baron Empain Palace", "formatted_address": "El-Orouba, El-Montaza, Heliopolis, Cairo Governorate 11757, Egypt", "lat": 30.0866701, "lng": 31.3303332, "types": ["point_of_interest", "establishment"], "place_id": "ChIJ1_GM8iE-WBQRLNVi-RT7vDA"}, {"name": "The Child Museum", "formatted_address": "34 Abou Bakr El-Sedeek, El-Bostan, Heliopolis, Cairo Governorate, Egypt", "lat": 30.1022381, "lng": 31.33694599999999, "types": ["tourist_attraction", "museum", "point_of_interest", "establishment"], "place_id": "ChIJz-2ngvIVWBQR0usMZT-HkR8"}, {"name": "Eshteraki Garden", "formatted_address": "15-17 Al Maahad Eshtraki, El-Montaza, Heliopolis, Cairo Governorate, Egypt", "lat": 30.0958786, "lng": 31.3201416, "types": ["park", "point_of_interest", "establishment"], "place_id": "ChIJnZI-kooVWBQRPQNrdL2nzt4"}, {"name": "صيدلية المنار", "formatted_address": "7 El Hegaz St, Al Matar, El Nozha, Cairo Governorate, Egypt", "lat": 30.0955157, "lng": 31.3202551, "types": ["point_of_interest", "establishment"], "place_id": "ChIJN2SyDIgVWBQRLfRK8Od14xQ"}, {"name": "محمد الحسينى 01277779616", "formatted_address": "El-Montaza, Heliopolis, Cairo Governorate, Egypt", "lat": 30.0957233, "lng": 31.3208931, "types": ["point_of_interest", "establishment"], "place_id": "ChIJjXGRaIgVWBQRQEApcEiOdQU"}, {"name": "Milo Baby Egypt", "formatted_address": "11B El Hegaz St, El-Montaza, Heliopolis, Cairo Governorate, Egypt", "lat": 30.0961725, "lng": 31.3207424, "types": ["point_of_interest", "establishment"], "place_id": "ChIJI_gHZYgVWBQRLpnzp13c4fY"}, {"name": "BMW سامح نجيب رمزى", "formatted_address": "Al Montazah, Heliopolis, Cairo Governorate, Egypt", "lat": 30.0941816, "lng": 31.3207762, "types": ["point_of_interest", "establishment"], "place_id": "ChIJCdTz9yc-WBQRWhOt59yXhdI"}, {"name": "Belal Mohye", "formatted_address": "Al Montazah, Heliopolis, Cairo Governorate, Egypt", "lat": 30.0955152, "lng": 31.3213014, "types": ["point_of_interest", "establishment"], "place_id": "ChIJOVWGQYgVWBQRHr_I0HPWrWA"}, {"name": "Abdeen Palace Museum", "formatted_address": "شارع جمعه عابدين،، El-Gomhoreya Square, Rahbet Abdin, Abdeen, Cairo Governorate, Egypt", "lat": 30.0422696, "lng": 31.248544, "types": ["tourist_attraction", "museum", "point_of_interest", "establishment"], "place_id": "ChIJF_ZR9bpAWBQR_WeDJloU-7o"}, {"name": "Feat", "formatted_address": "Al Montazah, Heliopolis, Cairo Governorate, Egypt", "lat": 30.0931147, "lng": 31.3195522, "types": ["point_of_interest", "establishment"], "place_id": "ChIJMTSzdCg-WBQRT8JaZ0nICWY"}, {"name": "Beu", "formatted_address": "2 Ibrahim Nour El-Deen, El-Montaza, Heliopolis, Cairo Governorate, Egypt", "lat": 30.0953018, "lng": 31.320447, "types": ["point_of_interest", "establishment"], "place_id": "ChIJR-wlKIgVWBQRX2xwJk62pQI"}, {"name": "Moket", "formatted_address": "Al Montazah, Heliopolis, Cairo Governorate, Egypt", "lat": 30.0945248, "lng": 31.3220267, "types": ["point_of_interest", "establishment"], "place_id": "ChIJe_dwMIgVWBQRtvpEDfvLX94"}, {"name": "Al Solaimany Advertising Agency", "formatted_address": "4 متفرع من ش الحجاز، El-Montaza, Heliopolis, Cairo Governorate, Egypt", "lat": 30.0956136, "lng": 31.32069809999999, "types": ["point_of_interest", "establishment"], "place_id": "ChIJ06TYwusVWBQRXKZax_0Wuhk"}, {"name": "Mahmoud Mohamed Ismail", "formatted_address": "5 ش الحجاز، El-Montaza, Heliopolis, Cairo Governorate, Egypt", "lat": 30.0955456, "lng": 31.3203406, "types": ["point_of_interest", "establishment"], "place_id": "ChIJlccTc4gVWBQR60k4rOPyus4"}, {"name": "Bara", "formatted_address": "Al Montazah, Heliopolis, Cairo Governorate, Egypt", "lat": 30.0929348, "lng": 31.3199198, "types": ["point_of_interest", "establishment"], "place_id": "ChIJb7qU3yc-WBQRBkwSr3R2F_E"}, {"name": "Mohamed Fakhray", "formatted_address": "20 Baghdad, El-Montaza, Heliopolis, Cairo Governorate, Egypt", "lat": 30.0946646, "lng": 31.3224292, "types": ["point_of_interest", "establishment"], "place_id": "ChIJj58NNIgVWBQRaHJg56leV1I"}, {"name": "ICA - International Commercial Activities Co.", "formatted_address": "7 ش غرناطة، El-Montaza, Heliopolis, Cairo Governorate, Egypt", "lat": 30.0947459, "lng": 31.3206021, "types": ["point_of_interest", "establishment"], "place_id": "ChIJXX-m_4cVWBQRvJ2Zerr9ybg"}, {"name": "El Dawleya For Supplies", "formatted_address": "12 Ghernata, El-Montaza, Heliopolis, Cairo Governorate, Egypt", "lat": 30.0949199, "lng": 31.3202512, "types": ["point_of_interest", "establishment"], "place_id": "ChIJVX1-D4gVWBQRHs6NAaSex4A"}, {"name": "Consulting Group", "formatted_address": "3 ش الحجاز، El-Montaza, Heliopolis, Cairo Governorate, Egypt", "lat": 30.095187, "lng": 31.320197, "types": ["point_of_interest", "establishment"], "place_id": "ChIJO_xSCYgVWBQRXs_S2VX50Gc"}, {"name": "Blue Water", "formatted_address": "7 ش غرناطة، El-Montaza, Heliopolis, Cairo Governorate, Egypt", "lat": 30.0947459, "lng": 31.3206021, "types": ["point_of_interest", "establishment"], "place_id": "ChIJXX-m_4cVWBQRjOQH4ASGY9s"}, {"name": "Ultra For Medical Services", "formatted_address": "7 Bahrain St.، El-Montaza, Heliopolis, Cairo Governorate, Egypt", "lat": 30.0958467, "lng": 31.3214254, "types": ["point_of_interest", "establishment"], "place_id": "ChIJ0ZIpQ4gVWBQRqmW5yiAN8MY"}, {"name": "Delta Group Co.", "formatted_address": "11 ش الحجاز، El-Montaza, Heliopolis, Cairo Governorate, Egypt", "lat": 30.0962157, "lng": 31.3208769, "types": ["point_of_interest", "establishment"], "place_id": "ChIJ06TYwusVWBQRUSNaKjVOEY0"}, {"name": "Eitco - Abou Seif Machines", "formatted_address": "12 ش الحجاز، El-Montaza, Heliopolis, Cairo Governorate, Egypt", "lat": 30.09609499999999, "lng": 31.320098, "types": ["point_of_interest", "establishment"], "place_id": "ChIJ6eQZd4gVWBQR0gCwYGK_brM"}, {"name": "Banzaioun - The New Fashion Co.", "formatted_address": "3 ش ابراهيم، El-Montaza, Heliopolis, Cairo Governorate, Egypt", "lat": 30.0946097, "lng": 31.321453, "types": ["point_of_interest", "establishment"], "place_id": "ChIJR-wlKIgVWBQRvlwK0hD_v2E"}, {"name": "Rakia", "formatted_address": "El-Montaza, Heliopolis, Cairo Governorate, Egypt", "lat": 30.0960023, "lng": 31.3211199, "types": ["point_of_interest", "establishment"], "place_id": "ChIJ49aDaIgVWBQR27KbG5lqcAw"}, {"name": "Bon Voyage", "formatted_address": "25 Ibrahim, El-Montaza, Heliopolis, Cairo Governorate, Egypt", "lat": 30.0942149, "lng": 31.3219396, "types": ["point_of_interest", "establishment"], "place_id": "ChIJ05iRJYgVWBQRzRKxPIvw2XU"}, {"name": "Maadi Island", "formatted_address": "Dar Al Salam, Giza Governorate, Egypt", "lat": 29.965527, "lng": 31.239237, "types": ["restaurant", "tourist_attraction", "park", "food", "point_of_interest", "establishment"], "place_id": "ChIJwY7d5MFHWBQRl1nMXlW_tUY"}, {"name": "Carrot", "formatted_address": "12 Ghernata, Al Matar, El Nozha, Cairo Governorate, Egypt", "lat": 30.0948912, "lng": 31.3204899, "types": ["point_of_interest", "establishment"], "place_id": "ChIJ-0PqD4gVWBQR2zFZfAerLN8"}, {"name": "Metro Express", "formatted_address": "21 ش ابراهيم، El-Montaza, Heliopolis, Cairo Governorate, Egypt", "lat": 30.0946097, "lng": 31.321453, "types": ["point_of_interest", "establishment"], "place_id": "ChIJR-wlKIgVWBQRsa4l__gSf_8"}, {"name": "St. Mark Coptic Orthodox Church Cleopatra", "formatted_address": "35 كيلوباترا، الماظة، قسم مصر الجديدة،، Cairo Governorate, Egypt", "lat": 30.0924011, "lng": 31.3296246, "types": ["church", "place_of_worship", "point_of_interest", "establishment"], "place_id": "ChIJH3kNmooVWBQRfL4z5mf-KXU"}, {"name": "Porto Heliopolis", "formatted_address": "Almazah, Heliopolis, Cairo Governorate, Egypt", "lat": 30.0827031, "lng": 31.348709, "types": ["lodging", "point_of_interest", "establishment"], "place_id": "ChIJR5FCXgE-WBQR471eyuZuvGw"}, {"name": "St Michael's Church الكنيسة الأسقفية بالكوربة", "formatted_address": "Baghdad St, El-Montaza, Heliopolis, Cairo Governorate, Egypt", "lat": 30.0884753, "lng": 31.3229984, "types": ["church", "place_of_worship", "point_of_interest", "establishment"], "place_id": "ChIJfaLreiY-WBQRlouIfsEe-o8"}, {"name": "New Egypt Heliopolis", "formatted_address": "Roxy Hijaz New Egypt Street، El-Montaza, Heliopolis, Cairo Governorate, Egypt", "lat": 30.0960395, "lng": 31.320159, "types": ["lodging", "point_of_interest", "establishment"], "place_id": "ChIJD2Ca2s4VWBQRWC8XJDHK_NY"}, {"name": "Intrako", "formatted_address": "El-Montaza, Heliopolis, Cairo Governorate, Egypt", "lat": 30.094018, "lng": 31.321216, "types": ["point_of_interest", "establishment"], "place_id": "ChIJqxK_NIgVWBQR4qT58fxPvjs"}, {"name": "Très Bon", "formatted_address": "14 Ghernata, Street, Korba, Heliopolis, Cairo Governorate, Egypt", "lat": 30.0949588, "lng": 31.3208787, "types": ["restaurant", "cafe", "food", "point_of_interest", "establishment"], "place_id": "ChIJXX-m_4cVWBQRZjcYURatHTE"}, {"name": "Heliopolis Towers Hotel", "formatted_address": "El Shaheed Sayed Zakaria, Sheraton Al Matar, El Nozha, Cairo Governorate 11736, Egypt", "lat": 30.1074763, "lng": 31.3661798, "types": ["lodging", "point_of_interest", "establishment"], "place_id": "ChIJZ9p3820WWBQRmZh2M_MSzOQ"}, {"name": "Mercado", "formatted_address": "El Hegaz St, El-Montaza, Heliopolis, Cairo Governorate, Egypt", "lat": 30.0951813, "lng": 31.3205409, "types": ["restaurant", "food", "point_of_interest", "establishment"], "place_id": "ChIJfxasayoVWBQREtiWd-YQl8Q"}, {"name": "Radisson Blu Hotel, Cairo Heliopolis", "formatted_address": "Abdel Hamid Badawi St Heliopolis, Cairo Governorate 11787, Egypt", "lat": 30.1065093, "lng": 31.3753121, "types": ["lodging", "point_of_interest", "establishment"], "place_id": "ChIJQZJ8fWUWWBQRAUPO9I6SxPg"}, {"name": "Baron Hotel Heliopolis", "formatted_address": "14 Al Baroon, El-Montaza, Heliopolis, Cairo Governorate, Egypt", "lat": 30.0860748, "lng": 31.3314609, "types": ["lodging", "point_of_interest", "establishment"], "place_id": "ChIJUbVOACI-WBQRWsi5B7gYfxs"}, {"name": "Cairo Music Hall", "formatted_address": "El-Montaza, Heliopolis, Cairo Governorate, Egypt", "lat": 30.0955401, "lng": 31.3202339, "types": ["restaurant", "food", "point_of_interest", "establishment"], "place_id": "ChIJ-2xTc4gVWBQRb1EWSWqvHJY"}, {"name": "Volks center", "formatted_address": "Al Montazah, Cairo Governorate, Egypt", "lat": 30.0953606, "lng": 31.3205852, "types": ["car_repair", "point_of_interest", "store", "establishment"], "place_id": "ChIJA4RCwcEVWBQRHuDCzJL2fGI"}, {"name": "Heliopolis Sporting Club (HSC)", "formatted_address": "17 El-Sayed El-Marghany, Mansheya El-Bakry, Heliopolis, Cairo Governorate, Egypt", "lat": 30.0883155, "lng": 31.3164398, "types": ["point_of_interest", "establishment"], "place_id": "ChIJB9zy8B4-WBQRz_zRpJte8sA"}, {"name": "د. أحمد صبحي هويدي Hweidi Plastic Surgery", "formatted_address": "7 El Hegaz st., Merryland, Heliopolis ٧ شارع الحجاز، روكسي، مصر, الجديده, Cairo Governorate 11341, Egypt", "lat": 30.095727, "lng": 31.32041509999999, "types": ["doctor", "health", "point_of_interest", "establishment"], "place_id": "ChIJ-0BB2sgVWBQR5Wivho0d6AM"}, {"name": "مكتب اشرف عبد الله عبد الهادى", "formatted_address": "المنتزه، مصر الجديدة،، Cairo Governorate, Egypt", "lat": 30.0959108, "lng": 31.3211488, "types": ["lawyer", "point_of_interest", "establishment"], "place_id": "ChIJQeEOK08VWBQRMysB3ZrIK2o"}, {"name": "ADCB - Egypt, Helioples Branch", "formatted_address": "Ground floor، Heliopolis Cairo 13 Hijaz Street - In front of، ماريلاند، Egypt", "lat": 30.0964616, "lng": 31.3211042, "types": ["bank", "finance", "point_of_interest", "establishment"], "place_id": "ChIJPcnk7YMVWBQRGv6WT905MLI"}, {"name": "The Great Pyramid of Giza", "formatted_address": "Al Haram, Nazlet El-Semman, Al Giza Desert, Giza Governorate, Egypt", "lat": 29.9792345, "lng": 31.1342019, "types": ["tourist_attraction", "premise", "point_of_interest", "establishment"], "place_id": "ChIJGymPrIdFWBQRJCSloj8vDIE"}, {"name": "Watyna", "formatted_address": "21 Al Maahad Eshtraki, El-Montaza, Heliopolis, Cairo Governorate, Egypt", "lat": 30.0960587, "lng": 31.3202542, "types": ["point_of_interest", "establishment"], "place_id": "ChIJedYIiBQVWBQRymFJMGgXRO8"}, {"name": "Mercado", "formatted_address": "٣ب، El Hegaz St, روكسي، Heliopolis, Cairo Governorate, Egypt", "lat": 30.0961243, "lng": 31.3199622, "types": ["cafe", "food", "point_of_interest", "store", "establishment"], "place_id": "ChIJgdGwd4gVWBQR33RTrCfIVlQ"}, {"name": "Leaders camp nursery", "formatted_address": "4 Maspero, St, Heliopolis, Cairo Governorate, Egypt", "lat": 30.09566319999999, "lng": 31.3208197, "types": ["school", "point_of_interest", "establishment"], "place_id": "ChIJ9SY46C0VWBQRpahnpyvEpsY"}, {"name": "معمل ألفا - فرع روكسي", "formatted_address": "3 ش الأثري محمد بن نافع - عمارة زهرة روكسي - خلف سنيما الحمرا المنتزه - بالقرب من مدينة, Ghernata, Heliopolis, Cairo Governorate, Egypt", "lat": 30.0952557, "lng": 31.3200029, "types": ["health", "point_of_interest", "establishment"], "place_id": "ChIJQ5hW4_E_WBQRjemFiQBwfm8"}, {"name": "Citystars Heliopolis", "formatted_address": "Citystars, Cairo Governorate 11771, Egypt", "lat": 30.0728734, "lng": 31.3458082, "types": ["shopping_mall", "point_of_interest", "establishment"], "place_id": "ChIJo0ecE_gVWBQRGGrouhZFdME"}, {"name": "Heliopolis Branch", "formatted_address": "17 Al Maahad Eshtraki, El-Montaza, Heliopolis, Cairo Governorate, Egypt", "lat": 30.0964245, "lng": 31.3198715, "types": ["bank", "finance", "point_of_interest", "establishment"], "place_id": "ChIJc6xhYogVWBQR3_OlRb2RY-I"}, {"name": "Heliopolis Company For Housing & Development", "formatted_address": "28 Ibrahim Al Lakani, El-Montaza, Heliopolis, Cairo Governorate, Egypt", "lat": 30.089427, "lng": 31.32091599999999, "types": ["general_contractor", "point_of_interest", "establishment"], "place_id": "ChIJeUp1DiY-WBQRkHRQbiaGSrA"}, {"name": "Swiss Inn Hotel Cairo", "formatted_address": "El-Montaza, Heliopolis, Cairo Governorate, Egypt", "lat": 30.0957563, "lng": 31.3205417, "types": ["lodging", "point_of_interest", "establishment"], "place_id": "ChIJt4IEcogVWBQRKl0OKRrsOSU"}, {"name": "Post Office - West Heliopolis", "formatted_address": "El-Nozha, El Nozha, Cairo Governorate, Egypt", "lat": 30.1036179, "lng": 31.33018539999999, "types": ["post_office", "finance", "point_of_interest", "establishment"], "place_id": "ChIJ-1tRxpIVWBQR8pyCMmqAgXM"}, {"name": "Powerland Inc", "formatted_address": "Al Montazah, Heliopolis, Cairo Governorate, Egypt", "lat": 30.0940846, "lng": 31.3203406, "types": ["car_repair", "point_of_interest", "store", "establishment"], "place_id": "ChIJD8Pj-yc-WBQR0aXaz0LR5z8"}, {"name": "الاصلي سامح", "formatted_address": "20 Baghdad St, El-Montaza, Heliopolis, Cairo Governorate, Egypt", "lat": 30.0954173, "lng": 31.3205194, "types": ["car_repair", "point_of_interest", "store", "establishment"], "place_id": "ChIJ0W6jEogVWBQRXGzJMLwCVoo"}]