[{"name": "Costa Coffee", "formatted_address": "Al Montazah, Heliopolis, Cairo Governorate, Egypt", "lat": 30.09059329999999, "lng": 31.3156662, "types": ["cafe", "food", "point_of_interest", "store", "establishment"], "place_id": "ChIJqcrdNSk-WBQR4Gav5oAMKXM"}, {"name": "Social Insurance Bureau - Mansheyet El Bakry", "formatted_address": "12 El-Maqrezy - ١٢ شارع المقريزي، منشية البكري، مصر الجديدة, Mansheya El-Bakry, Cairo Governorate, Egypt", "lat": 30.0904657, "lng": 31.3056201, "types": ["local_government_office", "point_of_interest", "establishment"], "place_id": "ChIJ_____yY-WBQRWFQ1z-yKySk"}, {"name": "Mansheya El-Bakry", "formatted_address": "Mansheya El-Bakry, Heliopolis, Cairo Governorate, Egypt", "lat": 30.0836126, "lng": 31.311269, "types": ["administrative_area_level_3", "political"], "place_id": "ChIJa4DW6TI-WBQR4GTi4hY7Nxk"}, {"name": "Mansheya El-Bakry", "formatted_address": "Mansheya El-Bakry, Heliopolis, Cairo Governorate, Egypt", "lat": 30.0927882, "lng": 31.3101957, "types": ["locality", "political"], "place_id": "ChIJi_aHays-WBQRvH4Jrx_Idcg"}, {"name": "Masjed Manshyet Elbakry", "formatted_address": "Mansheya El-Bakry, Mansheyat as Sadr, Heliopolis, Cairo Governorate, Egypt", "lat": 30.0892365, "lng": 31.3059051, "types": ["mosque", "place_of_worship", "point_of_interest", "establishment"], "place_id": "ChIJYU8L8dI_WBQR1dLrLx1DSXE"}, {"name": "مكتبة منشية البكرى العامة", "formatted_address": "شارع جسر السويس رقم ٩٣أ، روكسى مصر الجديدة،، جسر السويس، محافظة القاهرة‬،، Egypt", "lat": 30.0988587, "lng": 31.3148265, "types": ["library", "point_of_interest", "establishment"], "place_id": "ChIJkaBI3YUVWBQRSoDBTHT15UY"}, {"name": "Egypt Post", "formatted_address": "السكة الحديد، Mansheya El-Bakry, Heliopolis, Cairo Governorate, Egypt", "lat": 30.0874435, "lng": 31.30289299999999, "types": ["post_office", "finance", "point_of_interest", "establishment"], "place_id": "ChIJZzIw_c0_WBQRij_7WmG671I"}, {"name": "بقالة منشية البكرى", "formatted_address": "شارع منشية البكرى الحمام، القبه، Heliopolis, Cairo Governorate, Egypt", "lat": 30.0876111, "lng": 31.3026455, "types": ["grocery_or_supermarket", "food", "point_of_interest", "store", "establishment"], "place_id": "ChIJ267cCc4_WBQRDA7VXIrEGDo"}, {"name": "صيدلية منشية البكرى", "formatted_address": "شارع عبدالجليل ، حمامات القبة ، قسم، Zeitoun, Cairo Governorate, Egypt", "lat": 30.0880784, "lng": 31.300664, "types": ["pharmacy", "health", "point_of_interest", "store", "establishment"], "place_id": "ChIJlyM7Os4_WBQRCdC8zyroIuc"}, {"name": "Mansheyet El Bakry General Hospital", "formatted_address": "13 ش Gesr Al Suez, Mansheya El-Bakry, Heliopolis, Cairo Governorate, Egypt", "lat": 30.0911932, "lng": 31.3060844, "types": ["hospital", "health", "point_of_interest", "establishment"], "place_id": "ChIJO3lbbtM_WBQR4rWY0INWS4s"}, {"name": "سنتر روكسى", "formatted_address": "Mansheya El-Bakry, Heliopolis, Cairo Governorate, Egypt", "lat": 30.0910176, "lng": 31.3116508, "types": ["point_of_interest", "establishment"], "place_id": "ChIJ8y1ieSw-WBQRerbXLRAuzrY"}, {"name": "Eng. Military Auth. House", "formatted_address": "Mansheya El-Bakry, Heliopolis, Cairo Governorate, Egypt", "lat": 30.08136559999999, "lng": 31.30596509999999, "types": ["lodging", "point_of_interest", "establishment"], "place_id": "ChIJOQqUcss_WBQRlT7AQB0UXK8"}, {"name": "Normandy Pharmacies", "formatted_address": "El-Khalifa El-Maamoun, Mansheya El-Bakry, Heliopolis, Cairo Governorate, Egypt", "lat": 30.08857549999999, "lng": 31.3084368, "types": ["pharmacy", "health", "point_of_interest", "clothing_store", "store", "establishment"], "place_id": "ChIJ50jZNC0-WBQRQr1we06yfK4"}, {"name": "الألمانية", "formatted_address": "شارع المقريزى، حمامات القبة،، Heliopolis, Egypt", "lat": 30.0871205, "lng": 31.3047661, "types": ["point_of_interest", "store", "establishment"], "place_id": "ChIJjYlhkM0_WBQRejKZZ5or1aQ"}, {"name": "Manshtet Elbakry Police Station نقطة شرطة منشية البكري", "formatted_address": "9 Rfaah, Mansheya El-Bakry, Heliopolis, Cairo Governorate, Egypt", "lat": 30.0897836, "lng": 31.3084904, "types": ["police", "point_of_interest", "establishment"], "place_id": "ChIJQ3M31dI_WBQRWW81EVddUYY"}, {"name": "Sayed Abd El Moneam", "formatted_address": "6 المقريزي، Mansheya El-Bakry, Heliopolis, Cairo Governorate, Egypt", "lat": 30.0905996, "lng": 31.30464529999999, "types": ["pharmacy", "health", "point_of_interest", "store", "establishment"], "place_id": "ChIJv84ns9M_WBQR-V_u_zUaXFM"}, {"name": "الهيئة العامة للتأمين الصحى", "formatted_address": "Abou Al Mahasen, Mansheya El-Bakry, Heliopolis, Cairo Governorate, Egypt", "lat": 30.090186, "lng": 31.3124745, "types": ["insurance_agency", "health", "point_of_interest", "establishment"], "place_id": "ChIJ4w8oFSw-WBQRvZdqf2l5LtY"}, {"name": "MI Service Center", "formatted_address": "امام دار المدرعات، منشية البكري، قسم مصر الجديدة،، Salah Salem St, Cairo Governorate, Egypt", "lat": 30.076298, "lng": 31.3078661, "types": ["electronics_store", "point_of_interest", "store", "establishment"], "place_id": "ChIJ_5C6DbU_WBQRVpnLtd2ko3A"}, {"name": "Metro Market", "formatted_address": "18 El-Khalifa El-Maamoun, Mansheya El-Bakry, Heliopolis, Cairo Governorate, Egypt", "lat": 30.0869953, "lng": 31.3033774, "types": ["grocery_or_supermarket", "food", "point_of_interest", "store", "establishment"], "place_id": "ChIJxVvF2c0_WBQRPA4RHpeTCp4"}, {"name": "Jil Eltahan Homewear", "formatted_address": "٢٦, Mansheya El-Bakry, 11757, Egypt", "lat": 30.0892376, "lng": 31.3053162, "types": ["point_of_interest", "clothing_store", "store", "establishment"], "place_id": "ChIJOXNzX9I_WBQRBKX8hwUFeLc"}, {"name": "Pro Print", "formatted_address": "منشية البكري، مصر الجديدة، القاهرة، 11774, Egypt", "lat": 30.090287, "lng": 31.3070434, "types": ["point_of_interest", "store", "establishment"], "place_id": "ChIJHw93BE8_WBQR4ENImaLZX5Y"}, {"name": "مدرسة قومية منشية البكرى الخاصة", "formatted_address": "15 المقريزي، Mansheya El-Bakry, Heliopolis, Cairo Governorate, Egypt", "lat": 30.0881371, "lng": 31.3000002, "types": ["school", "point_of_interest", "establishment"], "place_id": "ChIJU_SKNM4_WBQRcgh5-DFwWqM"}, {"name": "Spiroplastic", "formatted_address": "شارع منشية البكرى، الحمام، El-Qobba, Heliopolis, Cairo Governorate, Egypt", "lat": 30.0886873, "lng": 31.3042957, "types": ["point_of_interest", "store", "establishment"], "place_id": "ChIJh4SActI_WBQRIaPWBmU6UDE"}, {"name": "مكتبة M.S.B", "formatted_address": "14 أ شارع القرميزي منشية البكرى سرايا القبة، قسم اول الزيتوان، Cairo Governorate, Egypt", "lat": 30.0907412, "lng": 31.306296, "types": ["point_of_interest", "store", "establishment"], "place_id": "ChIJl_yuGtM_WBQR5YSkvpP2gko"}, {"name": "Compu Mob", "formatted_address": "٢٧ شارع المقريزي، منشية البكري، قسم اول مصر الجديدة، Heliopolis, Cairo Governorate, Egypt", "lat": 30.0907566, "lng": 31.3085262, "types": ["point_of_interest", "store", "establishment"], "place_id": "ChIJyxKTyiw-WBQRRmCJ5Ijus5s"}, {"name": "Kiromena computer", "formatted_address": "4 ش الاسيوطى متفرع من شارع الخليفة المأمون روكسي خلف سوق العصر شركة كيرومينا مول الاسيوطي الدور الثاني ت 22565620، Heliopolis, Cairo Governorate 11774, Egypt", "lat": 30.089621, "lng": 31.308981, "types": ["electronics_store", "point_of_interest", "store", "establishment"], "place_id": "ChIJ-W5A1yw-WBQRgoaSuHFc9Uc"}, {"name": "الشبراوي للتصوير و الطباعة", "formatted_address": "Mansheya El-Bakry, Heliopolis, Cairo Governorate, Egypt", "lat": 30.0875466, "lng": 31.30245669999999, "types": ["point_of_interest", "store", "establishment"], "place_id": "ChIJsyzfC84_WBQRcuF-c7hSOBI"}, {"name": "العبودى", "formatted_address": "25 el qobba st.، Mansheya El-Bakry, Heliopolis, Cairo Governorate, Egypt", "lat": 30.0930976, "lng": 31.314664, "types": ["point_of_interest", "clothing_store", "store", "establishment"], "place_id": "ChIJFSjme4AVWBQRthpiyKHe0ZA"}, {"name": "مسجد الامام الطبرى", "formatted_address": "شارع كلية التربية،منشية البكري،قسم، Heliopolis, Cairo Governorate, Egypt", "lat": 30.092661, "lng": 31.3109476, "types": ["mosque", "place_of_worship", "point_of_interest", "establishment"], "place_id": "ChIJBRqFdCs-WBQRObPqp_WD3LM"}, {"name": "Manshyet albakry youth centre", "formatted_address": "Mansheya El-Bakry, Heliopolis, Cairo Governorate, Egypt", "lat": 30.089425, "lng": 31.3054695, "types": ["point_of_interest", "establishment"], "place_id": "ChIJe1NZyVU_WBQRXnp2W4o3lc0"}, {"name": "سنتر روكسي", "formatted_address": "28 المقريزي، منشية البكري، مصر الجديدة،، Cairo Governorate, Egypt", "lat": 30.0902886, "lng": 31.3050766, "types": ["school", "point_of_interest", "establishment"], "place_id": "ChIJt7XiCxE_WBQRVq9d4IeSHJk"}, {"name": "CREPE ZONE", "formatted_address": "٥٥، Mansheya El-Bakry, Heliopolis, Cairo Governorate, Egypt", "lat": 30.0885453, "lng": 31.3067073, "types": ["restaurant", "food", "point_of_interest", "store", "establishment"], "place_id": "ChIJ9aPClNI_WBQRHORJAobDSnQ"}, {"name": "علاء الدين", "formatted_address": "شارع منشية البكرى، حمامات القبة،، Heliopolis, Cairo Governorate, Egypt", "lat": 30.0887654, "lng": 31.3064076, "types": ["car_dealer", "point_of_interest", "store", "establishment"], "place_id": "ChIJXaHRktI_WBQRJNA2mGYq3E0"}, {"name": "حسن المصرى للحلويات السويسرية", "formatted_address": "6 El Maqrizy St، Mansheya El-Bakry, Heliopolis, Cairo Governorate, Egypt", "lat": 30.0902495, "lng": 31.3050866, "types": ["bakery", "food", "point_of_interest", "store", "establishment"], "place_id": "ChIJJYbCU9I_WBQRxQ77RyNwBOc"}, {"name": "Heliopolis Sporting Club (HSC)", "formatted_address": "17 El-Sayed El-Marghany, Mansheya El-Bakry, Heliopolis, Cairo Governorate, Egypt", "lat": 30.0883155, "lng": 31.3164398, "types": ["point_of_interest", "establishment"], "place_id": "ChIJB9zy8B4-WBQRz_zRpJte8sA"}, {"name": "One", "formatted_address": "٤١ شارع، Al Sayed Al Maqreezi, Mansheya El-Bakry, Heliopolis, Cairo Governorate, Egypt", "lat": 30.09027009999999, "lng": 31.306524, "types": ["point_of_interest", "clothing_store", "store", "establishment"], "place_id": "ChIJ57pHHNM_WBQRHuEporWPGVo"}, {"name": "صيدلية رجاء مصطفي", "formatted_address": "53 شارع المقريزي برج الأطباء، Saraya Al Koba, Mansheya El-Bakry, قسم اول الزيتوان، Egypt", "lat": 30.0907047, "lng": 31.3078829, "types": ["pharmacy", "health", "point_of_interest", "store", "establishment"], "place_id": "ChIJObhwOtM_WBQRFUqIBt8PM20"}, {"name": "شركة مصر الفراعنة", "formatted_address": "شارع منشية البكرى، الحمام، El-Qobba, Heliopolis, Cairo Governorate, Egypt", "lat": 30.0903356, "lng": 31.304018, "types": ["home_goods_store", "point_of_interest", "store", "establishment"], "place_id": "ChIJMfdpNtI_WBQR_SIS9vlAZbU"}, {"name": "بدران", "formatted_address": "شارع المقريزي، منشية البكري، قسم منشية البكري، القاهرة، Egypt", "lat": 30.0912973, "lng": 31.3085923, "types": ["bakery", "food", "point_of_interest", "store", "establishment"], "place_id": "ChIJybmqsyw-WBQR95Bd-lVzKJw"}, {"name": "البدر للكمبيوتر", "formatted_address": "شارع الفريق إبن سنتر حمامات القبة قسم، Mansheya El-Bakry, Egypt", "lat": 30.0907467, "lng": 31.3030317, "types": ["point_of_interest", "store", "establishment"], "place_id": "ChIJpQiLK9I_WBQRvP_wjhMS5RA"}, {"name": "مكتبة الفنون و الهندسة", "formatted_address": "شارع منشية البكرى، El-Khalifa El-Maamoun, Heliopolis, Cairo Governorate, Egypt", "lat": 30.0888283, "lng": 31.3043048, "types": ["point_of_interest", "store", "establishment"], "place_id": "ChIJ_0yobdI_WBQRQjwoTnbQzNo"}, {"name": "مسجد الرحمة", "formatted_address": "شارع البوصيري - قسم الزيتون - حي، Saraya Al Koba, Cairo Governorate, Egypt", "lat": 30.0927776, "lng": 31.308194, "types": ["mosque", "place_of_worship", "point_of_interest", "establishment"], "place_id": "ChIJofqirdQ_WBQRw-BiONz9TVw"}, {"name": "ABA Market", "formatted_address": "3 El-Khalifa El-Maamoun, Mansheya El-Bakry, Heliopolis, Cairo Governorate, Egypt", "lat": 30.0877354, "lng": 31.3086955, "types": ["supermarket", "grocery_or_supermarket", "food", "point_of_interest", "store", "establishment"], "place_id": "ChIJcfcVTC0-WBQRhvrt3adp8dQ"}, {"name": "مكتبة المغربى", "formatted_address": "شارع محمد عبد الرازق ،حمامات القبة، Zeitoun, Cairo Governorate, Egypt", "lat": 30.0876372, "lng": 31.3013178, "types": ["point_of_interest", "store", "establishment"], "place_id": "ChIJlzNpFc4_WBQRSPhLmnfHNFQ"}, {"name": "مقار إجيبيت", "formatted_address": "شارع السيد المقريزي، El-Khalifa El-Maamoun, Cairo Governorate, Egypt", "lat": 30.0894279, "lng": 31.3048474, "types": ["point_of_interest", "store", "establishment"], "place_id": "ChIJs2HJXNI_WBQRbjWZ0i-tcio"}, {"name": "صيدلية د/ محمد حامد", "formatted_address": "١٨ شارع منشية البكري -حمامات القبة خلف مترو ماركت، الخليفة المأمون، مصر الجديدة، القاهرة, Cairo Governorate, Egypt", "lat": 30.088437, "lng": 31.3030887, "types": ["pharmacy", "health", "point_of_interest", "store", "establishment"], "place_id": "ChIJyYRIB9I_WBQRNA0xMmDRAFM"}, {"name": "Elbait Elsaid", "formatted_address": "Gesr Al Suez, Mansheya El-Bakry, Heliopolis, Cairo Governorate, Egypt", "lat": 30.0921733, "lng": 31.3069172, "types": ["home_goods_store", "point_of_interest", "store", "establishment"], "place_id": "ChIJl3fFYNM_WBQRsb35Km86FW8"}, {"name": "Ashraf Pharmacy", "formatted_address": "Mansheya El-Bakry, Heliopolis, Cairo Governorate, Egypt", "lat": 30.0883982, "lng": 31.3074116, "types": ["pharmacy", "health", "point_of_interest", "store", "establishment"], "place_id": "ChIJT9LQuNI_WBQR7iZBW2_6TEg"}, {"name": "صيدلية سيد عبد المنعم", "formatted_address": "شارع المقريزى، El-Khalifa El-Maamoun, قسم الزيتون، Cairo Governorate, Egypt", "lat": 30.09022689999999, "lng": 31.304972, "types": ["pharmacy", "health", "point_of_interest", "store", "establishment"], "place_id": "ChIJux5IUtI_WBQRcu786gDIWf0"}, {"name": "Aghaby اغابي", "formatted_address": "شارع لطفى حمامات القبة،, منشية البكري، قسم مصر الجديدة، محافظة القاهرة‬،, Egypt", "lat": 30.0879308, "lng": 31.3048805, "types": ["grocery_or_supermarket", "food", "point_of_interest", "store", "establishment"], "place_id": "ChIJj3Xb1ro_WBQR238PaF5_T-A"}, {"name": "مسجد الرحمة", "formatted_address": "شارع Ibn Abd Al Zaher, Mansheya El-Bakry, Heliopolis, Cairo Governorate, Egypt", "lat": 30.0910612, "lng": 31.3074118, "types": ["mosque", "place_of_worship", "point_of_interest", "establishment"], "place_id": "ChIJUYW-ONM_WBQRSUxszmlhRdI"}, {"name": "بنك مصر فرع منشية البكرى", "formatted_address": "Gesr Al Suez, Mansheya El-Bakry, Heliopolis, Cairo Governorate, Egypt", "lat": 30.0900375, "lng": 31.303984, "types": ["bank", "finance", "point_of_interest", "establishment"], "place_id": "ChIJ3wcwONI_WBQRq4XcClf_7ZA"}, {"name": "Variety", "formatted_address": "شارع منشية البكرى، الحمام، El-Qobba, Heliopolis, Egypt", "lat": 30.0908782, "lng": 31.3031725, "types": ["clothing_store", "point_of_interest", "store", "establishment"], "place_id": "ChIJTQHDLNI_WBQR3y2qsXpHfyM"}, {"name": "Lovely", "formatted_address": "66 ش الخليفة المأمون، Mansheya El-Bakry, Heliopolis, Cairo Governorate, Egypt", "lat": 30.0863403, "lng": 31.3002429, "types": ["point_of_interest", "establishment"], "place_id": "ChIJxVvF2c0_WBQRO0ISsdQrou4"}, {"name": "WE المصرية للاتصالات - منشية البكرى", "formatted_address": "Mansheya El-Bakry, Heliopolis, Cairo Governorate, Egypt", "lat": 30.0902397, "lng": 31.3085147, "types": ["point_of_interest", "establishment"], "place_id": "ChIJDZun0iw-WBQRg06aAIHqUzI"}, {"name": "سوبر ماركت سنابل", "formatted_address": "16 المقريزي، Mansheya El-Bakry, Heliopolis, Cairo Governorate, Egypt", "lat": 30.0881371, "lng": 31.3000002, "types": ["supermarket", "grocery_or_supermarket", "food", "point_of_interest", "store", "establishment"], "place_id": "ChIJU_SKNM4_WBQRIdmungWVgn8"}, {"name": "ألبان سونستا", "formatted_address": "٤أ شارع الحكماء مصر الجديدة،قسم مصر جديدة، Cairo Governorate, Egypt", "lat": 30.0873813, "lng": 31.31142839999999, "types": ["food", "point_of_interest", "store", "establishment"], "place_id": "ChIJce2hny0-WBQRvAV5dic1_hs"}, {"name": "الراعى", "formatted_address": "شارع منشية البكرى، El-Khalifa El-Maamoun, Heliopolis, Cairo Governorate, Egypt", "lat": 30.08885669999999, "lng": 31.3043671, "types": ["home_goods_store", "point_of_interest", "store", "establishment"], "place_id": "ChIJ45FLbNI_WBQRR4mZKSlBsh4"}, {"name": "هابى فارم", "formatted_address": "٤١ شارع المقريزي طي،، Saraya Al Koba, قسم اول، Cairo Governorate, Egypt", "lat": 30.0902092, "lng": 31.30635729999999, "types": ["food", "point_of_interest", "store", "establishment"], "place_id": "ChIJBxQWHdM_WBQR3afT1uOh93Q"}, {"name": "Gojy", "formatted_address": "شارع منشية البكرى، حمامات القبة،، Heliopolis, Egypt", "lat": 30.0893679, "lng": 31.3053706, "types": ["point_of_interest", "store", "establishment"], "place_id": "ChIJV_wpX9I_WBQRuhtYq4IIf3w"}]