[{"name": "Gamal Abdel Nasser Museum", "formatted_address": "4 El-Khalifa El-Maamoun, Mansheya El-Bakry, Heliopolis, Cairo Governorate, Egypt", "lat": 30.08654319999999, "lng": 31.3106985, "types": ["tourist_attraction", "museum", "point_of_interest", "establishment"], "place_id": "ChIJRRoLYy0-WBQR5Q1w1SdH0dQ"}, {"name": "Panorama October", "formatted_address": "Salah Salem St, Al Estad, Nasr City, Cairo Governorate, Egypt", "lat": 30.0742728, "lng": 31.3068068, "types": ["tourist_attraction", "museum", "point_of_interest", "establishment"], "place_id": "ChIJmxmkHLU_WBQRzBYJ5_3_jo8"}, {"name": "متحف القوات الجوية المصرية", "formatted_address": "Sheraton Al Matar, El Nozha, Cairo Governorate, Egypt", "lat": 30.0970833, "lng": 31.3526919, "types": ["museum", "tourist_attraction", "point_of_interest", "establishment"], "place_id": "ChIJnxbZwOIVWBQRb_Jw3qPqz7E"}, {"name": "Egypt Land Of Adventures Tours", "formatted_address": "28 Mansheyet El Tayaran St.، Mansheya El-Bakry, Heliopolis, Cairo Governorate, Egypt", "lat": 30.0869859, "lng": 31.3129864, "types": ["point_of_interest", "establishment"], "place_id": "ChIJvZL66S0-WBQR9sqe83CPCd8"}, {"name": "مسجد الحكماء", "formatted_address": "شارع Manshiet Al Tairan, مصر الجديدة،قسم، مصر جديدة، Cairo Governorate, Egypt", "lat": 30.0872711, "lng": 31.3114847, "types": ["mosque", "place_of_worship", "point_of_interest", "establishment"], "place_id": "ChIJdZv8ni0-WBQR4OKxYEDazlY"}, {"name": "Stop & Stock", "formatted_address": "12 ش منشية الطيران، Mansheya El-Bakry, Heliopolis, Cairo Governorate, Egypt", "lat": 30.0869859, "lng": 31.3129864, "types": ["point_of_interest", "establishment"], "place_id": "ChIJvZL66S0-WBQRhENdyEj3hI0"}, {"name": "El Moshneb Consultancy", "formatted_address": "16 Mansheyet El Tayaran St.، Mansheya El-Bakry, Heliopolis, Cairo Governorate, Egypt", "lat": 30.0871685, "lng": 31.3122521, "types": ["point_of_interest", "establishment"], "place_id": "ChIJvZL66S0-WBQRcCup5DdkKIk"}, {"name": "Ryasa", "formatted_address": "Manshiet Al Tairan, Mansheya El-Bakry, Heliopolis, Cairo Governorate, Egypt", "lat": 30.086847, "lng": 31.3111532, "types": ["point_of_interest", "establishment"], "place_id": "ChIJS7ziXqY_WBQRXSxYtyP4XLs"}, {"name": "Our Lady of Heliopolis Co-Cathedral", "formatted_address": "Nazih Khalifa crossroad، Al Ahram, Heliopolis, Cairo Governorate, Egypt", "lat": 30.0935707, "lng": 31.3251828, "types": ["church", "place_of_worship", "point_of_interest", "establishment"], "place_id": "ChIJJdgh-okVWBQR5TqTmKuQ0IM"}, {"name": "قرية لاسياندا راس سدر", "formatted_address": "20أ شارع، Manshiet Al Tairan, جنوب سيناء، Egypt", "lat": 30.08712839999999, "lng": 31.3131796, "types": ["lodging", "point_of_interest", "establishment"], "place_id": "ChIJ41uy2HE_WBQR_b7UkkMgxPs"}, {"name": "هوت لاين", "formatted_address": "61 ش المقريزى، Mansheya El-Bakry, Heliopolis, Cairo Governorate, Egypt", "lat": 30.0876976, "lng": 31.3117437, "types": ["point_of_interest", "establishment"], "place_id": "ChIJz3SJoy0-WBQR-Fobnu3m5G0"}, {"name": "Class Training Center", "formatted_address": "16 Mansheyet El Tayaran St.، Mansheya El-Bakry, Heliopolis, Cairo Governorate, Egypt", "lat": 30.087028, "lng": 31.312302, "types": ["point_of_interest", "establishment"], "place_id": "ChIJvZL66S0-WBQRv-sixqd7XJ4"}, {"name": "Dream Car 25", "formatted_address": "ش المقريزى، Mansheya El-Bakry, Heliopolis, Cairo Governorate, Egypt", "lat": 30.0868809, "lng": 31.3111596, "types": ["point_of_interest", "establishment"], "place_id": "ChIJJ9AgeC0-WBQRrx_Ryk2nEnY"}, {"name": "AFA Mina", "formatted_address": "Mansheyat Al Bakri, Heliopolis, Cairo Governorate, Egypt", "lat": 30.0871685, "lng": 31.3122521, "types": ["point_of_interest", "establishment"], "place_id": "ChIJZTaNli0-WBQRjOH2OG7TuGw"}, {"name": "Gana Free", "formatted_address": "18 ش المقريزى، Mansheya El-Bakry, Heliopolis, Cairo Governorate, Egypt", "lat": 30.0868809, "lng": 31.3111596, "types": ["point_of_interest", "establishment"], "place_id": "ChIJJ9AgeC0-WBQRL4_YN93568w"}, {"name": "Omran Misr real Estate development", "formatted_address": "20 ش منشية الطيران، Mansheya El-Bakry, Heliopolis, Cairo Governorate, Egypt", "lat": 30.08712839999999, "lng": 31.3131796, "types": ["real_estate_agency", "point_of_interest", "establishment"], "place_id": "ChIJvZL66S0-WBQRTaoJD3lgKgs"}, {"name": "شركة انجاز تك للأنظمة المتقدمة Injaz Tech", "formatted_address": "16 Manshiet Al Tairan, Mansheya El-Bakry, Heliopolis, Cairo Governorate, Egypt", "lat": 30.0871685, "lng": 31.3122521, "types": ["point_of_interest", "establishment"], "place_id": "ChIJXe5Yt7A_WBQR58pyTrcc5Ew"}, {"name": "أمازون", "formatted_address": "شارع منشية الطيران مصر الجديدة،قسم مصر جديدة ،القاهرة، Cairo Governorate, Egypt", "lat": 30.08710799999999, "lng": 31.3114787, "types": ["pet_store", "point_of_interest", "store", "establishment"], "place_id": "ChIJb9IunC0-WBQRlLmIuPFyMS4"}, {"name": "Electro Mechanical House", "formatted_address": "5 El Ansary St.، Mansheya El-Bakry, Heliopolis, Cairo Governorate, Egypt", "lat": 30.0881094, "lng": 31.3114426, "types": ["point_of_interest", "establishment"], "place_id": "ChIJOymH7u5AWBQRUwvu_0kGKB8"}, {"name": "Albahrawy", "formatted_address": "16 Manshiet Al Tairan, Mansheya El-Bakry, Heliopolis, Cairo Governorate, Egypt", "lat": 30.0870525, "lng": 31.3122493, "types": ["general_contractor", "point_of_interest", "establishment"], "place_id": "ChIJkxu4li0-WBQR37hZpsebSTI"}, {"name": "Bahrawy Investment", "formatted_address": "20 Mansheyet El Tayaran St.، Mansheya El-Bakry, Heliopolis, Cairo Governorate, Egypt", "lat": 30.0872626, "lng": 31.31328, "types": ["travel_agency", "point_of_interest", "establishment"], "place_id": "ChIJvZL66S0-WBQRhvNQye5bA3w"}, {"name": "Art Shah", "formatted_address": "6 المقريزي، Mansheya El-Bakry, Heliopolis, Cairo Governorate, Egypt", "lat": 30.0878008, "lng": 31.3116778, "types": ["point_of_interest", "establishment"], "place_id": "ChIJdeJ1pC0-WBQRwPT5OZAN1Gs"}, {"name": "High Sky", "formatted_address": "21 ش الخليفة المأمون، Mansheya El-Bakry, Heliopolis, Cairo Governorate, Egypt", "lat": 30.088309, "lng": 31.310262, "types": ["point_of_interest", "establishment"], "place_id": "ChIJxVvF2c0_WBQRtL5bZiLDq5A"}, {"name": "F&B international group", "formatted_address": "22-20 Manshiet Al Tairan, Mansheya El-Bakry, Heliopolis, Cairo Governorate, Egypt", "lat": 30.0870131, "lng": 31.3135479, "types": ["point_of_interest", "establishment"], "place_id": "ChIJoReKHKY_WBQRCf0EQ-JwYd0"}, {"name": "Point 4 Advertising", "formatted_address": "1-4 المقريزي، Mansheya El-Bakry, Heliopolis, Cairo Governorate, Egypt", "lat": 30.0875095, "lng": 31.31212069999999, "types": ["point_of_interest", "establishment"], "place_id": "ChIJ9ZNQoy0-WBQRPxChoKfe6FM"}, {"name": "Rouaa", "formatted_address": "7 ش ادريس، Mansheya El-Bakry, Heliopolis, Cairo Governorate, Egypt", "lat": 30.088302, "lng": 31.31426309999999, "types": ["point_of_interest", "establishment"], "place_id": "ChIJVW08gi4-WBQR-fuc3S--EgI"}, {"name": "Egyptair Heliopolis", "formatted_address": "22 Ibrahim Al Lakani, El-Montaza, Heliopolis, Cairo Governorate, Egypt", "lat": 30.0900313, "lng": 31.3204747, "types": ["point_of_interest", "establishment"], "place_id": "ChIJHXOBGSY-WBQRGSwl0HtlIo4"}, {"name": "Future Medical", "formatted_address": "18 ش المقريزى، Mansheya El-Bakry, Heliopolis, Cairo Governorate, Egypt", "lat": 30.0868809, "lng": 31.3111596, "types": ["point_of_interest", "establishment"], "place_id": "ChIJJ9AgeC0-WBQRXzQ70cd8MHY"}, {"name": "مسجد الحكماء", "formatted_address": "Unnamed Road, El-Montaza, Cairo Governorate, Egypt", "lat": 30.0872946, "lng": 31.3115869, "types": ["mosque", "place_of_worship", "point_of_interest", "establishment"], "place_id": "ChIJ4at6gnE_WBQRoUADEwvWmlI"}, {"name": "Contraco", "formatted_address": "7 Al Idrisi, Mansheya El-Bakry, Heliopolis, Cairo Governorate, Egypt", "lat": 30.0877944, "lng": 31.3138614, "types": ["point_of_interest", "establishment"], "place_id": "ChIJPfWf1i0-WBQRsAGVdZmqOh4"}, {"name": "L/ Hisham Karem mahmoud", "formatted_address": "شارع Manshiet Al Tairan, Mansheya El-Bakry, Heliopolis, Cairo Governorate, Egypt", "lat": 30.0872626, "lng": 31.31328, "types": ["finance", "point_of_interest", "establishment"], "place_id": "ChIJ4VlWUuhHWBQRxUbHeu_BmCs"}, {"name": "صيدلية د/ محمد إبراهيم", "formatted_address": "١٢ شارع، Manshiet Al Tairan, مصر الجديدة،قسم، مصر جديدة، Cairo Governorate, Egypt", "lat": 30.0871995, "lng": 31.3114691, "types": ["pharmacy", "health", "point_of_interest", "store", "establishment"], "place_id": "ChIJ73mMni0-WBQRTF5IZeoRzFw"}, {"name": "Egypt Hardware", "formatted_address": "12 Manshiet Al Tairan, Mansheya El-Bakry, Heliopolis, Cairo Governorate, Egypt", "lat": 30.0869786, "lng": 31.3111192, "types": ["hardware_store", "point_of_interest", "store", "establishment"], "place_id": "ChIJAdKEdy0-WBQR8Nisjz7TsqY"}, {"name": "Far Trading Co.", "formatted_address": "8 Al Hokamaa, Mansheya El-Bakry, Heliopolis, Cairo Governorate, Egypt", "lat": 30.0873268, "lng": 31.3116053, "types": ["point_of_interest", "establishment"], "place_id": "ChIJuSg0ny0-WBQRtXHM0hNZr6A"}, {"name": "MASR ELGDEDA UCP 2018", "formatted_address": "Passage Inside National Guard, Mansheya El-Bakry, Heliopolis, Cairo Governorate, Egypt", "lat": 30.0870936, "lng": 31.3122985, "types": ["health", "point_of_interest", "establishment"], "place_id": "ChIJi658li0-WBQRcgG80cyvrxM"}, {"name": "Energya", "formatted_address": "7 Al Idrisi, Mansheya El-Bakry, Heliopolis, Cairo Governorate, Egypt", "lat": 30.0877944, "lng": 31.3138614, "types": ["point_of_interest", "establishment"], "place_id": "ChIJPfWf1i0-WBQROSnvmbUy90s"}, {"name": "Bahnasi's Legal Advisors", "formatted_address": "16 Manshiet Al Tairan, Mansheya El-Bakry, Heliopolis, Cairo Governorate, Egypt", "lat": 30.0871186, "lng": 31.3122353, "types": ["point_of_interest", "establishment"], "place_id": "ChIJ_Wlcli0-WBQRdxJj1udHOpg"}, {"name": "El Nasr Co. For Modern Industries", "formatted_address": "5 El Hokamaa St.، Mansheya El-Bakry, Heliopolis, Cairo Governorate, Egypt", "lat": 30.0879595, "lng": 31.3117159, "types": ["point_of_interest", "establishment"], "place_id": "ChIJLa8-oS0-WBQR8SpOXAYunzo"}, {"name": "Dar Elhakem", "formatted_address": "19a El-Khalifa El-Maamoun, Mansheya El-Bakry, Heliopolis, Cairo Governorate 11774, Egypt", "lat": 30.0882416, "lng": 31.3101909, "types": ["point_of_interest", "establishment"], "place_id": "ChIJC6LSFi0-WBQRqBZrFU3WT1A"}, {"name": "Bosta Furniture", "formatted_address": "7 Al Idrisi, Mansheya El-Bakry, Heliopolis, Cairo Governorate, Egypt", "lat": 30.0877944, "lng": 31.3138614, "types": ["point_of_interest", "establishment"], "place_id": "ChIJPfWf1i0-WBQR8mvR9gXHaYI"}, {"name": "Mobishastra Technologies", "formatted_address": "#28, Manshiet Al Tairan, Mansheya El-Bakry, Heliopolis, Cairo Governorate, Egypt", "lat": 30.087059, "lng": 31.31456679999999, "types": ["point_of_interest", "establishment"], "place_id": "ChIJY1w-cS4-WBQRjDIIoIhLjz0"}, {"name": "Salah Al-Din Al-Ayoubi Castle, Salah Salem Street, Cairo", "formatted_address": "Salah Salem St, Al Abageyah, El-Khalifa, Cairo Governorate, Egypt", "lat": 30.0290436, "lng": 31.2594688, "types": ["point_of_interest", "establishment"], "place_id": "ChIJY-3CkKxAWBQRby736eSW2y8"}, {"name": "Advanced Control Systems", "formatted_address": "3 ش ابن منظور، Mansheya El-Bakry, Heliopolis, Cairo Governorate, Egypt", "lat": 30.0877944, "lng": 31.3138614, "types": ["point_of_interest", "establishment"], "place_id": "ChIJPfWf1i0-WBQRrgXiAF7eHhY"}, {"name": "NCC Cairo Office", "formatted_address": "9 El-Ansary, Mansheya El-Bakry, Heliopolis, Cairo Governorate, Egypt", "lat": 30.0880802, "lng": 31.3118797, "types": ["point_of_interest", "establishment"], "place_id": "ChIJQSS-ry0-WBQRb_fvYeSbbVk"}, {"name": "Style", "formatted_address": "١٢ شارع، Manshiet Al Tairan, مصر الجديدة،قسم، مصر جديدة، Cairo Governorate, Egypt", "lat": 30.0872055, "lng": 31.3114941, "types": ["beauty_salon", "point_of_interest", "establishment"], "place_id": "ChIJYaySni0-WBQRIxDz-4cIMvQ"}, {"name": "mirqap", "formatted_address": "El-Shaheed Abd Allah, Mansheya El-Bakry, Heliopolis, Cairo Governorate, Egypt", "lat": 30.0858612, "lng": 31.3142323, "types": ["point_of_interest", "establishment"], "place_id": "ChIJt6QTBy4-WBQRyOI5sKnqXYo"}, {"name": "Art Design Co.", "formatted_address": "22 شارع منشية الطيران، El-Khalifa El-Maamoun, Heliopolis, Cairo Governorate 11341, Egypt", "lat": 30.0870628, "lng": 31.3139403, "types": ["point_of_interest", "establishment"], "place_id": "ChIJEUmGWJhAWBQR7wC8hC5daMI"}, {"name": "ESW Engineering for special works", "formatted_address": "7 El Eldrisi street, Mansheya El-Bakry, Heliopolis, Cairo Governorate, Egypt", "lat": 30.0873115, "lng": 31.3152598, "types": ["local_government_office", "point_of_interest", "establishment"], "place_id": "ChIJ2UhMwmM_WBQRbsojzVl3gWA"}, {"name": "Scientific Office For Accounting & Auditing", "formatted_address": "5 El Ansary St.، Mansheya El-Bakry, Heliopolis, Cairo Governorate, Egypt", "lat": 30.0881094, "lng": 31.3114426, "types": ["point_of_interest", "establishment"], "place_id": "ChIJPaWFqC0-WBQRVT9ohwmxyAc"}, {"name": "Heliopolis Sporting Club (HSC)", "formatted_address": "17 El-Sayed El-Marghany, Mansheya El-Bakry, Heliopolis, Cairo Governorate, Egypt", "lat": 30.0883155, "lng": 31.3164398, "types": ["point_of_interest", "establishment"], "place_id": "ChIJB9zy8B4-WBQRz_zRpJte8sA"}, {"name": "مهندس طارق حسين Marwan Consulting Group", "formatted_address": "13-17 أبو المحاسن، منشية البكري، مصر الجديدة،، Cairo Governorate, Egypt", "lat": 30.0882472, "lng": 31.31488939999999, "types": ["point_of_interest", "establishment"], "place_id": "ChIJAWpCtJk_WBQRMlIRWNo3spk"}, {"name": "Samy Nabil", "formatted_address": "ش Ibn Manzoor, Mansheya El-Bakry, Heliopolis, Cairo Governorate, Egypt", "lat": 30.0877944, "lng": 31.3138614, "types": ["point_of_interest", "establishment"], "place_id": "ChIJPfWf1i0-WBQRJ8TQyhtqdBs"}, {"name": "La Hacienda Ras Sudr Headquarters & Sales Office", "formatted_address": "20A Manshiet Al Tairan, Mansheya El-Bakry, Heliopolis, Cairo Governorate, Egypt", "lat": 30.0872664, "lng": 31.3132459, "types": ["real_estate_agency", "point_of_interest", "establishment"], "place_id": "ChIJL6B3wy0-WBQRrG3HYg4RNpU"}, {"name": "Egypt Concierge", "formatted_address": "12 Manshiet Al tairan Street, Heliopolis, Cairo, Cairo Governorate 11341, Egypt", "lat": 30.0870532, "lng": 31.3112986, "types": ["travel_agency", "point_of_interest", "establishment"], "place_id": "ChIJu_FInC0-WBQRzAN-kPXjiYE"}, {"name": "United Co. For Pharmacists - UCP", "formatted_address": "16 ش منشية الطيران، Mansheya El-Bakry, Heliopolis, Cairo Governorate, Egypt", "lat": 30.0871685, "lng": 31.3122521, "types": ["health", "point_of_interest", "establishment"], "place_id": "ChIJvZL66S0-WBQRwwLHEarkcOg"}, {"name": "معمل الفا", "formatted_address": "سوق العصر، 21 شارع الخليفة المأمون، منشية البكري، قسم مصر الجديدة، محافظة القاهرة‬ اعلى on the run امام، Egypt", "lat": 30.0881797, "lng": 31.3104199, "types": ["health", "point_of_interest", "establishment"], "place_id": "ChIJs-YrEi0-WBQRTb8W38lgV9Q"}, {"name": "مكتب محمد إصلاح", "formatted_address": "22 Manshiet Al Tairan, Mansheya El-Bakry, Heliopolis, Cairo Governorate, Egypt", "lat": 30.0871414, "lng": 31.3136761, "types": ["point_of_interest", "establishment"], "place_id": "ChIJcX8Z_44_WBQR9IFwGm9H8kA"}, {"name": "أوتو غاده", "formatted_address": "4 الحكماء، منشية البكري، قسم مصر الجديدة،، Cairo Governorate, Egypt", "lat": 30.0872238, "lng": 31.3114687, "types": ["car_rental", "point_of_interest", "establishment"], "place_id": "ChIJxynVIhE_WBQR_ZT8UFhou7I"}, {"name": "Fares bobs", "formatted_address": "16 Manshiet Al Tairan, Mansheya El-Bakry, Heliopolis, Cairo Governorate, Egypt", "lat": 30.0870685, "lng": 31.3124076, "types": ["doctor", "health", "point_of_interest", "establishment"], "place_id": "ChIJd7QDhw0_WBQRjjUz9HFAaak"}, {"name": "Triumph Plaza Hotel", "formatted_address": "Intersection Of Ihsan Abdel Kodous St. with, El-Khalifa El-Maamoun, st, Cairo Governorate 11757, Egypt", "lat": 30.0864639, "lng": 31.3060439, "types": ["lodging", "point_of_interest", "establishment"], "place_id": "ChIJdQaFc80_WBQRaTzpSBv1-BQ"}]