[{"name": "Beirut Square Heliopolis - ميدان بيروت مصر الجديدة", "formatted_address": "Beirut Square ( Korba, Almazah, Heliopolis, Cairo Governorate, Egypt", "lat": 31.3273145, "types": ["point_of_interest", "establishment"], "place_id": "ChIJceNUu3EVWBQRxch3XBiRuiM"}, {"name": "مريم عتمان", "formatted_address": "مصر الجديدة، المطار، قسم النزهة،، Cairo Governorate, Egypt", "lat": 31.3438507, "types": ["point_of_interest", "establishment"], "place_id": "ChIJgxrFUogVWBQRS1UPh4qIBp0"}, {"name": "المصرية لخدمات المؤتمرات", "formatted_address": "6 Al Abnasy Street, Mansheiet El-Bakry, Cairo Governorate 11341, Egypt", "lat": 31.3438507, "types": ["point_of_interest", "establishment"], "place_id": "ChIJV2-3ZtM_WBQRppQSBfVwTtY"}, {"name": "EGENT Center (Heliopolis Branch)", "formatted_address": "24 el Ahram street, Al Matar, El Nozha, Cairo Governorate, Egypt", "lat": 31.3438507, "types": ["health", "point_of_interest", "establishment"], "place_id": "ChIJA9dUAxwVWBQRn6gBuXiy7yA"}, {"name": "شقق مقروشة للايجار في القاهرة", "formatted_address": "ميدان تريومف، Al Matar, El Nozha, Cairo Governorate 11757, Egypt", "lat": 31.3438507, "types": ["lodging", "point_of_interest", "establishment"], "place_id": "ChIJWZEUunIVWBQR9m5l_WAmnt4"}, {"name": "مركز الدكتور امجد الحداد حساسية ومناعه 12ش بطرس غالى روكسي مصر الجديده", "formatted_address": "12 شارع بطرس غالى روكسى، روكسي، مصر الجديده، Cairo Governorate, Egypt", "lat": 31.343851, "types": ["doctor", "health", "point_of_interest", "establishment"], "place_id": "ChIJf2fnvc4VWBQRy8CF-La2d4c"}, {"name": "Arab film school", "formatted_address": "15-Al-Ahram Street, Heliopolis, Cairo Governorate 11757, Egypt", "lat": 31.3438507, "types": ["point_of_interest", "establishment"], "place_id": "ChIJcYZ1plEVWBQRfQ17CkMcvAQ"}, {"name": "art planet 369", "formatted_address": "Al Matar, El Nozha, Cairo Governorate, Egypt", "lat": 31.3438507, "types": ["point_of_interest", "establishment"], "place_id": "ChIJgW-2iYQVWBQRAcyJwo7q004"}, {"name": "Wekalet El Ghoury", "formatted_address": "3 ش محمد عبده الازهر تقاطع ش الأزهر وش، Al Moez Ldin Allah Al Fatmi, El-Darb El-Ahmar, Egypt", "lat": 31.2608809, "types": ["tourist_attraction", "point_of_interest", "establishment"], "place_id": "ChIJC3oHm18_WBQRA9r0VQhqsYI"}, {"name": "مستشفى الحرية التخصصى", "formatted_address": "11 Latif Mansour St، Almazah, El Nozha, Cairo Governorate, Egypt", "lat": 31.3438507, "types": ["hospital", "health", "point_of_interest", "establishment"], "place_id": "ChIJq7jFPhw-WBQRx7wGgL_7bO8"}, {"name": "كمبوند سكاي كابيتال", "formatted_address": "محافظة القاهرة‬،4 ش صلاح الدين من العروبه - مصر الجديده، Cairo Governorate 11736, Egypt", "lat": 31.3438507, "types": ["real_estate_agency", "lodging", "point_of_interest", "establishment"], "place_id": "ChIJxeUN-f6NVxQR4gOpLWmma2E"}, {"name": "Disruptive Management Solutions - DMS", "formatted_address": "Military College, 03 General Abdulaziz Ali St, Al Matar, El Nozha, Cairo Governorate, Egypt", "lat": 31.3438507, "types": ["point_of_interest", "establishment"], "place_id": "ChIJxbKCrkoVWBQRRg1tITQb_BQ"}, {"name": "هيلتون هيليوبلس", "formatted_address": "Al Matar, El Nozha, Cairo Governorate, Egypt", "lat": 31.3438507, "types": ["lodging", "point_of_interest", "establishment"], "place_id": "ChIJocT4HcUVWBQRgIk90yuylWM"}, {"name": "الهندسيه للستائر الرأسيه", "formatted_address": "مصر الجديده، القاهره، مصر فارغ، Egypt", "lat": 31.3438507, "types": ["home_goods_store", "point_of_interest", "store", "establishment"], "place_id": "ChIJT2uD_nYVWBQRmvvE3fIiJnw"}, {"name": "علي أبوهيف", "formatted_address": "مصر الجديدة الكوربة ش3 البوستة, Heliopolis, Cairo Governorate 11757, Egypt", "lat": 31.3438507, "types": ["point_of_interest", "establishment"], "place_id": "ChIJ26OLZNcVWBQRr73tM3AyTTM"}, {"name": "Mar Guirguis church", "formatted_address": "Al Matar, El Nozha, Cairo Governorate, Egypt", "lat": 31.3438507, "types": ["church", "place_of_worship", "point_of_interest", "establishment"], "place_id": "ChIJo7ZMU40VWBQRyM0cS-gcbeM"}, {"name": "Mohamed hassan", "formatted_address": "Roxy, Al Matar, El Nozha, Cairo Governorate, Egypt", "lat": 31.3438507, "types": ["general_contractor", "point_of_interest", "establishment"], "place_id": "ChIJWcrQp1cVWBQRxa48aNK0CZw"}, {"name": "parrot crafts", "formatted_address": "19 mohamed elshaibani street, Al Matar, El Nozha, Cairo Governorate, Egypt", "lat": 31.3438507, "types": ["point_of_interest", "establishment"], "place_id": "ChIJpWN11U4VWBQRdMRql2T4eK4"}, {"name": "Egyptravel", "formatted_address": "Safer square 12 Hassona, النواوي، Cairo Governorate, Egypt", "lat": 31.3438507, "types": ["travel_agency", "point_of_interest", "establishment"], "place_id": "ChIJneOVGKdHWBQR2dPurZOd9g8"}, {"name": "amany elcherif", "formatted_address": "elshahed mohamed abdelhady، 18، المطار، قسم النزهة، محافظة القاهرة‬،، Egypt", "lat": 31.3438507, "types": ["point_of_interest", "establishment"], "place_id": "ChIJqTJ_tOcVWBQRSf4BJUlgOdE"}, {"name": "اوتوشوب فرع جسر السويس", "formatted_address": "شنودة، 6 عمارات الشرطة - ناصية عزبة، Cairo Governorate, Egypt", "lat": 31.3438507, "types": ["car_repair", "point_of_interest", "store", "establishment"], "place_id": "ChIJSfibmtoVWBQRKQFQedKNvE0"}, {"name": "Mohamed Hussein Kamel", "formatted_address": "114 Gesr Al Suez, St, El Nozha, Cairo Governorate, Egypt", "lat": 31.339374, "types": ["doctor", "health", "point_of_interest", "establishment"], "place_id": "ChIJiYuNmMUVWBQR4ve-yz484Ss"}, {"name": "Mawared Co.", "formatted_address": "8mahmoud anwar، Al Matar, قسم الheliopolis، Cairo Governorate, Egypt", "lat": 31.3438507, "types": ["point_of_interest", "establishment"], "place_id": "ChIJdef1uc8VWBQR7hrEBoAXd1Q"}, {"name": "معاز السقا", "formatted_address": "مصر الجديدة، المطار، قسم النزهة، محافظة القاهرة‬،، Egypt", "lat": 31.3438507, "types": ["school", "point_of_interest", "establishment"], "place_id": "ChIJnVjy6JQVWBQRQ3ih7tn5Nws"}, {"name": "سيتى كريب", "formatted_address": "علي،قسم النزهه ، أحمد محمود، Egypt", "lat": 31.3438507, "types": ["restaurant", "food", "point_of_interest", "store", "establishment"], "place_id": "ChIJFw-y-tkVWBQRDGCNSqSvMdo"}, {"name": "ورثة احمد حافظ", "formatted_address": "شارع, Cairo Governorate, Egypt", "lat": 31.3438507, "types": ["point_of_interest", "establishment"], "place_id": "ChIJZ5YXq9wVWBQR8n_hUliQaSQ"}, {"name": "محمد سعد", "formatted_address": "Al Matar, El Nozha, Cairo Governorate 11757, Egypt", "lat": 31.3438507, "types": ["furniture_store", "home_goods_store", "point_of_interest", "store", "establishment"], "place_id": "ChIJi0ahxJQVWBQRvGgOE2t1p2c"}, {"name": "international consultant bureau", "formatted_address": "3 mohamed kamal eldin st, Al Matar, El Nozha, Cairo Governorate, Egypt", "lat": 31.3438507, "types": ["lawyer", "point_of_interest", "establishment"], "place_id": "ChIJ6--YtSEVWBQRQvC0-UUTb_s"}, {"name": "معاز السقا", "formatted_address": "14 عبد الحي فتحي، المطار، قسم النزهة،، Cairo Governorate, Egypt", "lat": 31.3438292, "types": ["point_of_interest", "establishment"], "place_id": "ChIJv5bKAj8VWBQRkEBXT4OP3sE"}, {"name": "مطبعة الأندلس", "formatted_address": "مصر الجديده الجرفه سابقن،، Egypt", "lat": 31.3438507, "types": ["point_of_interest", "establishment"], "place_id": "ChIJCX2oMEEVWBQRqJxm0dvnFks"}, {"name": "elsultan aqaria group", "formatted_address": "70 ش جوزيف تيتو - طريق المطار, El-Nozha, Egypt", "lat": 31.3438507, "types": ["lodging", "point_of_interest", "establishment"], "place_id": "ChIJsc8dY3UVWBQR4ERwwyHLfwc"}, {"name": "go fianance", "formatted_address": "Al Matar, El Nozha, Cairo Governorate, Egypt", "lat": 31.3438507, "types": ["point_of_interest", "establishment"], "place_id": "ChIJp4eMKKYVWBQRkImXhuDazGc"}, {"name": "super", "formatted_address": "Al Matar, El Nozha, Cairo Governorate 11736, Egypt", "lat": 31.3438507, "types": ["secondary_school", "school", "point_of_interest", "establishment"], "place_id": "ChIJhznDAIIVWBQRSHr8c3DBaYU"}, {"name": "فندق كنكورد السلام", "formatted_address": "المطار، قسم النزهة، محافظة القاهرة‬،، Egypt", "lat": 31.3438507, "types": ["lodging", "point_of_interest", "establishment"], "place_id": "ChIJZYOYs08VWBQRBPgJTZvjWGo"}, {"name": "princess toys", "formatted_address": "Al Matar, El Nozha, Cairo Governorate, Egypt", "lat": 31.3438507, "types": ["point_of_interest", "store", "establishment"], "place_id": "ChIJqSpPHO8VWBQRezuQybllP-8"}, {"name": "Dr. Hesham Rashed", "formatted_address": "36 El-Nozha, Al Matar, El Nozha, Cairo Governorate, Egypt", "lat": 31.3431688, "types": ["point_of_interest", "establishment"], "place_id": "ChIJLUk9j-UVWBQRaPJOmM8aSKw"}, {"name": "علاج طبيعي بالمنزل", "formatted_address": "مصر الجديدة، المطار، قسم النزهة،، Cairo Governorate, Egypt", "lat": 31.3438507, "types": ["gym", "health", "point_of_interest", "establishment"], "place_id": "ChIJD8OAwS8VWBQRB5lwjHZNazg"}, {"name": "Egipto Tour", "formatted_address": "Triumph square, 9 Mostafa Sadek El Rafae Street, Al Matar, El Nozha, Cairo Governorate 11361, Egypt", "lat": 31.3438507, "types": ["travel_agency", "point_of_interest", "establishment"], "place_id": "ChIJz1YOGw4VWBQR2H8smMZ423g"}, {"name": "مدرسة البطل علي فهمي بالصوالح", "formatted_address": "مصر الجديدة، المطار، قسم النزهة،، Cairo Governorate, Egypt", "lat": 31.3438507, "types": ["school", "point_of_interest", "establishment"], "place_id": "ChIJz-uM8hIVWBQRWR8pB_-1pOE"}, {"name": "Lont Group", "formatted_address": "4A Kamal EL Shafie، Ismailia Square، Heliopolis, Cairo Governorate, Egypt", "lat": 31.3438507, "types": ["travel_agency", "point_of_interest", "establishment"], "place_id": "ChIJ2_pLw4Q_WBQR5wCWEEgCfSw"}, {"name": "Museum of Islamic Art Cairo", "formatted_address": "Port Said, St، El-Darb El-Ahmar, Cairo Governorate 11638, Egypt", "lat": 31.2523518, "types": ["museum", "tourist_attraction", "point_of_interest", "establishment"], "place_id": "ChIJkcgRYn0_WBQRi647N5IQfa0"}, {"name": "Aqsunqur Mosque", "formatted_address": "El-Darb El-Ahmar, Cairo Governorate, Egypt", "lat": 31.2602778, "types": ["mosque", "tourist_attraction", "place_of_worship", "point_of_interest", "establishment"], "place_id": "ChIJ04U7ZqhAWBQRBIfCtlJ5gGA"}, {"name": "عصايروفاكه العالات الساعه", "formatted_address": "مصر الجديدة، المطار، قسم النزهة،، Cairo Governorate, Egypt", "lat": 31.3438507, "types": ["restaurant", "food", "point_of_interest", "establishment"], "place_id": "ChIJLQywCxQVWBQRHOOrmbgTJ9I"}, {"name": "توكيل صيانة وايت وستنجهاوس اتصل 19817", "formatted_address": "ورشه البلاط، 4شاررع، Cairo Governorate 11725, Egypt", "lat": 31.3438507, "types": ["point_of_interest", "establishment"], "place_id": "ChIJ5Yl7XjUVWBQR7gzt5FGjn9U"}, {"name": "New khalifa", "formatted_address": "roxy, 2 Dimsuq street, Al Matar, El Nozha, Cairo Governorate, Egypt", "lat": 31.3438507, "types": ["food", "point_of_interest", "establishment"], "place_id": "ChIJs9rBu-Y_WBQRT34u3gM2KM8"}, {"name": "Mosque of Ibn Tulun", "formatted_address": "Tolon, El-Sayeda Zainab, Cairo Governorate, Egypt", "lat": 31.2493941, "types": ["mosque", "tourist_attraction", "place_of_worship", "point_of_interest", "establishment"], "place_id": "ChIJp0luK01HWBQRUtnkQJOsgkA"}, {"name": "Dr. Mina magdi dental clinic", "formatted_address": "60 Heliopolis st. El ibrahemya 2ndfloor, Egypt", "lat": 31.3438507, "types": ["dentist", "health", "point_of_interest", "establishment"], "place_id": "ChIJyVgcg9oVWBQRsq6fyvZ8Vu0"}, {"name": "OKKA Coffee Machine", "formatted_address": "5 ش ابن سينا - ميدان سفير Heliopolis القاهرة، 11757, Egypt", "lat": 31.3438507, "types": ["home_goods_store", "point_of_interest", "store", "establishment"], "place_id": "ChIJ30hiuoUVWBQRhk5mzfGj5Yc"}, {"name": "حجز فنادق مصر الجديدة", "formatted_address": "مصر الجديدة، Cairo Governorate, Egypt", "lat": 31.3438507, "types": ["travel_agency", "point_of_interest", "establishment"], "place_id": "ChIJI1h83OMVWBQRtdlkKJjuHuw"}, {"name": "Hex Advertising", "formatted_address": "Cairo, Cairo Governorate 11757, Egypt", "lat": 31.3438043, "types": ["point_of_interest", "establishment"], "place_id": "ChIJeZyDI1M_WBQR0uRSvjPywB0"}, {"name": "Jobrp Recruitment Professionals", "formatted_address": "25 El Rahala El Boughdady, Ard El Golf, El Nozha, Cairo Governorate, Egypt", "lat": 31.3438507, "types": ["point_of_interest", "establishment"], "place_id": "ChIJh2xAG40VWBQRoJFc6vPLOog"}, {"name": "A|X Heliopolis City Stars Mall", "formatted_address": "City Stars Mall Heliopolis, Il Cairo, 11757, Egypt", "lat": 31.34367929999999, "types": ["point_of_interest", "clothing_store", "store", "establishment"], "place_id": "ChIJi1N7kww_WBQR2_0TRndb_UU"}, {"name": "Wakami", "formatted_address": "Land of Golf, 7 El shahid Mohamed Gamal Burai Street, Cairo Governorate, Egypt", "lat": 31.3438507, "types": ["restaurant", "food", "point_of_interest", "establishment"], "place_id": "ChIJr2WstHcVWBQRQonRQgboqCY"}, {"name": "كلية البنات جامعة عين شمس", "formatted_address": "Al Matar, El Nozha, Cairo Governorate, Egypt", "lat": 31.3437665, "types": ["school", "point_of_interest", "establishment"], "place_id": "ChIJ9TIiBcQVWBQRnL0x6V1A3A0"}, {"name": "Tarraqi HR, Training & Consultations", "formatted_address": "21 Mohammed Mahmoud Kassim, Al Matar, El Nozha, Cairo Governorate, Egypt", "lat": 31.3429521, "types": ["point_of_interest", "establishment"], "place_id": "ChIJwa-QtdwVWBQRp1eg20dNi8k"}, {"name": "الأكاديمية العربية للاستشارات والتطوير (أكاد)", "formatted_address": "16 ش خليل العروسي - بجوار كنيسة سانت فاتيما, Cairo Governorate, Egypt", "lat": 31.3438507, "types": ["point_of_interest", "establishment"], "place_id": "ChIJ42pMrLIVWBQR_H6bGdFLD4E"}, {"name": "Pottery Cafe", "formatted_address": "4 Mohamed Bayoumi Street، Al Matar, El Nozha, Cairo Governorate, Egypt", "lat": 31.3438507, "types": ["cafe", "food", "point_of_interest", "store", "establishment"], "place_id": "ChIJmeXkw9wVWBQR6xpdj_3KPew"}, {"name": "Move Your Asana", "formatted_address": "Al Matar, El Nozha, Cairo Governorate, Egypt", "lat": 31.3438507, "types": ["gym", "health", "point_of_interest", "establishment"], "place_id": "ChIJyy1ze9IVWBQR6EITHhHFbTU"}, {"name": "La Vie Gym", "formatted_address": "٤حسن منصور _خلف نادي النصر _ميدان المحكمة _مصر، الحديدة، المطار، قسم النزهة، محافظة القاهرة‬،، Egypt", "lat": 31.3438507, "types": ["gym", "health", "point_of_interest", "establishment"], "place_id": "ChIJfe8BkEkVWBQRKi2MKUETkMw"}, {"name": "كلية البنات الإسلامية", "formatted_address": "Al Matar, El Nozha, Cairo Governorate, Egypt", "lat": 31.3438507, "types": ["school", "point_of_interest", "establishment"], "place_id": "ChIJm_9G-NIVWBQRek3167HyMZE"}]