[{"name": "Al-Hussain Mosque", "formatted_address": "Al-Mashhad Al-Hussaini شارع المشهد الحسين، شارع Hasan El-Adawy, امتداد، Egypt", "lat": 30.0476847, "lng": 31.2630585, "types": ["mosque", "tourist_attraction", "place_of_worship", "point_of_interest", "establishment"], "place_id": "ChIJtV4bG2A_WBQRVZjDa4cjz_E"}, {"name": "Qalawun Complex", "formatted_address": "El-Gamaleya, El Gamaliya, Cairo Governorate, Egypt", "lat": 30.0493992, "lng": 31.2609617, "types": ["museum", "tourist_attraction", "point_of_interest", "establishment"], "place_id": "ChIJp5jEuZ9AWBQRkBecrp2NpKQ"}, {"name": "El Nour Mosque", "formatted_address": "كوبرى العباسيه، El-Mohamady, Al Waili, Cairo Governorate, Egypt", "lat": 30.07527779999999, "lng": 31.2830556, "types": ["mosque", "tourist_attraction", "place_of_worship", "point_of_interest", "establishment"], "place_id": "ChIJs-54TJo_WBQRZ-IsdvzUO0A"}, {"name": "Our Lady of Heliopolis Co-Cathedral", "formatted_address": "Nazih Khalifa crossroad، Al Ahram, Heliopolis, Cairo Governorate, Egypt", "lat": 30.0935707, "lng": 31.3251828, "types": ["church", "place_of_worship", "point_of_interest", "establishment"], "place_id": "ChIJJdgh-okVWBQR5TqTmKuQ0IM"}, {"name": "Aqsunqur Mosque", "formatted_address": "El-Darb El-Ahmar, Cairo Governorate, Egypt", "lat": 30.0361111, "lng": 31.2602778, "types": ["mosque", "tourist_attraction", "place_of_worship", "point_of_interest", "establishment"], "place_id": "ChIJ04U7ZqhAWBQRBIfCtlJ5gGA"}, {"name": "Sultan Al-Ashraf Qaytbay Mosque and Mausoleum", "formatted_address": "El-Gamaleya, El Gamaliya, Cairo Governorate, Egypt", "lat": 30.0438889, "lng": 31.275, "types": ["mosque", "tourist_attraction", "place_of_worship", "point_of_interest", "establishment"], "place_id": "ChIJi-5yHWg_WBQRC0czPCgA_vw"}, {"name": "Masged and Madraset Soltan Hassn", "formatted_address": "ميدان القلعة، نهاية شارع محمد علي باشا،، Cairo Governorate, Egypt", "lat": 30.0328679, "lng": 31.2562843, "types": ["tourist_attraction", "point_of_interest", "establishment"], "place_id": "ChIJ96SXHKxAWBQRUpMcIA_KEoQ"}, {"name": "Masjid Al Hakim", "formatted_address": "154 Al Moez Ldin Allah Al Fatmi, El-Gamaleya, El Gamaliya, Cairo Governorate, Egypt", "lat": 30.0545457, "lng": 31.2635091, "types": ["mosque", "tourist_attraction", "place_of_worship", "point_of_interest", "establishment"], "place_id": "ChIJWWupjmI_WBQR_PUFRzr-pCs"}, {"name": "Al-Nasser Mohammed Ibn Kalawoun", "formatted_address": "Passage Inside Salah Al Din, Al Abageyah, El-Khalifa, Cairo Governorate, Egypt", "lat": 30.0292077, "lng": 31.2608701, "types": ["mosque", "tourist_attraction", "place_of_worship", "point_of_interest", "establishment"], "place_id": "ChIJ_z549apAWBQRDy0yFHhKToM"}, {"name": "مسجد سليمان أغا السلحدار", "formatted_address": "Haret Beregwan, El-Gamaleya, El Gamaliya, Cairo Governorate, Egypt", "lat": 30.0524938, "lng": 31.2618766, "types": ["mosque", "tourist_attraction", "place_of_worship", "point_of_interest", "establishment"], "place_id": "ChIJQbWk4p1AWBQRTenwSdcACTk"}, {"name": "Baron Empain Palace", "formatted_address": "El-Orouba, El-Montaza, Heliopolis, Cairo Governorate 11757, Egypt", "lat": 30.0866701, "lng": 31.3303332, "types": ["point_of_interest", "establishment"], "place_id": "ChIJ1_GM8iE-WBQRLNVi-RT7vDA"}, {"name": "Al Kholafaa Al Rashdeen Mosque", "formatted_address": "El Hegaz St, El-Bostan, Heliopolis, Cairo Governorate, Egypt", "lat": 30.1010215, "lng": 31.3243996, "types": ["mosque", "place_of_worship", "point_of_interest", "establishment"], "place_id": "ChIJufJ9io4VWBQRRErdNLAMvpM"}, {"name": "Al-Rifa'i Mosque", "formatted_address": "El-Refaey, El-Darb El-Ahmar, Cairo Governorate, Egypt", "lat": 30.0327091, "lng": 31.2570029, "types": ["mosque", "tourist_attraction", "place_of_worship", "point_of_interest", "establishment"], "place_id": "ChIJQzwG_6tAWBQRHeWM2htky-w"}, {"name": "Sultan al-Mu'ayyad Mosque", "formatted_address": "Al Shrakia, El-Darb El-Ahmar, Cairo Governorate, Egypt", "lat": 30.0433361, "lng": 31.2574361, "types": ["mosque", "tourist_attraction", "place_of_worship", "point_of_interest", "establishment"], "place_id": "ChIJ_er9UqFAWBQRmgGJFKzMGDc"}, {"name": "Mosque of Ibn Tulun", "formatted_address": "Tolon, El-Sayeda Zainab, Cairo Governorate, Egypt", "lat": 30.028691, "lng": 31.2493941, "types": ["mosque", "tourist_attraction", "place_of_worship", "point_of_interest", "establishment"], "place_id": "ChIJp0luK01HWBQRUtnkQJOsgkA"}, {"name": "Masjid Al-Aqmar", "formatted_address": "Al Moez Ldin Allah Al Fatmi, El-Gamaleya, El Gamaliya, Cairo Governorate, Egypt", "lat": 30.0515694, "lng": 31.2619356, "types": ["mosque", "tourist_attraction", "place_of_worship", "point_of_interest", "establishment"], "place_id": "ChIJtYITGp5AWBQR9YlmJYxLAyE"}, {"name": "Amir Khayrbak Funerary Complex", "formatted_address": "Bab El-Wazir, El-Darb El-Ahmar, Cairo Governorate, Egypt", "lat": 30.0356694, "lng": 31.260155, "types": ["mosque", "tourist_attraction", "place_of_worship", "point_of_interest", "establishment"], "place_id": "ChIJ3bT-W6hAWBQRBQJOLnXDdi0"}, {"name": "Abdeen Palace Museum", "formatted_address": "شارع جمعه عابدين،، El-Gomhoreya Square, Rahbet Abdin, Abdeen, Cairo Governorate, Egypt", "lat": 30.0422696, "lng": 31.248544, "types": ["tourist_attraction", "museum", "point_of_interest", "establishment"], "place_id": "ChIJF_ZR9bpAWBQR_WeDJloU-7o"}, {"name": "Mosque of al-Salih Tala'i", "formatted_address": "El-Darb El-Ahmar, Cairo Governorate, Egypt", "lat": 30.04235229999999, "lng": 31.2581069, "types": ["mosque", "tourist_attraction", "place_of_worship", "point_of_interest", "establishment"], "place_id": "ChIJBQ4fuqZAWBQRqAVcHGHzUEc"}, {"name": "Masjid Omar Makram", "formatted_address": "شارع عبد القادر حمزه، قصر الدوبارة،، Qasr El Nil, Egypt", "lat": 30.0431994, "lng": 31.2339485, "types": ["mosque", "tourist_attraction", "place_of_worship", "point_of_interest", "establishment"], "place_id": "ChIJ84ZTFcZAWBQRGoPOjhKB3Jw"}, {"name": "Youssef El Sahaby Masjed", "formatted_address": "El-Higaz، HELIOPOLIS، El Nozha, Cairo Governorate, Egypt", "lat": 30.1114925, "lng": 31.3471512, "types": ["mosque", "place_of_worship", "point_of_interest", "establishment"], "place_id": "ChIJs7u2UdwVWBQRBOoah_XC0qM"}, {"name": "Al Thawra Mosque", "formatted_address": "Almazah, Heliopolis, Cairo Governorate, Egypt", "lat": 30.089369, "lng": 31.3301332, "types": ["mosque", "place_of_worship", "point_of_interest", "establishment"], "place_id": "ChIJxT6QNiA-WBQRL3pMhgW-Y4w"}, {"name": "متحف القوات الجوية المصرية", "formatted_address": "Sheraton Al Matar, El Nozha, Cairo Governorate, Egypt", "lat": 30.0970833, "lng": 31.3526919, "types": ["museum", "tourist_attraction", "point_of_interest", "establishment"], "place_id": "ChIJnxbZwOIVWBQRb_Jw3qPqz7E"}, {"name": "Othman Bin Affan Mosque", "formatted_address": "Al Matar, El Nozha, Cairo Governorate, Egypt", "lat": 30.1031749, "lng": 31.3489552, "types": ["mosque", "place_of_worship", "point_of_interest", "establishment"], "place_id": "ChIJsxMTTOEVWBQRYlicUDhj85s"}, {"name": "Gamal Eldin Al Afhghani Masjed", "formatted_address": "Al Gamea Sq., El-Bostan, Heliopolis, Cairo Governorate, Egypt", "lat": 30.0964855, "lng": 31.3283783, "types": ["mosque", "place_of_worship", "point_of_interest", "establishment"], "place_id": "ChIJwQPloosVWBQRrZF7XUAY2IQ"}, {"name": "Samir Wahba Mosque", "formatted_address": "30 Street 32, Almazah, Heliopolis, Cairo Governorate, Egypt", "lat": 30.0938748, "lng": 31.3317659, "types": ["mosque", "place_of_worship", "point_of_interest", "establishment"], "place_id": "ChIJD5qA1fQVWBQRKuxGRStI6aA"}, {"name": "Mosque of Petroleum Street", "formatted_address": "Eid Mares, Arab Al Hoson, El Matareya, Cairo Governorate, Egypt", "lat": 30.138447, "lng": 31.3071984, "types": ["mosque", "place_of_worship", "point_of_interest", "establishment"], "place_id": "ChIJVTzgGQAVWBQR9D-y87B9PiQ"}, {"name": "El-Haq Mosque", "formatted_address": "Abd El-Hameed Badawi, Sheraton Al Matar, El Nozha, Cairo Governorate, Egypt", "lat": 30.11465609999999, "lng": 31.3439726, "types": ["mosque", "place_of_worship", "point_of_interest", "establishment"], "place_id": "ChIJV4xdQ9sVWBQRvIobe2oO4uI"}, {"name": "مسجد حفيظة الألفى", "formatted_address": "El-Bostan, Heliopolis, Cairo Governorate, Egypt", "lat": 30.0946092, "lng": 31.3255197, "types": ["mosque", "place_of_worship", "point_of_interest", "establishment"], "place_id": "ChIJP_Y3J4oVWBQRZnJ8P7B5fGs"}, {"name": "El Nabawy", "formatted_address": "11 Abd Al Aziz Al Beshri, El-Bostan, Heliopolis, Cairo Governorate, Egypt", "lat": 30.1054698, "lng": 31.3240607, "types": ["mosque", "place_of_worship", "point_of_interest", "establishment"], "place_id": "ChIJNWRevZEVWBQR3p4bDGV9KNI"}, {"name": "Al Forkaan Mosque", "formatted_address": "239 El Hegaz St, Al Matar, El Nozha, Cairo Governorate, Egypt", "lat": 30.11647589999999, "lng": 31.3541151, "types": ["mosque", "place_of_worship", "point_of_interest", "establishment"], "place_id": "ChIJmZ7q_9cVWBQRgYUNR9ppt0M"}, {"name": "Al-Farouq Mosque", "formatted_address": "Sheraton Al Matar, El Nozha, Cairo Governorate, Egypt", "lat": 30.1072883, "lng": 31.3714046, "types": ["mosque", "place_of_worship", "point_of_interest", "establishment"], "place_id": "ChIJw3WmUmkWWBQRPniVqskAEcE"}, {"name": "El Hady", "formatted_address": "17 Al Shahid Kamal Al Fasakhani, Almazah, Heliopolis, Cairo Governorate, Egypt", "lat": 30.0912794, "lng": 31.3471716, "types": ["mosque", "place_of_worship", "point_of_interest", "establishment"], "place_id": "ChIJ2bZiQfkVWBQRogXC0DdMm1o"}, {"name": "مسجد مصطفى كمال رشدى", "formatted_address": "75 El-Sayed El-Marghany, Al Golf, Heliopolis, Cairo Governorate, Egypt", "lat": 30.0840886, "lng": 31.3282096, "types": ["mosque", "place_of_worship", "point_of_interest", "establishment"], "place_id": "ChIJ1QAGASM-WBQRDhSDDKWo9To"}, {"name": "El Hoda Mosque", "formatted_address": "55 El-Nozha, Almazah, Heliopolis, Cairo Governorate, Egypt", "lat": 30.0861469, "lng": 31.3416213, "types": ["mosque", "place_of_worship", "point_of_interest", "establishment"], "place_id": "ChIJVRHbJh0-WBQRNi3gi3KmPVo"}, {"name": "Nasr AlIslam Mosque", "formatted_address": "El-Sayed El-Merghany, Almazah, Heliopolis, Cairo Governorate, Egypt", "lat": 30.0906191, "lng": 31.3424793, "types": ["mosque", "place_of_worship", "point_of_interest", "establishment"], "place_id": "ChIJC7BOgfcVWBQRFBIirnriBWg"}, {"name": "Abdu Mostafa Mosque", "formatted_address": "Almazah, Heliopolis, Cairo Governorate, Egypt", "lat": 30.08489329999999, "lng": 31.3464631, "types": ["mosque", "place_of_worship", "point_of_interest", "establishment"], "place_id": "ChIJD2zCSAI-WBQRbTz2SaZh_zo"}, {"name": "Ittihadia Palace", "formatted_address": "Al Nadi، El-Montaza, Heliopolis, Cairo Governorate, Egypt", "lat": 30.0888643, "lng": 31.3193929, "types": ["tourist_attraction", "premise", "point_of_interest", "establishment"], "place_id": "ChIJuftqUS8-WBQRtM7fDk0QcPk"}, {"name": "Omar Ibn Abdel Aziz Mosque", "formatted_address": "Al Nadi Mosque, Mansheya El-Bakry, Heliopolis, Cairo Governorate, Egypt", "lat": 30.0878153, "lng": 31.3184971, "types": ["mosque", "place_of_worship", "point_of_interest", "establishment"], "place_id": "ChIJxyy8bC8-WBQRh4iuD3tDwPc"}, {"name": "Abdallah bin masoud mosque", "formatted_address": "Gesr Al Suez, El-Nozha, El Nozha, Cairo Governorate, Egypt", "lat": 30.1115119, "lng": 31.3300885, "types": ["mosque", "place_of_worship", "point_of_interest", "establishment"], "place_id": "ChIJrUHhQJUVWBQRy18Y8ST0A5c"}, {"name": "Hafsa Mosque", "formatted_address": "Abdallah Deraz, Al Golf, Nasr City, Cairo Governorate, Egypt", "lat": 30.0823099, "lng": 31.3347905, "types": ["mosque", "place_of_worship", "point_of_interest", "establishment"], "place_id": "ChIJ-WvEpxk-WBQRZxSeL7cH9CA"}, {"name": "Al Tawheed Mosque", "formatted_address": "شارع طه عبدالكريم، Cairo Governorate, Egypt", "lat": 30.1259234, "lng": 31.3043276, "types": ["mosque", "place_of_worship", "point_of_interest", "establishment"], "place_id": "ChIJw8JOFAkVWBQR6J_OIIKToR0"}, {"name": "Mosque-Madrassa of Sultan Hassan", "formatted_address": "El-Darb El-Ahmar, El-Khalifa, Cairo Governorate, Egypt", "lat": 30.0322791, "lng": 31.2561704, "types": ["mosque", "tourist_attraction", "place_of_worship", "point_of_interest", "establishment"], "place_id": "ChIJdRfpCqxAWBQR5IwPTJC5xnQ"}, {"name": "Masjed Manshyet Elbakry", "formatted_address": "Mansheya El-Bakry, Mansheyat as Sadr, Heliopolis, Cairo Governorate, Egypt", "lat": 30.0892365, "lng": 31.3059051, "types": ["mosque", "place_of_worship", "point_of_interest", "establishment"], "place_id": "ChIJYU8L8dI_WBQR1dLrLx1DSXE"}, {"name": "مسجد الصديق", "formatted_address": "9 El Shaheed Sayed Zakaria, Sheraton Al Matar, El Nozha, Cairo Governorate, Egypt", "lat": 30.1010511, "lng": 31.3752127, "types": ["mosque", "place_of_worship", "point_of_interest", "establishment"], "place_id": "ChIJ4SdO_s0XWBQRgE98Fs6CMkc"}, {"name": "مسجد الحق", "formatted_address": "Imam Nasef, Helmeyat an Naam, Ein Shams, Cairo Governorate, Egypt", "lat": 30.1213313, "lng": 31.3300789, "types": ["mosque", "place_of_worship", "school", "point_of_interest", "establishment"], "place_id": "ChIJ0W-oa7gVWBQRp_qrvBBPdhE"}, {"name": "Masjed Alkholafaa Alrashden", "formatted_address": "الجديدة شارع الحجاز بجوار الميريلاند، Egypt", "lat": 30.2628968, "lng": 31.48431119999999, "types": ["mosque", "place_of_worship", "point_of_interest", "establishment"], "place_id": "ChIJ_zVDSKkFWBQRlNQ-tfLhk5g"}, {"name": "Abu El Khair Masjed", "formatted_address": "El-Khalifa El-Maamoun, Mansheya El-Bakry, Heliopolis, Cairo Governorate, Egypt", "lat": 30.0871765, "lng": 31.3044665, "types": ["mosque", "place_of_worship", "point_of_interest", "establishment"], "place_id": "ChIJNzJxlM0_WBQRuVnnpOPeF9Q"}, {"name": "Radisson Blu Hotel, Cairo Heliopolis", "formatted_address": "Abdel Hamid Badawi St Heliopolis, Cairo Governorate 11787, Egypt", "lat": 30.1065093, "lng": 31.3753121, "types": ["lodging", "point_of_interest", "establishment"], "place_id": "ChIJQZJ8fWUWWBQRAUPO9I6SxPg"}, {"name": "Mosque artisans", "formatted_address": "Nabil Al Beshbeshi, Berket an Nasr, Al Salam First, Cairo Governorate, Egypt", "lat": 30.1476136, "lng": 31.4014846, "types": ["mosque", "place_of_worship", "point_of_interest", "establishment"], "place_id": "ChIJsSqiSSgXWBQRMFBHRwEb_uQ"}, {"name": "Mustafa Mahmoud Mosque", "formatted_address": "13 El-Shaikh Saleh Mousa, Ad Doqi, Dokki, Giza Governorate 11213, Egypt", "lat": 30.0526197, "lng": 31.2027883, "types": ["mosque", "place_of_worship", "point_of_interest", "establishment"], "place_id": "ChIJC5EOgTpBWBQR-BibqY_DMG8"}, {"name": "Al Sayeda Zainab Mosque", "formatted_address": "ميدان السيدة زينب، السيدة زينب،، Cairo Governorate, Egypt", "lat": 30.031645, "lng": 31.2421074, "types": ["mosque", "place_of_worship", "point_of_interest", "establishment"], "place_id": "ChIJ7fNp00pHWBQRi7AiHTJBpTg"}, {"name": "مؤسسة الزهراوان", "formatted_address": "4 Al Shahid Moustafa Tabalah, Almazah, Heliopolis, Cairo Governorate, Egypt", "lat": 30.0906521, "lng": 31.34515399999999, "types": ["point_of_interest", "establishment"], "place_id": "ChIJBWy_rvkVWBQRmw2XrIBI0nk"}, {"name": "Abou Bakr Alsadeeq Mosque", "formatted_address": "Talaat Mostafa, Second New Cairo, Cairo Governorate, Egypt", "lat": 30.0723918, "lng": 31.487649, "types": ["mosque", "place_of_worship", "point_of_interest", "establishment"], "place_id": "ChIJ33sARl4YWBQRQeQ0db-2e-w"}, {"name": "Heliopolis Towers Hotel", "formatted_address": "El Shaheed Sayed Zakaria, Sheraton Al Matar, El Nozha, Cairo Governorate 11736, Egypt", "lat": 30.1074763, "lng": 31.3661798, "types": ["lodging", "point_of_interest", "establishment"], "place_id": "ChIJZ9p3820WWBQRmZh2M_MSzOQ"}, {"name": "Hilton Cairo Heliopolis", "formatted_address": "El-Orouba, Sheraton Al Matar, El Nozha, Cairo Governorate, Egypt", "lat": 30.1067298, "lng": 31.3646213, "types": ["lodging", "point_of_interest", "establishment"], "place_id": "ChIJUYFpLCELRRQRzCxbUHFt6Vs"}, {"name": "Wadi Degla Club - Heliopolis", "formatted_address": "Near Wadi Degla club, Sheraton The district mall Sheraton Cairo, 11757, Egypt", "lat": 30.092816, "lng": 31.384004, "types": ["point_of_interest", "establishment"], "place_id": "ChIJfehD0TsWWBQRCsWUf5Uh0RQ"}, {"name": "العيادات الطبية لجمعية مركز الصديق الإسلامى", "formatted_address": "Sheraton Al Matar, El Nozha, Cairo Governorate, Egypt", "lat": 30.1008758, "lng": 31.3752594, "types": ["point_of_interest", "establishment"], "place_id": "ChIJUVSSy2oWWBQRBJOGcHHYHAM"}, {"name": "Shooting Club Mosque", "formatted_address": "Jeddah, Ad Doqi, Dokki, Giza Governorate, Egypt", "lat": 30.0451312, "lng": 31.200453, "types": ["mosque", "place_of_worship", "point_of_interest", "establishment"], "place_id": "ChIJyXXsdzNBWBQRqGnTV4eLRdg"}, {"name": "Baron Hotel Heliopolis", "formatted_address": "14 Al Baroon, El-Montaza, Heliopolis, Cairo Governorate, Egypt", "lat": 30.0860748, "lng": 31.3314609, "types": ["lodging", "point_of_interest", "establishment"], "place_id": "ChIJUbVOACI-WBQRWsi5B7gYfxs"}]