[{"name": "Archer Consulting", "formatted_address": "Mohammed Abou Salem, Almazah, Heliopolis, Cairo Governorate, Egypt", "lat": 31.3456786, "types": ["point_of_interest", "establishment"], "place_id": "ChIJ75C99fgVWBQRxx_dcGBPJPU"}, {"name": "anwar yaya", "formatted_address": "14 Mohammed Abou Salem, Almazah, Heliopolis, Cairo Governorate, Egypt", "lat": 31.3459377, "types": ["electronics_store", "point_of_interest", "store", "establishment"], "place_id": "ChIJgT19V9gVWBQR5T1iLTNi9XI"}, {"name": "Baron Empain Palace", "formatted_address": "El-Orouba, El-Montaza, Heliopolis, Cairo Governorate 11757, Egypt", "lat": 31.3303332, "types": ["point_of_interest", "establishment"], "place_id": "ChIJ1_GM8iE-WBQRLNVi-RT7vDA"}, {"name": "USP Advertising Agency", "formatted_address": "16 ش الشهيد محمد ابو سالم، Almazah, Heliopolis, Cairo Governorate, Egypt", "lat": 31.3463, "types": ["point_of_interest", "establishment"], "place_id": "ChIJwVoQ9PgVWBQRPmKxdIkZUsk"}, {"name": "Beby Stare", "formatted_address": "18 Mohammed Abou Salem, Almazah, Heliopolis, Cairo Governorate, Egypt", "lat": 31.3464121, "types": ["school", "point_of_interest", "establishment"], "place_id": "ChIJk7147fgVWBQRnQ327jdlLLs"}, {"name": "Almaza Dental Clinic", "formatted_address": "2 Mohammed Abou Salem, Almazah, قسم مصر، Cairo Governorate 11361, Egypt", "lat": 31.3450908, "types": ["dentist", "health", "point_of_interest", "establishment"], "place_id": "ChIJsRtDUPgVWBQRijQn5L5cMig"}, {"name": "Gayer-Anderson Museum", "formatted_address": "أحمد بن طولون طولون، As Sayedah، El-Sayeda Zainab, Egypt", "lat": 31.250744, "types": ["tourist_attraction", "museum", "point_of_interest", "establishment"], "place_id": "ChIJp0luK01HWBQRf55ldlCn9LE"}, {"name": "صيدلية د نرمين", "formatted_address": "14 Mohammed Abou Salem, Almazah, Heliopolis, Cairo Governorate, Egypt", "lat": 31.345919, "types": ["point_of_interest", "clothing_store", "store", "establishment"], "place_id": "ChIJs86G9PgVWBQRlpTxDw7bH_I"}, {"name": "Château ze X Poche", "formatted_address": "9 mohamed abo salem, street, Almazah, Cairo Governorate, Egypt", "lat": 31.34552099999999, "types": ["point_of_interest", "establishment"], "place_id": "ChIJF5SinnsVWBQRgTnDelHr6eo"}, {"name": "El Kalaoui Consulting إستشارات القلعاوي", "formatted_address": "19-21 El-Hariry, Almazah, Heliopolis, Cairo Governorate, Egypt", "lat": 31.3462971, "types": ["point_of_interest", "establishment"], "place_id": "ChIJxbTIjfgVWBQRwObku6VVPMM"}, {"name": "Archer Finance Lease", "formatted_address": "Mohamed Abu Salem, Almazah, Heliopolis, Cairo Governorate, Egypt", "lat": 31.3457922, "types": ["finance", "point_of_interest", "establishment"], "place_id": "ChIJYd_HehEVWBQRJM5_TPTfA18"}, {"name": "CiSS", "formatted_address": "15 Mohammed Abou Salem, Almazah, Heliopolis, Cairo Governorate, Egypt", "lat": 31.3461332, "types": ["point_of_interest", "establishment"], "place_id": "ChIJmWqA8_gVWBQRIbUk_tDSDYU"}, {"name": "The Egyptian Museum", "formatted_address": "شارع ماريت باشا، ميدان التحرير، Egypt", "lat": 31.23361389999999, "types": ["museum", "tourist_attraction", "point_of_interest", "establishment"], "place_id": "ChIJw741VYhBWBQRD2Z6OiulDVI"}, {"name": "SIA Design Studio", "formatted_address": "4 Helmy El-Masry, Almazah, Heliopolis, Cairo Governorate, Egypt", "lat": 31.34491539999999, "types": ["point_of_interest", "establishment"], "place_id": "ChIJO3zZQvgVWBQRy7Ge12m82So"}, {"name": "Giggles Nursery", "formatted_address": "٧ شارع، Mohammed Abou Salem, ،الماظة،قسم مصر الجديدة،، Cairo Governorate, Egypt", "lat": 31.3457422, "types": ["school", "point_of_interest", "establishment"], "place_id": "ChIJy6le9vgVWBQRjhbtB48EC6w"}, {"name": "Bab El Nasr", "formatted_address": "Bab El-Nasr, El-Gamaleya, El Gamaliya, Cairo Governorate, Egypt", "lat": 31.2650414, "types": ["tourist_attraction", "point_of_interest", "establishment"], "place_id": "ChIJ2yl_V2I_WBQResgQVK-3o1s"}, {"name": "شكشك", "formatted_address": "Almazah, Heliopolis, Cairo Governorate, Egypt", "lat": 31.3458103, "types": ["point_of_interest", "establishment"], "place_id": "ChIJzSLVNDQVWBQRiQSUuT319ZM"}, {"name": "Bab al-Futuh", "formatted_address": "Bab Al Foutoh, El-Gamaleya, El Gamaliya, Cairo Governorate, Egypt", "lat": 31.2634081, "types": ["tourist_attraction", "point_of_interest", "establishment"], "place_id": "ChIJI4VwkGI_WBQROZgXVyTN_IE"}, {"name": "Atef Barber", "formatted_address": "22 Mohammed Ebeid, Almazah, Heliopolis, Cairo Governorate, Egypt", "lat": 31.3453506, "types": ["hair_care", "health", "point_of_interest", "establishment"], "place_id": "ChIJFVg_88EVWBQRIT4VE0n_aGk"}, {"name": "ATC", "formatted_address": "17 Galal Al Din Al Deswqi, Almazah, Heliopolis, Cairo Governorate, Egypt", "lat": 31.34601, "types": ["point_of_interest", "establishment"], "place_id": "ChIJFaUGMasVWBQRedwli1uUgJs"}, {"name": "Chill out Kids Park Almaza", "formatted_address": "Almazah, Heliopolis, Cairo Governorate, Egypt", "lat": 31.3470468, "types": ["park", "point_of_interest", "establishment"], "place_id": "ChIJD7Ak2G8VWBQRI1esLNmJkO0"}, {"name": "مسجد آل البيت", "formatted_address": "El-Hariry, ، مصر الجديدة،، Heliopolis, Cairo Governorate, Egypt", "lat": 31.3475725, "types": ["mosque", "place_of_worship", "point_of_interest", "establishment"], "place_id": "ChIJzauAp_gVWBQRTV9LlD3ZyFE"}, {"name": "Artel Inc Middle East", "formatted_address": "Almazah, Heliopolis, Cairo Governorate, Egypt", "lat": 31.346144, "types": ["point_of_interest", "establishment"], "place_id": "ChIJ1yDPYfgVWBQRh-jY6AwHEPU"}, {"name": "مكتبة الرحاب", "formatted_address": "84 Omar Ibn El-Khattab, Almazah, Heliopolis, Cairo Governorate, Egypt", "lat": 31.344759, "types": ["point_of_interest", "establishment"], "place_id": "ChIJAQDEaPgVWBQRqdfjvG3515A"}, {"name": "ميجا تون", "formatted_address": "97 Omar Ibn El-Khattab, Almazah, Heliopolis, Cairo Governorate, Egypt", "lat": 31.3444699, "types": ["point_of_interest", "establishment"], "place_id": "ChIJhQbSc_gVWBQRYd3VS7qUOKc"}, {"name": "Silvia Advertising", "formatted_address": "7 Mohamed Rashid Reda St.، Almazah, Heliopolis, Cairo Governorate, Egypt", "lat": 31.3428379, "types": ["point_of_interest", "establishment"], "place_id": "ChIJo3Nj-PcVWBQRFtjayxhwiRs"}, {"name": "Egyptian American Co. For Import", "formatted_address": "26 Galal El Din El Desouqy st.، Almazah, Heliopolis, Cairo Governorate, Egypt", "lat": 31.3475, "types": ["point_of_interest", "establishment"], "place_id": "ChIJlbxtx_gVWBQR-OSOdEABc18"}, {"name": "Kalex Co. Ltd.", "formatted_address": "22 ش الشهيد محمد قناية، Almazah, Heliopolis, Cairo Governorate, Egypt", "lat": 31.347, "types": ["point_of_interest", "establishment"], "place_id": "ChIJm8TjF_kVWBQR1Wq6T7KTHVQ"}, {"name": "Marly", "formatted_address": "Omar Ibn El Khattab St.، Almazah, Heliopolis, Cairo Governorate, Egypt", "lat": 31.3439627, "types": ["point_of_interest", "establishment"], "place_id": "ChIJ_____yY-WBQRFBhbj2g_elI"}, {"name": "Yokal", "formatted_address": "72 El-Horeya, st، Heliopolis, Cairo Governorate 11361, Egypt", "lat": 31.3476326, "types": ["restaurant", "food", "point_of_interest", "establishment"], "place_id": "ChIJrRd6xvgVWBQRc_PtNr_xnGA"}, {"name": "Conut", "formatted_address": "74 El-Horeya, Almazah, Heliopolis, Cairo Governorate, Egypt", "lat": 31.3476879, "types": ["food", "point_of_interest", "establishment"], "place_id": "ChIJa915xfgVWBQROuRnv4SORB4"}, {"name": "The Bunker", "formatted_address": "Almazah, Heliopolis, Cairo Governorate, Egypt", "lat": 31.3464799, "types": ["point_of_interest", "establishment"], "place_id": "ChIJKdVCWIAVWBQRKWsBCKGl_jM"}, {"name": "Social Nuts Digital Marketing & Advertising Agency", "formatted_address": "Almazah, Heliopolis, Cairo Governorate, Egypt", "lat": 31.3467226, "types": ["point_of_interest", "establishment"], "place_id": "ChIJV2_DgD0VWBQRCoUV-5x9Wi0"}, {"name": "Heliopolis Home", "formatted_address": "28 Al Shahid John Alias Gamal Rd, Almazah, Heliopolis, Cairo Governorate, Egypt", "lat": 31.3463849, "types": ["point_of_interest", "establishment"], "place_id": "ChIJsSVH4JMVWBQRGLs_XwrEVT0"}, {"name": "Papa John's Pizza", "formatted_address": "89 Omar Ibn AlKhattab, Street, Almazah, Heliopolis, Cairo Governorate, Egypt", "lat": 31.3434634, "types": ["meal_delivery", "meal_takeaway", "restaurant", "food", "point_of_interest", "establishment"], "place_id": "ChIJT27LFvgVWBQRH9xAXq14950"}, {"name": "حضانة كيدز بلانت", "formatted_address": "24 محمد غنيم، Al Matar, El Nozha, Cairo Governorate, Egypt", "lat": 31.3426145, "types": ["point_of_interest", "establishment"], "place_id": "ChIJq6pnTDs-WBQRE93lEGcn8t4"}, {"name": "Geologist for Mining and Petroleum Services", "formatted_address": "87 Omar Ibn El-Khattab, st, Heliopolis, Cairo Governorate, Egypt", "lat": 31.3432847, "types": ["point_of_interest", "establishment"], "place_id": "ChIJAT_6TIkVWBQRasCjED3FM4g"}, {"name": "دكتور سمح رشدي جراحة مخ واعصاب", "formatted_address": "3 حلمي المصري، الماظة، قسم مصر الجديدة، محافظة القاهرة‬،، Egypt", "lat": 31.3448501, "types": ["health", "point_of_interest", "establishment"], "place_id": "ChIJQ5Q2Yp4VWBQRSGNpcSTeky0"}, {"name": "مدرسة السلحدار الاعدادية المتميزة", "formatted_address": "2 Al Fi Shehata, الماظة، قسم مصر الجديدة، محافظة القاهرة‬،، Egypt", "lat": 31.3448756, "types": ["school", "point_of_interest", "establishment"], "place_id": "ChIJ0xUWfrMVWBQR35-jndIMzCQ"}, {"name": "The Consultant Real estate advisory", "formatted_address": "19 El Shahid, Helmy El-Masry, Almazah, Heliopolis, Cairo Governorate 11361, Egypt", "lat": 31.3461812, "types": ["real_estate_agency", "point_of_interest", "establishment"], "place_id": "ChIJJe5I2GUVWBQR9-uy1IQ57kU"}, {"name": "Burger King - Tivoli Dome Heliopolis", "formatted_address": "Tivoli Dome, Omar Ibn El Khattab St، Almazah, Heliopolis, Cairo Governorate, Egypt", "lat": 31.3478102, "types": ["restaurant", "food", "point_of_interest", "establishment"], "place_id": "ChIJ8asB1I8_WBQR-CVqCM1YprU"}, {"name": "حزب مستقبل وطن", "formatted_address": "104-106 Omar Ibn El-Khattab, Almazah, Heliopolis, Cairo Governorate, Egypt", "lat": 31.3454644, "types": ["point_of_interest", "establishment"], "place_id": "ChIJnRbqcgI-WBQRi8fNWmBnpsA"}, {"name": "Baby Pooh Nursery", "formatted_address": "7 Mohamed Mahmoud Ezzat St.، Al Matar, HELIOPOLIS، Cairo Governorate, Egypt", "lat": 31.3466904, "types": ["point_of_interest", "establishment"], "place_id": "ChIJ_Ul0y9sVWBQRMRdZDWqKFcE"}, {"name": "Areيka", "formatted_address": "41 Al Shahid Mohammed Qenaya, Almazah, Heliopolis, Cairo Governorate, Egypt", "lat": 31.3462542, "types": ["cafe", "food", "point_of_interest", "establishment"], "place_id": "ChIJm4jU-vgVWBQRzDt02PAih2I"}, {"name": "Uncle Tonny", "formatted_address": "62 El-Horeya, Almazah, Heliopolis, Cairo Governorate, Egypt", "lat": 31.3463052, "types": ["restaurant", "food", "point_of_interest", "establishment"], "place_id": "ChIJwfyUmvgVWBQRueZtJ5GQWZU"}, {"name": "Baladi Resturant&Cafe", "formatted_address": "21 Galal Al Din Al Deswqi, Almazah, Heliopolis, Cairo Governorate, Egypt", "lat": 31.3463973, "types": ["restaurant", "food", "point_of_interest", "establishment"], "place_id": "ChIJP7FLK40VWBQRxrQS7lE_D7w"}, {"name": "Citystars Heliopolis", "formatted_address": "Citystars, Cairo Governorate 11771, Egypt", "lat": 31.3458082, "types": ["shopping_mall", "point_of_interest", "establishment"], "place_id": "ChIJo0ecE_gVWBQRGGrouhZFdME"}, {"name": "دكتور مخ واعصاب في مصر الجديدة", "formatted_address": "70شارع الميرغنى ,عمارة مطعم الدهان, 11835، Heliopolis, Egypt", "lat": 31.3329183, "types": ["hospital", "doctor", "health", "point_of_interest", "establishment"], "place_id": "ChIJ4_4rxhg-WBQR7gVdzGRZRmg"}, {"name": "Mihy Designs", "formatted_address": "الماظة، Almazah, Heliopolis, Cairo Governorate, Egypt", "lat": 31.3454399, "types": ["point_of_interest", "establishment"], "place_id": "ChIJVVVVVfYVWBQRqQDEl42Edn8"}, {"name": "Basement yahia", "formatted_address": "14 Abd El-Qader Hamdy, Almazah, Heliopolis, Cairo Governorate, Egypt", "lat": 31.3457735, "types": ["point_of_interest", "establishment"], "place_id": "ChIJP6EwM_gVWBQRIsU14O0OejM"}, {"name": "United dental clinic", "formatted_address": "11 Galal Al Din Al Desouky, Almazah, Heliopolis, Cairo Governorate, Egypt", "lat": 31.345614, "types": ["dentist", "health", "point_of_interest", "establishment"], "place_id": "ChIJAV1UYMgVWBQRgTpxFwQFWUs"}, {"name": "SRT foundation مؤسسة سامح رشدى تاوضروس", "formatted_address": "Helmy El-Masry, Almazah, Heliopolis, Cairo Governorate, Egypt", "lat": 31.3455229, "types": ["hospital", "health", "point_of_interest", "establishment"], "place_id": "ChIJ1yDPYfgVWBQRgtxtLCtyrfM"}, {"name": "Mosque-Madrassa of Sultan Hassan", "formatted_address": "El-Darb El-Ahmar, El-Khalifa, Cairo Governorate, Egypt", "lat": 31.2561704, "types": ["mosque", "tourist_attraction", "place_of_worship", "point_of_interest", "establishment"], "place_id": "ChIJdRfpCqxAWBQR5IwPTJC5xnQ"}, {"name": "Beit Network", "formatted_address": "19 Helmy El-Masry, Almazah, Heliopolis, Cairo Governorate, Egypt", "lat": 31.3452671, "types": ["real_estate_agency", "point_of_interest", "establishment"], "place_id": "ChIJGS91ne0VWBQRqXqg5eLtky0"}, {"name": "Abou Salem", "formatted_address": "122 El-Abaseya, El-Abaseya El-Bahareya, Al Waili, Cairo Governorate 11112, Egypt", "lat": 31.2826865, "types": ["clothing_store", "point_of_interest", "store", "establishment"], "place_id": "ChIJjUCvSpg_WBQRBwX4vSUZukA"}, {"name": "Boho and More", "formatted_address": "Galal Al Din Al Desouky, Almazah, Heliopolis, Cairo Governorate, Egypt", "lat": 31.345697, "types": ["furniture_store", "home_goods_store", "point_of_interest", "store", "establishment"], "place_id": "ChIJuSrJ-PgVWBQR3CAKZzDKIxs"}, {"name": "Kiddie Land Preschool", "formatted_address": "24, Mostafa Ragab Street, Cairo Governorate, Egypt", "lat": 31.3312435, "types": ["school", "point_of_interest", "establishment"], "place_id": "ChIJc5AM8Bc-WBQR9ImkNilnN5w"}, {"name": "Cubes Nursery", "formatted_address": "30 ش الشهيد احمد وصفى، مصر الجديدة، القاهرة، Cairo Governorate, Egypt", "lat": 31.346439, "types": ["school", "point_of_interest", "establishment"], "place_id": "ChIJuY1QsgM-WBQR5syuKOIEVbI"}, {"name": "Rio Nursery Heliopolis", "formatted_address": "68 Abou Bakr El-Sedeek, Almazah, Heliopolis, Cairo Governorate, Egypt", "lat": 31.33932399999999, "types": ["point_of_interest", "establishment"], "place_id": "ChIJ7xOtndwVWBQRfh1QKLOwfEM"}, {"name": "Snow White Nursery", "formatted_address": "14 ش محمد الخضر حسين، Al Golf, Nasr City, Cairo Governorate, Egypt", "lat": 31.332579, "types": ["school", "point_of_interest", "establishment"], "place_id": "ChIJ68GCaxg-WBQRlMStesxVRqY"}]