[{"name": "Ittihadia Palace", "formatted_address": "Al Nadi، El-Montaza, Heliopolis, Cairo Governorate, Egypt", "lat": 30.0888643, "lng": 31.3193929, "types": ["tourist_attraction", "premise", "point_of_interest", "establishment"], "place_id": "ChIJuftqUS8-WBQRtM7fDk0QcPk"}, {"name": "Baron Empain Palace", "formatted_address": "El-Orouba, El-Montaza, Heliopolis, Cairo Governorate 11757, Egypt", "lat": 30.0866701, "lng": 31.3303332, "types": ["point_of_interest", "establishment"], "place_id": "ChIJ1_GM8iE-WBQRLNVi-RT7vDA"}, {"name": "Merryland Park", "formatted_address": "El-Montaza, Heliopolis, Cairo Governorate, Egypt", "lat": 30.0979257, "lng": 31.3189812, "types": ["park", "tourist_attraction", "point_of_interest", "establishment"], "place_id": "ChIJH9vwOoYVWBQR90_jkGUJbSU"}, {"name": "Smile House Dental Center - Dr Moataz Hamada", "formatted_address": "St., Behind Republic Presidency، 6 Mohammed Galal, Heliopolis, Cairo Governorate, Egypt", "lat": 30.086965, "lng": 31.3237243, "types": ["dentist", "doctor", "health", "point_of_interest", "establishment"], "place_id": "ChIJmeXkw9wVWBQR-FBQXnjgrNE"}, {"name": "El Korba Square - الكوربة مصر الجديدة", "formatted_address": "7 Abo Al Houl ST., Korba Square, المنتزه، قسم مصر الجديدة، محافظة القاهرة‬،, المنتزه، قسم مصر الجديدة، محافظة, القاهرة‬،, Egypt", "lat": 30.0910293, "lng": 31.324302, "types": ["point_of_interest", "establishment"], "place_id": "ChIJUduKY5k_WBQRwgxGmYZDrhU"}, {"name": "Tartoussieh Engineering & Trading Co.", "formatted_address": "6 ش محمد جلال،، El-Attar, قسم مصر الجديدة، Cairo Governorate, Egypt", "lat": 30.07090329999999, "lng": 31.2512578, "types": ["point_of_interest", "establishment"], "place_id": "ChIJsQLiOiQ-WBQRXSVpyL1GGKU"}, {"name": "Al- Masrawy", "formatted_address": "10 abbas helmy st، Al Golf, Heliopolis, Cairo Governorate, Egypt", "lat": 30.0836345, "lng": 31.322732, "types": ["park", "point_of_interest", "establishment"], "place_id": "ChIJFS2i1yQ-WBQR6HK06I6QuiY"}, {"name": "Saint Mary Church - Ard El-Golf", "formatted_address": "Shams Al Din Al Zahabi, Al Golf, Nasr City, Cairo Governorate, Egypt", "lat": 30.0825805, "lng": 31.33328239999999, "types": ["church", "place_of_worship", "point_of_interest", "establishment"], "place_id": "ChIJz961RBg-WBQR2HK25harflQ"}, {"name": "GMRC", "formatted_address": "57 ميدان روكسى، El-Montaza, Heliopolis, Cairo Governorate, Egypt", "lat": 30.0923941, "lng": 31.31597339999999, "types": ["doctor", "health", "point_of_interest", "establishment"], "place_id": "ChIJdaNCCSk-WBQR2ELxMUIXQn8"}, {"name": "Church of the Great Saint Anba Paula in Ard El Golf - كنيسة القديس الأنبا بولا أرض الجولف", "formatted_address": "شارع دار الدفاع الجوي٫، Al Golf, Nasr City, Cairo Governorate, Egypt", "lat": 30.07787909999999, "lng": 31.3366482, "types": ["church", "place_of_worship", "point_of_interest", "establishment"], "place_id": "ChIJLeVvNRc-WBQRt7yPgkdjmCw"}, {"name": "Nshape ارض الجولف", "formatted_address": "Asmaa Fahmi, Al Golf, Nasr City, Cairo Governorate, Egypt", "lat": 30.079046, "lng": 31.3382582, "types": ["point_of_interest", "establishment"], "place_id": "ChIJK24uUhc-WBQROSbDAGuBic8"}, {"name": "Dr. Jamal Aborgilh Clinic", "formatted_address": "3 Damanhour, El-Bostan, Heliopolis, Cairo Governorate, Egypt", "lat": 30.0965551, "lng": 31.3310337, "types": ["doctor", "health", "point_of_interest", "establishment"], "place_id": "ChIJ83qMVYsVWBQRzvu95688jhw"}, {"name": "Triumph Plaza Hotel", "formatted_address": "Intersection Of Ihsan Abdel Kodous St. with, El-Khalifa El-Maamoun, st, Cairo Governorate 11757, Egypt", "lat": 30.0864639, "lng": 31.3060439, "types": ["lodging", "point_of_interest", "establishment"], "place_id": "ChIJdQaFc80_WBQRaTzpSBv1-BQ"}, {"name": "Fit & Fix Bridgestone", "formatted_address": "Heliopolis, Total Gas station Cut Cross Demashq St. &, Nazih Khalifa, St, Cairo Governorate, Egypt", "lat": 30.09489, "lng": 31.3240831, "types": ["car_repair", "point_of_interest", "store", "establishment"], "place_id": "ChIJ12BqGrc_WBQRrEixG_sKm4o"}, {"name": "Hilton Cairo Heliopolis", "formatted_address": "El-Orouba, Sheraton Al Matar, El Nozha, Cairo Governorate, Egypt", "lat": 30.1067298, "lng": 31.3646213, "types": ["lodging", "point_of_interest", "establishment"], "place_id": "ChIJUYFpLCELRRQRzCxbUHFt6Vs"}, {"name": "McDonald's Merghany", "formatted_address": "110, Merghani, 110 Al Merghani, St, Heliopolis, Cairo Governorate, Egypt", "lat": 30.08742, "lng": 31.334673, "types": ["restaurant", "food", "point_of_interest", "establishment"], "place_id": "ChIJlZQvbyc-WBQR-Rxu40GPFq8"}, {"name": "Future Academy", "formatted_address": "El Hegaz St, Al Matar, El Nozha, Cairo Governorate, Egypt", "lat": 30.1129346, "lng": 31.3470541, "types": ["university", "point_of_interest", "establishment"], "place_id": "ChIJzzcvC9wVWBQRdvGmIP0RKH8"}, {"name": "بنك فيصل الاسلامى المصرى", "formatted_address": "شارع السيد مسعود قسم الزيتون، AZ Zaytoun Al Gharbeyah, Cairo Governorate, Egypt", "lat": 30.1108567, "lng": 31.3041388, "types": ["atm", "finance", "point_of_interest", "establishment"], "place_id": "ChIJTwwGGHcVWBQR1j42wTazuMg"}, {"name": "Post Office - Highkestep", "formatted_address": "Sheraton Al Matar, El Nozha, Cairo Governorate, Egypt", "lat": 30.1388809, "lng": 31.4213744, "types": ["post_office", "finance", "point_of_interest", "establishment"], "place_id": "ChIJ-wyUFY9AWBQRgKyCEwcHhi4"}, {"name": "بنك فيصل الاسلامى المصرى", "formatted_address": "بجوار الحديقة الدولية، امتداد، Abbas El-Akkad, Egypt", "lat": 30.0483764, "lng": 31.3389295, "types": ["atm", "finance", "point_of_interest", "establishment"], "place_id": "ChIJ1STccWI-WBQR3-fhqdEYIiY"}, {"name": "Cairo Basketball Zone", "formatted_address": "23A حارة يوسف عباس، Ash Sharekat, Nasr City, Cairo Governorate, Egypt", "lat": 30.0743154, "lng": 31.3163028, "types": ["point_of_interest", "establishment"], "place_id": "ChIJy_xjBg5BWBQRsvSo-ZVDny0"}, {"name": "TOLIP El Galaa - Heliopolis", "formatted_address": "El Orouba St, Sheraton Al Matar, El Nozha, Cairo Governorate, Egypt", "lat": 30.0985969, "lng": 31.3490226, "types": ["lodging", "point_of_interest", "establishment"], "place_id": "ChIJvyeGu-QVWBQRkPqc2rg6IsE"}, {"name": "Egypt Notary Public ترجمة معتمدة و توثيق نوتاري", "formatted_address": "7 Al Ashraf Shaaban, Al Manteqah Al Oula, Nasr City, Cairo Governorate, Egypt", "lat": 30.0672038, "lng": 31.3333451, "types": ["finance", "point_of_interest", "establishment"], "place_id": "ChIJXWonOGo-WBQRgTc9tuWbVTs"}, {"name": "فايزر مصر", "formatted_address": "25 ش Fawzi Al Motaee Basa, Almazah, Heliopolis, Cairo Governorate, Egypt", "lat": 30.0950457, "lng": 31.3381969, "types": ["health", "point_of_interest", "establishment"], "place_id": "ChIJs-plSfEVWBQRZVdujOl2zII"}, {"name": "Gawharet El Ahram", "formatted_address": "13 ش جلال، Al Kom Al Akhdar, El Omraniya, Giza Governorate, Egypt", "lat": 29.9911706, "lng": 31.1543385, "types": ["lodging", "point_of_interest", "establishment"], "place_id": "ChIJmztFKJJFWBQRoLevnCGMk5Q"}, {"name": "Redcon Space", "formatted_address": "الطريق الدائري،, Industrial Area, Third New Cairo, Cairo Governorate, Egypt", "lat": 29.9604242, "lng": 31.488398, "types": ["point_of_interest", "establishment"], "place_id": "ChIJmzBSqxAlWBQRnkTa1CAeWXU"}, {"name": "بنك فيصل الاسلامى المصرى", "formatted_address": "Street 9, Al Abageyah, El Mukkatam, Cairo Governorate, Egypt", "lat": 30.0096177, "lng": 31.3047782, "types": ["atm", "finance", "point_of_interest", "establishment"], "place_id": "ChIJ8Upam9Y4WBQRUdC-jbSRB3w"}, {"name": "Elkorba Elgedidah", "formatted_address": "Badr, Cairo Governorate, Egypt", "lat": 30.1423454, "lng": 31.6763077, "types": ["lodging", "point_of_interest", "establishment"], "place_id": "ChIJDR8Lp6b3VxQRUhpvn76pKsw"}, {"name": "بنك فيصل الاسلامى المصرى", "formatted_address": "شارع البحث الجنائي، صقر قريش، قسم، El Basatin, Cairo Governorate, Egypt", "lat": 29.984567, "lng": 31.28588439999999, "types": ["atm", "finance", "point_of_interest", "establishment"], "place_id": "ChIJYy-ATvM4WBQRzAmA5o8k5HY"}, {"name": "Arab Academy for Science, Technology & Maritime Transport, Smart Village Campus", "formatted_address": "Al Giza Desert, Giza Governorate, Egypt", "lat": 30.0817439, "lng": 31.017934, "types": ["university", "local_government_office", "point_of_interest", "establishment"], "place_id": "ChIJf1KfaI5bWBQRWGEZOM5VqKI"}, {"name": "شقق للبيع بالاسكندرية", "formatted_address": "El-Gaish Rd, العصافرة بحري، Montaza 2, Alexandria Governorate, Egypt", "lat": 31.2728236, "lng": 30.0005776, "types": ["point_of_interest", "establishment"], "place_id": "ChIJhZIjX3HQ9RQRKpy9QixByP0"}]