[{"name": "دكتور محمد عبد الحميد محمد نصر الدين", "formatted_address": "32 ش, El-Khalifa El-Maamoun, Mansheya El-Bakry, Heliopolis, Cairo Governorate, Egypt", "lat": 30.0872384, "lng": 31.3052711, "types": ["health", "point_of_interest", "establishment"], "place_id": "ChIJJwxrg80_WBQRRAf0itNE_cI"}, {"name": "Masjid Nasr al-Din", "formatted_address": "الهرم، نصر الدين، Egypt", "lat": 30.01091, "lng": 31.2045997, "types": ["mosque", "place_of_worship", "point_of_interest", "establishment"], "place_id": "ChIJmdJC5e9GWBQRwO9m-pHsi5c"}, {"name": "محمد نصر الدين المأذون الشرعي بالمطريه", "formatted_address": "٢٤ ش ابوفايد متفرع من شارع المطراوي المطريه القاهره، Cairo Governorate 11111, Egypt", "lat": 30.1176262, "lng": 31.3085458, "types": ["local_government_office", "point_of_interest", "establishment"], "place_id": "ChIJj_PrLhcVWBQRA0HxX620ggc"}, {"name": "Dr. Mohammad Hasan Nasr Sldeen", "formatted_address": "Al Manteqah as Sadesah, Madinet Nasr, Cairo Governorate, Egypt", "lat": 30.0576561, "lng": 31.3424862, "types": ["health", "point_of_interest", "establishment"], "place_id": "ChIJAWpw-W8-WBQR9nACaO4QE1o"}, {"name": "مسجد نصر الإسلام", "formatted_address": "٨٩ شارع محمد إمام ، عين شمس،، Ein Shams, Cairo Governorate, Egypt", "lat": 30.1233367, "lng": 31.3340745, "types": ["mosque", "place_of_worship", "point_of_interest", "establishment"], "place_id": "ChIJreJLX8gVWBQRzDUShZEWiLs"}, {"name": "مسجد سيدي نصر الدين", "formatted_address": "Sidna Nasr, Nasr Path, Bulaq, Cairo Governorate, Egypt", "lat": 30.0604644, "lng": 31.2356319, "types": ["mosque", "place_of_worship", "point_of_interest", "establishment"], "place_id": "ChIJkTe4M3xBWBQR_EnE6In_WRE"}, {"name": "Salah Al-Din Al-Ayoubi Castle, Salah Salem Street, Cairo", "formatted_address": "Salah Salem St, Al Abageyah, El-Khalifa, Cairo Governorate, Egypt", "lat": 30.0290436, "lng": 31.2594688, "types": ["point_of_interest", "establishment"], "place_id": "ChIJY-3CkKxAWBQRby736eSW2y8"}, {"name": "Al-Nasser Mohammed Ibn Kalawoun", "formatted_address": "Passage Inside Salah Al Din, Al Abageyah, El-Khalifa, Cairo Governorate, Egypt", "lat": 30.0292077, "lng": 31.2608701, "types": ["mosque", "tourist_attraction", "place_of_worship", "point_of_interest", "establishment"], "place_id": "ChIJ_z549apAWBQRDy0yFHhKToM"}, {"name": "مستشفي جمال الدين الافغاني", "formatted_address": "El-Bostan, Heliopolis, Cairo Governorate, Egypt", "lat": 30.0998626, "lng": 31.3284285, "types": ["hospital", "health", "point_of_interest", "establishment"], "place_id": "ChIJ5_Gkd4sVWBQR1vvis4a9abI"}, {"name": "د. حسام الدين مصطفى", "formatted_address": "7 Mohammed Gomaa, street, El Nozha, Cairo Governorate, Egypt", "lat": 30.1106114, "lng": 31.3403356, "types": ["pharmacy", "health", "point_of_interest", "store", "establishment"], "place_id": "ChIJtYxRKtIVWBQR27ZcZutG5KY"}, {"name": "د/ محمد نصر الدين (طب و جراحة العيون والفيمتو ليزر)", "formatted_address": "المحور المركزي، قسم أول 6 أكتوبر، اول 6 أكتوبر،، Giza Governorate, Egypt", "lat": 29.9741161, "lng": 30.9420964, "types": ["health", "point_of_interest", "establishment"], "place_id": "ChIJnd1bmGxXWBQRZuT9PdJPdsc"}, {"name": "عيادة د. حسام الدين محمد على إستشارى جراحة التجميل و الليزر", "formatted_address": "7 Ghernata, El-Montaza, Heliopolis, Cairo Governorate, Egypt", "lat": 30.0935012, "lng": 31.3185532, "types": ["doctor", "health", "point_of_interest", "establishment"], "place_id": "ChIJI_5DFSg-WBQRcusCgbDlFIE"}, {"name": "صيدلية د/ محمد حازم", "formatted_address": "19 Gamal El-Deen Afify, Al Manteqah as Sadesah, Nasr City, Cairo Governorate, Egypt", "lat": 30.0646077, "lng": 31.3534851, "types": ["pharmacy", "health", "point_of_interest", "store", "establishment"], "place_id": "ChIJOxKjUnU-WBQRz48Nvc2M7TE"}, {"name": "شكمانات الشيخ محمد", "formatted_address": "يور نادي المقاولين، ٣٢ شارع نصر الدين ابو الفرج؛ امام، Egypt", "lat": 30.0674331, "lng": 31.2448667, "types": ["car_repair", "point_of_interest", "establishment"], "place_id": "ChIJL1vxKs1BWBQRozTKq34hjw0"}]