[{"name": "Gamal Abdel Nasser Museum", "formatted_address": "4 El-Khalifa El-Maamoun, Mansheya El-Bakry, Heliopolis, Cairo Governorate, Egypt", "lat": 30.08654319999999, "lng": 31.3106985, "types": ["tourist_attraction", "museum", "point_of_interest", "establishment"], "place_id": "ChIJRRoLYy0-WBQR5Q1w1SdH0dQ"}, {"name": "Baron Empain Palace", "formatted_address": "El-Orouba, El-Montaza, Heliopolis, Cairo Governorate 11757, Egypt", "lat": 30.0866701, "lng": 31.3303332, "types": ["point_of_interest", "establishment"], "place_id": "ChIJ1_GM8iE-WBQRLNVi-RT7vDA"}, {"name": "Arab film school", "formatted_address": "15-Al-Ahram Street, Heliopolis, Cairo Governorate 11757, Egypt", "lat": 30.112315, "lng": 31.3438507, "types": ["point_of_interest", "establishment"], "place_id": "ChIJcYZ1plEVWBQRfQ17CkMcvAQ"}, {"name": "Our Lady of Heliopolis Co-Cathedral", "formatted_address": "Nazih Khalifa crossroad، Al Ahram, Heliopolis, Cairo Governorate, Egypt", "lat": 30.0935707, "lng": 31.3251828, "types": ["church", "place_of_worship", "point_of_interest", "establishment"], "place_id": "ChIJJdgh-okVWBQR5TqTmKuQ0IM"}, {"name": "Radisson Blu Hotel, Cairo Heliopolis", "formatted_address": "Abdel Hamid Badawi St Heliopolis, Cairo Governorate 11787, Egypt", "lat": 30.1065093, "lng": 31.3753121, "types": ["lodging", "point_of_interest", "establishment"], "place_id": "ChIJQZJ8fWUWWBQRAUPO9I6SxPg"}, {"name": "A|X Heliopolis City Stars Mall", "formatted_address": "City Stars Mall Heliopolis, Il Cairo, 11757, Egypt", "lat": 30.11216649999999, "lng": 31.34367929999999, "types": ["point_of_interest", "clothing_store", "store", "establishment"], "place_id": "ChIJi1N7kww_WBQR2_0TRndb_UU"}, {"name": "Qalawun Complex", "formatted_address": "El-Gamaleya, El Gamaliya, Cairo Governorate, Egypt", "lat": 30.0493992, "lng": 31.2609617, "types": ["museum", "tourist_attraction", "point_of_interest", "establishment"], "place_id": "ChIJp5jEuZ9AWBQRkBecrp2NpKQ"}, {"name": "OKKA Coffee Machine", "formatted_address": "5 ش ابن سينا - ميدان سفير Heliopolis القاهرة، 11757, Egypt", "lat": 30.112315, "lng": 31.3438507, "types": ["home_goods_store", "point_of_interest", "store", "establishment"], "place_id": "ChIJ30hiuoUVWBQRhk5mzfGj5Yc"}, {"name": "English Home Club", "formatted_address": "60 St. Haroun, Heliopolis, Cairo Governorate 11545, Egypt", "lat": 30.112315, "lng": 31.3438507, "types": ["point_of_interest", "establishment"], "place_id": "ChIJK1ZIUY4VWBQRcigafOCQujE"}, {"name": "Al-Nasser Mohammed Ibn Kalawoun", "formatted_address": "Passage Inside Salah Al Din, Al Abageyah, El-Khalifa, Cairo Governorate, Egypt", "lat": 30.0292077, "lng": 31.2608701, "types": ["mosque", "tourist_attraction", "place_of_worship", "point_of_interest", "establishment"], "place_id": "ChIJ_z549apAWBQRDy0yFHhKToM"}, {"name": "Dr. Mina magdi dental clinic", "formatted_address": "60 Heliopolis st. El ibrahemya 2ndfloor, Egypt", "lat": 30.112315, "lng": 31.3438507, "types": ["dentist", "health", "point_of_interest", "establishment"], "place_id": "ChIJyVgcg9oVWBQRsq6fyvZ8Vu0"}, {"name": "فارنيل - جراند سوليوشنز | Farnell - Grand Solutions", "formatted_address": "20 Abd El-Moniem Hafez, El-Nozha Street, Heliopolis، مصر الجديدة، القاهرة،، Cairo Governorate, Egypt", "lat": 30.112315, "lng": 31.3438507, "types": ["point_of_interest", "establishment"], "place_id": "ChIJpXOBucgVWBQRzaDXhbsLs9o"}, {"name": "Heliopolis Towers Hotel", "formatted_address": "El Shaheed Sayed Zakaria, Sheraton Al Matar, El Nozha, Cairo Governorate 11736, Egypt", "lat": 30.1074763, "lng": 31.3661798, "types": ["lodging", "point_of_interest", "establishment"], "place_id": "ChIJZ9p3820WWBQRmZh2M_MSzOQ"}, {"name": "Grand Logistics Services", "formatted_address": "5 El-sayed Zakareya St., Block No. 1216, 3rd Flr, Apt 302, Heliopolis Buldgs، Egypt", "lat": 30.112315, "lng": 31.3438507, "types": ["point_of_interest", "establishment"], "place_id": "ChIJmeXkw9wVWBQRToTfNys9o9w"}, {"name": "Golden Park Hotel", "formatted_address": "شارع الحجاز ، مصر الجديده، 221 شارع الحجاز ، هيليوبوليس ،، El Nozha, Cairo Governorate, Egypt", "lat": 30.1153686, "lng": 31.3525102, "types": ["lodging", "point_of_interest", "establishment"], "place_id": "ChIJsQQdRNgVWBQRss6fVxNFk_8"}, {"name": "مستشفى الحرية التخصصى", "formatted_address": "11 Latif Mansour St، Almazah, El Nozha, Cairo Governorate, Egypt", "lat": 30.112315, "lng": 31.3438507, "types": ["hospital", "health", "point_of_interest", "establishment"], "place_id": "ChIJq7jFPhw-WBQRx7wGgL_7bO8"}, {"name": "Food Value", "formatted_address": "Heliopolis, Cairo Governorate, Egypt", "lat": 30.112315, "lng": 31.3438507, "types": ["food", "point_of_interest", "establishment"], "place_id": "ChIJ-7sagk4VWBQRbYGg-BOxCAk"}, {"name": "مريم عتمان", "formatted_address": "مصر الجديدة، المطار، قسم النزهة،، Cairo Governorate, Egypt", "lat": 30.112315, "lng": 31.3438507, "types": ["point_of_interest", "establishment"], "place_id": "ChIJgxrFUogVWBQRS1UPh4qIBp0"}, {"name": "Ittihadia Palace", "formatted_address": "Al Nadi، El-Montaza, Heliopolis, Cairo Governorate, Egypt", "lat": 30.0888643, "lng": 31.3193929, "types": ["tourist_attraction", "premise", "point_of_interest", "establishment"], "place_id": "ChIJuftqUS8-WBQRtM7fDk0QcPk"}, {"name": "EGENT Center (Heliopolis Branch)", "formatted_address": "24 el Ahram street, Al Matar, El Nozha, Cairo Governorate, Egypt", "lat": 30.112315, "lng": 31.3438507, "types": ["health", "point_of_interest", "establishment"], "place_id": "ChIJA9dUAxwVWBQRn6gBuXiy7yA"}, {"name": "USA BRANDS", "formatted_address": "5 Abdul Hay St., Hegaz Square, Heliopolis, New Nozha, Cairo, Cairo Governorate 11757, Egypt", "lat": 30.1118067, "lng": 31.3442931, "types": ["clothing_store", "point_of_interest", "store", "establishment"], "place_id": "ChIJVcC559wVWBQRg_y8ZYmGb-M"}, {"name": "La Vie Gym", "formatted_address": "٤حسن منصور _خلف نادي النصر _ميدان المحكمة _مصر، الحديدة، المطار، قسم النزهة، محافظة القاهرة‬،، Egypt", "lat": 30.112315, "lng": 31.3438507, "types": ["gym", "health", "point_of_interest", "establishment"], "place_id": "ChIJfe8BkEkVWBQRKi2MKUETkMw"}, {"name": "Citystars Heliopolis", "formatted_address": "Citystars, Cairo Governorate 11771, Egypt", "lat": 30.0728734, "lng": 31.3458082, "types": ["shopping_mall", "point_of_interest", "establishment"], "place_id": "ChIJo0ecE_gVWBQRGGrouhZFdME"}, {"name": "Porto Heliopolis", "formatted_address": "Almazah, Heliopolis, Cairo Governorate, Egypt", "lat": 30.0827031, "lng": 31.348709, "types": ["lodging", "point_of_interest", "establishment"], "place_id": "ChIJR5FCXgE-WBQR471eyuZuvGw"}, {"name": "IDP Education & IELTS Testing - Cairo", "formatted_address": "31 Omar Bekir St off Othman Ibn Afan St, Othman Ibn Affan, Nozha, Cairo Governorate 11361, Egypt", "lat": 30.10399, "lng": 31.348553, "types": ["point_of_interest", "establishment"], "place_id": "ChIJYWJmM-EVWBQRsRn2yOGljFo"}, {"name": "مداك لانظمه الالومنيوم Madac for Aluminum Systems & U-PVC", "formatted_address": "53 شارع احمد زكى النزهه الجديده امام فلوبتير بالاس، مصر الجديده، القاهرة 11843، مصر Masr Elgdeda، Egypt", "lat": 30.112315, "lng": 31.3438507, "types": ["general_contractor", "point_of_interest", "establishment"], "place_id": "ChIJX5vK7EAVWBQRgVSZ83YGpW4"}, {"name": "Queens Hospital _ Cleopatra Hospitals Group", "formatted_address": "4 Sheikh Nour Eldin, off Thawra St., Heliopolis, 11345, Egypt", "lat": 30.0886869, "lng": 31.3318691, "types": ["hospital", "doctor", "health", "point_of_interest", "establishment"], "place_id": "ChIJ65q6gh8-WBQRb6VXdsqqg4w"}, {"name": "Go Heliopolis - Khozam The First Compound In Heliopolis", "formatted_address": "شارع النزهة، مصر الجديدة،، Egypt", "lat": 30.0732268, "lng": 31.3397646, "types": ["lodging", "point_of_interest", "establishment"], "place_id": "ChIJZ7ZHBKs_WBQRJD3Ntp2Q_ww"}, {"name": "Disruptive Management Solutions - DMS", "formatted_address": "Military College, 03 General Abdulaziz Ali St, Al Matar, El Nozha, Cairo Governorate, Egypt", "lat": 30.112315, "lng": 31.3438507, "types": ["point_of_interest", "establishment"], "place_id": "ChIJxbKCrkoVWBQRRg1tITQb_BQ"}, {"name": "Hilton Cairo Heliopolis", "formatted_address": "El-Orouba, Sheraton Al Matar, El Nozha, Cairo Governorate, Egypt", "lat": 30.1067298, "lng": 31.3646213, "types": ["lodging", "point_of_interest", "establishment"], "place_id": "ChIJUYFpLCELRRQRzCxbUHFt6Vs"}, {"name": "Alfa Lab Egypt", "formatted_address": "81 Intersection Of Ain Shams St.، Ain Shams Sharkeya, HELIOPOLIS، Cairo Governorate, Egypt", "lat": 30.1264621, "lng": 31.3293445, "types": ["health", "point_of_interest", "establishment"], "place_id": "ChIJhcfzRLYVWBQRG__EbZmECa0"}, {"name": "Egyptair", "formatted_address": "Al Matar, El Nozha, Cairo Governorate, Egypt", "lat": 30.112315, "lng": 31.3438507, "types": ["travel_agency", "point_of_interest", "establishment"], "place_id": "ChIJmeXkw9wVWBQRhp0z_uttSsk"}, {"name": "Gad", "formatted_address": "63 ش Fareed Semeika, Al Matar, القاهرة‬، Cairo Governorate, Egypt", "lat": 30.1122428, "lng": 31.3446338, "types": ["restaurant", "food", "point_of_interest", "establishment"], "place_id": "ChIJAeBmGKEVWBQREvaHRA4NJB8"}, {"name": "(Heliopolis Public library)", "formatted_address": "Beirut, Almazah, Heliopolis, Cairo Governorate, Egypt", "lat": 30.090914, "lng": 31.3328428, "types": ["library", "point_of_interest", "establishment"], "place_id": "ChIJd3h9YvUVWBQR2Oi9DLQTI8E"}, {"name": "City Centre Almaza", "formatted_address": "Passage Inside Almaza Airport, Sheraton Al Matar, El Nozha, Cairo Governorate, Egypt", "lat": 30.0812008, "lng": 31.3651812, "types": ["shopping_mall", "point_of_interest", "establishment"], "place_id": "ChIJae0gF_g9WBQRz6pWyx0wl7U"}, {"name": "ألبان زاهر", "formatted_address": "Fareed Semeika, ،، El Nozha, Cairo Governorate, Egypt", "lat": 30.1123437, "lng": 31.344667, "types": ["supermarket", "grocery_or_supermarket", "food", "point_of_interest", "store", "establishment"], "place_id": "ChIJ0XHk7NwVWBQR4O6VPslx94c"}, {"name": "TOLIP El Galaa - Heliopolis", "formatted_address": "El Orouba St, Sheraton Al Matar, El Nozha, Cairo Governorate, Egypt", "lat": 30.0985969, "lng": 31.3490226, "types": ["lodging", "point_of_interest", "establishment"], "place_id": "ChIJvyeGu-QVWBQRkPqc2rg6IsE"}, {"name": "Church of the Great Martyr Saint George and Anba Ebram - كنيسة الشهيد العظيم مارجرجس و الأنبا ابرآم", "formatted_address": "54 Abd El-Aziz Fahmy, Al Matar, El Nozha, Cairo Governorate, Egypt", "lat": 30.1080494, "lng": 31.3392792, "types": ["church", "place_of_worship", "point_of_interest", "establishment"], "place_id": "ChIJvzrXsekVWBQRye4OpOsJnNM"}, {"name": "Baron Hotel Heliopolis", "formatted_address": "14 Al Baroon, El-Montaza, Heliopolis, Cairo Governorate, Egypt", "lat": 30.0860748, "lng": 31.3314609, "types": ["lodging", "point_of_interest", "establishment"], "place_id": "ChIJUbVOACI-WBQRWsi5B7gYfxs"}, {"name": "Zone 100", "formatted_address": "100 El Hegaz St, El-Nozha, El Nozha, Cairo Governorate, Egypt", "lat": 30.1095896, "lng": 31.3410528, "types": ["night_club", "bar", "point_of_interest", "establishment"], "place_id": "ChIJcxKvSt0VWBQR32cIdoq894k"}, {"name": "Pottery Cafe", "formatted_address": "4 Mohamed Bayoumi Street، Al Matar, El Nozha, Cairo Governorate, Egypt", "lat": 30.112315, "lng": 31.3438507, "types": ["cafe", "food", "point_of_interest", "store", "establishment"], "place_id": "ChIJmeXkw9wVWBQR6xpdj_3KPew"}, {"name": "Post Office - West Heliopolis", "formatted_address": "El-Nozha, El Nozha, Cairo Governorate, Egypt", "lat": 30.1036179, "lng": 31.33018539999999, "types": ["post_office", "finance", "point_of_interest", "establishment"], "place_id": "ChIJ-1tRxpIVWBQR8pyCMmqAgXM"}, {"name": "Lemon Spaces sheraton Heliopolis", "formatted_address": "Building # 19، El-Safa, Sheraton Al Matar, El Nozha, Cairo Governorate, Egypt", "lat": 30.1058785, "lng": 31.3667492, "types": ["lodging", "point_of_interest", "establishment"], "place_id": "ChIJ0dUH_3oXWBQRT1ZYgsJShvE"}, {"name": "Heliopolis Developers Group", "formatted_address": "شارع Makram Ebeid, Al Manteqah as Sadesah, Nasr City, Cairo Governorate 11762, Egypt", "lat": 30.06249639999999, "lng": 31.3446167, "types": ["general_contractor", "point_of_interest", "establishment"], "place_id": "ChIJY-NFOnI-WBQRv7lSZBvESCY"}, {"name": "PAPA JONS PIZZA", "formatted_address": "City Centre Almaza، Al Matar, El Nozha, Cairo Governorate, Egypt", "lat": 30.112315, "lng": 31.3438507, "types": ["restaurant", "food", "point_of_interest", "establishment"], "place_id": "ChIJmeXkw9wVWBQReIKVMGXstH4"}, {"name": "NBE ATM - Gad Farid Semeika - ماكينة البنك الاهلى المصري - جاد فريد سميكة", "formatted_address": "63ش فريد سميكة - امام عمر افندى - ميدان الحجاز - مصر الجديدة, Cairo Governorate, Egypt", "lat": 30.1124044, "lng": 31.3447542, "types": ["atm", "finance", "point_of_interest", "establishment"], "place_id": "ChIJj41f9ewVWBQRPt0eABEQi5U"}, {"name": "Cairo International Airport", "formatted_address": "Oruba، Road، El Nozha, Cairo Governorate, Egypt", "lat": 30.1128268, "lng": 31.3997904, "types": ["airport", "point_of_interest", "establishment"], "place_id": "ChIJQU-oLggXWBQRhhPiUSGvZeA"}, {"name": "La Perla", "formatted_address": "Al Matar, El Nozha, Cairo Governorate 11115, Egypt", "lat": 30.112315, "lng": 31.3438507, "types": ["restaurant", "food", "point_of_interest", "establishment"], "place_id": "ChIJO4FsTOsVWBQRsPRYJlktb8E"}, {"name": "Kodak Express Heliopolis", "formatted_address": "56 El Hegaz St, An Nuzhah, El Nozha, Cairo Governorate, Egypt", "lat": 30.1067937, "lng": 31.3345958, "types": ["electronics_store", "home_goods_store", "point_of_interest", "store", "establishment"], "place_id": "ChIJ6bESm-sVWBQRdG-ZTMCD_Mo"}, {"name": "Sennara seafood", "formatted_address": "221 El Hegaz St, Al Matar, El Nozha, Cairo Governorate, Egypt", "lat": 30.1154175, "lng": 31.3524475, "types": ["restaurant", "food", "point_of_interest", "establishment"], "place_id": "ChIJ06TYwusVWBQRKZwjRBR97tg"}, {"name": "Heliopolis Company For Housing & Development", "formatted_address": "28 Ibrahim Al Lakani, El-Montaza, Heliopolis, Cairo Governorate, Egypt", "lat": 30.089427, "lng": 31.32091599999999, "types": ["general_contractor", "point_of_interest", "establishment"], "place_id": "ChIJeUp1DiY-WBQRkHRQbiaGSrA"}, {"name": "Il Pennello Ceramic Café & Restaurant", "formatted_address": "Omar Ibn El-Khattab, El-Bostan, Heliopolis, Cairo Governorate, Egypt", "lat": 30.100229, "lng": 31.33329, "types": ["cafe", "restaurant", "food", "point_of_interest", "establishment"], "place_id": "ChIJA9aGkfIVWBQR6C-ilXdzmvM"}, {"name": "St. Mark Coptic Orthodox Church Cleopatra", "formatted_address": "35 كيلوباترا، الماظة، قسم مصر الجديدة،، Cairo Governorate, Egypt", "lat": 30.0924011, "lng": 31.3296246, "types": ["church", "place_of_worship", "point_of_interest", "establishment"], "place_id": "ChIJH3kNmooVWBQRfL4z5mf-KXU"}, {"name": "Post Office - El Horreya Heliopolis", "formatted_address": "Intersection Of Salah Salem rd، El-Nozha, Heliopolis, Cairo Governorate 11736, Egypt", "lat": 30.0961592, "lng": 31.3428047, "types": ["post_office", "finance", "point_of_interest", "establishment"], "place_id": "ChIJbYuIf_AVWBQRLjDEKpIcTg0"}, {"name": "Pinchos Tapas Bar & Restaurant", "formatted_address": "58 Beirut Street, Heliopolis, Cairo Governorate 11341, Egypt", "lat": 30.0927255, "lng": 31.3281467, "types": ["bar", "restaurant", "food", "point_of_interest", "establishment"], "place_id": "ChIJV0_HDqEVWBQRJ2U5uelUOVQ"}, {"name": "Tivoli Dome", "formatted_address": "Omar Ibn El-Khattab, Almazah, Heliopolis, Cairo Governorate, Egypt", "lat": 30.0860882, "lng": 31.3479517, "types": ["food", "point_of_interest", "establishment"], "place_id": "ChIJsSxOPgI-WBQRz6H2FJMg2uE"}, {"name": "InterContinental Citystars Cairo, an IHG Hotel", "formatted_address": "Omar Ibn El Khattab، Street، Cairo Governorate 11737, Egypt", "lat": 30.0724583, "lng": 31.3478955, "types": ["lodging", "point_of_interest", "establishment"], "place_id": "ChIJJYCniw4-WBQRDaNySSZ_iuI"}, {"name": "Pizza Club", "formatted_address": "8 El Sayed El Merghani Street, El-Montaza, Heliopolis, Cairo Governorate,، Egypt، Cairo، Cairo Governorate, Egypt", "lat": 30.0912297, "lng": 31.3143523, "types": ["restaurant", "food", "point_of_interest", "establishment"], "place_id": "ChIJhdkQNik-WBQRCY7_fwGpM5E"}, {"name": "Hedeya Heliopolis Branch", "formatted_address": "25 El-Horreya St. - off, El-Nozha, Cairo Governorate 11757, Egypt", "lat": 30.0871654, "lng": 31.3394971, "types": ["point_of_interest", "clothing_store", "store", "establishment"], "place_id": "ChIJzXYzCrE_WBQRFRjWzFCKNaE"}, {"name": "Notre Dame Des Apotres School Heliopolis", "formatted_address": "Al Matar, El Nozha, Cairo Governorate, Egypt", "lat": 30.0986639, "lng": 31.3327399, "types": ["point_of_interest", "establishment"], "place_id": "ChIJ3cu1H_MVWBQR3Jd2ZO2_XgE"}]