[{"name": "Merryland Park", "formatted_address": "El-Montaza, Heliopolis, Cairo Governorate, Egypt", "lat": 31.3189812, "types": ["park", "tourist_attraction", "point_of_interest", "establishment"], "place_id": "ChIJH9vwOoYVWBQR90_jkGUJbSU"}, {"name": "I Love Heliopolis", "formatted_address": "المنتزه، قسم مصر الجديدة،، Cairo Governorate, Egypt", "lat": 31.3210232, "types": ["park", "point_of_interest", "establishment"], "place_id": "ChIJ8-6icu0VWBQRg9ZyeWnPQow"}, {"name": "Cairo Specialized Hospital", "formatted_address": "44 Nehro, El-Montaza, Heliopolis, Cairo Governorate, Egypt", "lat": 31.3193799, "types": ["point_of_interest", "establishment"], "place_id": "ChIJVVXh8IUVWBQRfg0XWgViJhU"}, {"name": "Ittihadia Palace", "formatted_address": "Al Nadi، El-Montaza, Heliopolis, Cairo Governorate, Egypt", "lat": 31.3193929, "types": ["tourist_attraction", "premise", "point_of_interest", "establishment"], "place_id": "ChIJuftqUS8-WBQRtM7fDk0QcPk"}, {"name": "Bianki For Tourism & Real Estate Investment", "formatted_address": "14 ش نهرو، El-Montaza, Heliopolis, Cairo Governorate, Egypt", "lat": 31.3185568, "types": ["point_of_interest", "establishment"], "place_id": "ChIJZxpyDYYVWBQRv2_-lIh0bRI"}, {"name": "Our Lady of Heliopolis Co-Cathedral", "formatted_address": "Nazih Khalifa crossroad، Al Ahram, Heliopolis, Cairo Governorate, Egypt", "lat": 31.3251828, "types": ["church", "place_of_worship", "point_of_interest", "establishment"], "place_id": "ChIJJdgh-okVWBQR5TqTmKuQ0IM"}, {"name": "Living Well", "formatted_address": "44 ش نهرو، El-Montaza, Heliopolis, Cairo Governorate, Egypt", "lat": 31.3185568, "types": ["point_of_interest", "establishment"], "place_id": "ChIJDS8e8YUVWBQRJA6qofNCKHM"}, {"name": "Egyptian Co. For Air Conditioning", "formatted_address": "42 ش نهرو، El-Montaza, Heliopolis, Cairo Governorate, Egypt", "lat": 31.3185568, "types": ["point_of_interest", "establishment"], "place_id": "ChIJZxpyDYYVWBQRspxXj0rEsZ0"}, {"name": "Bon Voyage", "formatted_address": "16 Adly, Al Fawalah, Abdeen, Cairo Governorate, Egypt", "lat": 31.244439, "types": ["tourist_attraction", "point_of_interest", "establishment"], "place_id": "ChIJJZ3TEL5AWBQRc-PhG_sO-S0"}, {"name": "عيادات لافى كلينيك - دكتور محمد عبد الوهاب", "formatted_address": "44 نهرو، المنتزه، قسم مصر الجديدة،، Cairo Governorate, Egypt", "lat": 31.31946, "types": ["point_of_interest", "establishment"], "place_id": "ChIJf9_3QR0VWBQRXcaydByW37Q"}, {"name": "Baron Empain Palace", "formatted_address": "El-Orouba, El-Montaza, Heliopolis, Cairo Governorate 11757, Egypt", "lat": 31.3303332, "types": ["point_of_interest", "establishment"], "place_id": "ChIJ1_GM8iE-WBQRLNVi-RT7vDA"}, {"name": "Initec Energia", "formatted_address": "16 ش نهرو، El-Montaza, Heliopolis, Cairo Governorate, Egypt", "lat": 31.3185568, "types": ["point_of_interest", "establishment"], "place_id": "ChIJZxpyDYYVWBQRoyflbYHzkJ8"}, {"name": "GEO Service Group", "formatted_address": "2 off nehro st.، El-Montaza, Heliopolis, Cairo Governorate, Egypt", "lat": 31.3185568, "types": ["point_of_interest", "establishment"], "place_id": "ChIJZxpyDYYVWBQR43lc-aMrf14"}, {"name": "شركة كاد لإدارة المنشآت التجارية", "formatted_address": "12 شارع نهرو، خلف المريلاند، الدور الثاني، شقة 22 المنتزه قسم مصر الجديدة، 11351, Egypt", "lat": 31.3159436, "types": ["point_of_interest", "establishment"], "place_id": "ChIJK7Qs_zsVWBQRoR6NbPX5dS8"}, {"name": "Agaza Tours", "formatted_address": "58 Nehro St.، El-Montaza, Heliopolis, Cairo Governorate, Egypt", "lat": 31.3185568, "types": ["point_of_interest", "establishment"], "place_id": "ChIJk47PdY8VWBQRaDHZzsSVPuA"}, {"name": "عيادات سبيد بشارع نهرو الميريلاند", "formatted_address": "24 نهرو، المنتزه، قسم مصر الجديدة، محافظة القاهرة‬،، Egypt", "lat": 31.3171953, "types": ["health", "point_of_interest", "establishment"], "place_id": "ChIJQRFMyjoVWBQRMoomC3JtftY"}, {"name": "48 A NEHRO STREET HELIOPOLIS", "formatted_address": "48 Nehro street heliopolis, Cairo Governorate, Egypt", "lat": 31.3200948, "types": ["point_of_interest", "clothing_store", "store", "establishment"], "place_id": "ChIJN_HWizAVWBQRnpv_6isXQ2o"}, {"name": "DMP - Developing Modern Projects", "formatted_address": "27 off nehro st.، El-Montaza, Heliopolis, Cairo Governorate, Egypt", "lat": 31.3185568, "types": ["point_of_interest", "establishment"], "place_id": "ChIJZxpyDYYVWBQRGIdKEdQ2DWI"}, {"name": "El Ghandour", "formatted_address": "10 Nehro St.، El-Montaza, Heliopolis, Cairo Governorate, Egypt", "lat": 31.3185568, "types": ["point_of_interest", "establishment"], "place_id": "ChIJZxpyDYYVWBQRaOoU2OG9ZbE"}, {"name": "National Tours ناشيونال للسياحة", "formatted_address": "30 El-Andalus, El-Montaza, Heliopolis, 30 الاندلس، المنتزه،, قسم مصر الجديدة،, Cairo Governorate, Egypt", "lat": 31.318285, "types": ["travel_agency", "point_of_interest", "establishment"], "place_id": "ChIJjYJ59LgVWBQRIeNPbNk3aug"}, {"name": "NBK", "formatted_address": "16 Nehro, 16 نهرو، المنتزه،, El-Montaza, Heliopolis, Cairo Governorate, Egypt", "lat": 31.3165869, "types": ["bank", "atm", "finance", "point_of_interest", "establishment"], "place_id": "ChIJTdgy-oYVWBQRRuYegaP2plA"}, {"name": "شركه لاشين الاداره مصر الجديده", "formatted_address": "32 Nehro, El-Montaza, Heliopolis, Cairo Governorate, Egypt", "lat": 31.31796959999999, "types": ["point_of_interest", "establishment"], "place_id": "ChIJUT98_ssVWBQR4Dn9_hNfUU8"}, {"name": "Aqary For Development & Projects Management", "formatted_address": "6 Nehro St.، El-Montaza, Heliopolis, Cairo Governorate, Egypt", "lat": 31.3185568, "types": ["point_of_interest", "establishment"], "place_id": "ChIJPbApPIcVWBQRIZrWDL6BI8E"}, {"name": "EBG", "formatted_address": "42 Nehro St.، El-Montaza, Heliopolis, Cairo Governorate, Egypt", "lat": 31.319317, "types": ["point_of_interest", "establishment"], "place_id": "ChIJZxpyDYYVWBQR355q-hSol28"}, {"name": "Seda heliopolis", "formatted_address": "38 Nehro, El-Montaza, Heliopolis, Cairo Governorate, Egypt", "lat": 31.3188767, "types": ["home_goods_store", "point_of_interest", "store", "establishment"], "place_id": "ChIJBZRWbYYVWBQRU-NbN50FXTI"}, {"name": "Undersecretary Mohammed Abdul Jalil Office", "formatted_address": "خلف الميرلاند، 2 Nehro, El-Montaza, Heliopolis, Cairo Governorate, Egypt", "lat": 31.31552199999999, "types": ["point_of_interest", "establishment"], "place_id": "ChIJ830ZFocVWBQRK41BYdq3M-Q"}, {"name": "Horizon", "formatted_address": "7 ش السعادة، El-Montaza, Heliopolis, Cairo Governorate, Egypt", "lat": 31.3180839, "types": ["point_of_interest", "establishment"], "place_id": "ChIJlTDjbYYVWBQRJ2l8vOVBu84"}, {"name": "Craft Tours", "formatted_address": "56 nehro st.، El-Montaza, Heliopolis, Cairo Governorate, Egypt", "lat": 31.31887589999999, "types": ["travel_agency", "point_of_interest", "establishment"], "place_id": "ChIJZxpyDYYVWBQRsHbzjOtazUI"}, {"name": "Maestro Bridal Consultant & Event Management", "formatted_address": "30 Nahro St.، El-Montaza, Heliopolis, Cairo Governorate, Egypt", "lat": 31.3185568, "types": ["point_of_interest", "establishment"], "place_id": "ChIJZxpyDYYVWBQR9U3ty_Qou3M"}, {"name": "CrossFit Pharaohs", "formatted_address": "30 Nehro, El-Montaza, Heliopolis, Cairo Governorate, Egypt", "lat": 31.3177871, "types": ["gym", "health", "point_of_interest", "establishment"], "place_id": "ChIJUzfLAr4VWBQRAJ2OwHvjavw"}, {"name": "Speed Lab", "formatted_address": "24 Nehro, El-Montaza, Heliopolis, Cairo Governorate, Egypt", "lat": 31.3170829, "types": ["health", "point_of_interest", "establishment"], "place_id": "ChIJ7xVeWIYVWBQRhwm1RWyFiVA"}, {"name": "ماكينة صراف الي البنك الاهلي المصري - فرع المريلاند 1", "formatted_address": "32 Nehro, El-Montaza, Heliopolis, Cairo Governorate 11611, Egypt", "lat": 31.3179531, "types": ["atm", "finance", "point_of_interest", "establishment"], "place_id": "ChIJRdVNc4YVWBQRuAtP6bJrs-o"}, {"name": "Global Company for Publishing and Distribution", "formatted_address": "48 Nehro, El-Montaza, Heliopolis, Cairo Governorate, Egypt", "lat": 31.3201372, "types": ["point_of_interest", "establishment"], "place_id": "ChIJc8fVYI8VWBQR_TUwFE8B2zc"}, {"name": "البنك الاهلى المصري فرع الميريلاند - NBE El-Maryland Branch", "formatted_address": "32 Nehro, El-Montaza, Heliopolis, Cairo Governorate, Egypt", "lat": 31.3180988, "types": ["bank", "finance", "point_of_interest", "establishment"], "place_id": "ChIJMzeMOxQVWBQR-Gjfp3wF6nk"}, {"name": "Arab Investment Bank", "formatted_address": "40 Nehro, El-Montaza, Heliopolis, Cairo Governorate, Egypt", "lat": 31.3190244, "types": ["bank", "finance", "point_of_interest", "establishment"], "place_id": "ChIJ-RHd5IUVWBQRJBLckRa2EXE"}, {"name": "CITC - Civil Information Technology Co.", "formatted_address": "16 Nehro St.، El-Montaza, Heliopolis, Cairo Governorate, Egypt", "lat": 31.3185568, "types": ["local_government_office", "point_of_interest", "establishment"], "place_id": "ChIJZxpyDYYVWBQR7hrBGjNVD5Y"}, {"name": "speed clinic", "formatted_address": "22Nehro, El-Montaza, Heliopolis, Cairo Governorate, Egypt", "lat": 31.3170829, "types": ["hospital", "health", "point_of_interest", "establishment"], "place_id": "ChIJl-iTNkMVWBQRXGiWIo8XSq0"}, {"name": "DMG", "formatted_address": "38 Nehro, El-Montaza, Heliopolis, Cairo Governorate, Egypt", "lat": 31.3180169, "types": ["bank", "finance", "point_of_interest", "establishment"], "place_id": "ChIJY6gdCoYVWBQRoSqIcxlucRY"}, {"name": "H&M Nehru street, Heliopolis", "formatted_address": "Nehro, El-Montaza, Heliopolis, Cairo Governorate, Egypt", "lat": 31.31478289999999, "types": ["clothing_store", "point_of_interest", "store", "establishment"], "place_id": "ChIJC9hET4cVWBQR73NG4wgQWjc"}, {"name": "Go Heliopolis - Khozam The First Compound In Heliopolis", "formatted_address": "شارع النزهة، مصر الجديدة،، Egypt", "lat": 31.3397646, "types": ["lodging", "point_of_interest", "establishment"], "place_id": "ChIJZ7ZHBKs_WBQRJD3Ntp2Q_ww"}, {"name": "العبد اون لاين مصر الجديدة", "formatted_address": "نهرو، المنتزه، قسم مصر الجديدة،، المنتزه، قسم مصر الجديدة، محافظة القاهرة‬،، Egypt", "lat": 31.3155939, "types": ["food", "point_of_interest", "store", "establishment"], "place_id": "ChIJBZUiqG0VWBQRgRaK1eSMWVU"}, {"name": "Sol Melia", "formatted_address": "22 ش نهرو، El-Montaza, Heliopolis, Cairo Governorate, Egypt", "lat": 31.3183368, "types": ["lodging", "point_of_interest", "establishment"], "place_id": "ChIJezO9coYVWBQR2bvzBNH7iok"}, {"name": "Korba Posta Office", "formatted_address": "البوسطة، المنتزه، مصر الجديدة،، Cairo Governorate, Egypt", "lat": 31.3216349, "types": ["post_office", "finance", "point_of_interest", "establishment"], "place_id": "ChIJX8nHbSY-WBQRDrUhlxkHb-M"}, {"name": "شركة كاد لإدارة المنشآت التجارية", "formatted_address": "12 Nehro, El-Montaza, Heliopolis, Cairo Governorate 11351, Egypt", "lat": 31.3159613, "types": ["point_of_interest", "establishment"], "place_id": "ChIJ0c4HHIcVWBQRkE-sVY60wbE"}, {"name": "Family Park", "formatted_address": "مدخل الرحاب 2 ) الكيلو 26،، Suez Rd, Egypt", "lat": 31.5013244, "types": ["park", "tourist_attraction", "point_of_interest", "establishment"], "place_id": "ChIJ97tx7voYWBQR-q4kFfGwYYo"}, {"name": "Nofa Egypt", "formatted_address": "56 Nehro, El-Bostan, Heliopolis, Cairo Governorate, Egypt", "lat": 31.3211245, "types": ["home_goods_store", "point_of_interest", "store", "establishment"], "place_id": "ChIJQ_rzdI8VWBQRET_5kvs4-zc"}, {"name": "National Gas", "formatted_address": "16 Nahro St.، El-Montaza, Heliopolis, Cairo Governorate, Egypt", "lat": 31.3184102, "types": ["point_of_interest", "establishment"], "place_id": "ChIJZxpyDYYVWBQRCyuP1kVzFeM"}, {"name": "Porto Heliopolis", "formatted_address": "Almazah, Heliopolis, Cairo Governorate, Egypt", "lat": 31.348709, "types": ["lodging", "point_of_interest", "establishment"], "place_id": "ChIJR5FCXgE-WBQR471eyuZuvGw"}, {"name": "NBE ATM - Merryland Branch 2 - ماكينة البنك الاهلى المصري - ماكينة فرع المريلاند رقم 2", "formatted_address": "32 Nehro, El-Montaza, Heliopolis, Cairo Governorate, Egypt", "lat": 31.3181076, "types": ["atm", "finance", "point_of_interest", "establishment"], "place_id": "ChIJKYplNM0VWBQRpWvNUNaPT9w"}, {"name": "Post Office - West Heliopolis", "formatted_address": "El-Nozha, El Nozha, Cairo Governorate, Egypt", "lat": 31.33018539999999, "types": ["post_office", "finance", "point_of_interest", "establishment"], "place_id": "ChIJ-1tRxpIVWBQR8pyCMmqAgXM"}, {"name": "ElKersh Cars - القرش للسيارات", "formatted_address": "El-Bostan, Heliopolis, Cairo Governorate, Egypt", "lat": 31.3216252, "types": ["point_of_interest", "store", "establishment"], "place_id": "ChIJf8HKC48VWBQRMjjC1DvC9ZY"}, {"name": "Blend Furniture-Heliopolis Store", "formatted_address": "Behind Merryland 32 Nehro Cairo, 19534, Egypt", "lat": 31.3177951, "types": ["furniture_store", "home_goods_store", "point_of_interest", "store", "establishment"], "place_id": "ChIJfzfCboYVWBQRCiEPM1rIP0I"}, {"name": "Foreign Ministry Legalization Office", "formatted_address": "el merryland st, El-Bostan, Heliopolis, Cairo Governorate, Egypt", "lat": 31.3219118, "types": ["point_of_interest", "establishment"], "place_id": "ChIJ9z8rD48VWBQRPU2af70skEQ"}, {"name": "El Salam Engineering Equipment - Quip", "formatted_address": "30 Nehro St, El-Montaza, Heliopolis, Cairo Governorate 11737, Egypt", "lat": 31.31783819999999, "types": ["point_of_interest", "establishment"], "place_id": "ChIJTZo4b4YVWBQRSvabw_G1ThQ"}, {"name": "مكتب توثيق الخارجية بالميريلاند", "formatted_address": "102 Shehab Al Din Khafaga, El-Bostan, Heliopolis, Cairo Governorate, Egypt", "lat": 31.3219055, "types": ["point_of_interest", "establishment"], "place_id": "ChIJxSu2CI8VWBQRTLhAPZE9xg8"}, {"name": "Heliopolis Sporting Club (HSC)", "formatted_address": "17 El-Sayed El-Marghany, Mansheya El-Bakry, Heliopolis, Cairo Governorate, Egypt", "lat": 31.3164398, "types": ["point_of_interest", "establishment"], "place_id": "ChIJB9zy8B4-WBQRz_zRpJte8sA"}, {"name": "Dar Al Mimar Group", "formatted_address": "36 ش نهرو، El-Montaza, Heliopolis, Cairo Governorate, Egypt", "lat": 31.3185568, "types": ["real_estate_agency", "point_of_interest", "establishment"], "place_id": "ChIJZxpyDYYVWBQRaW9D-v9sse4"}, {"name": "Coffee Bean", "formatted_address": "48 Nehro, El-Montaza, Heliopolis, Cairo Governorate, Egypt", "lat": 31.32013419999999, "types": ["cafe", "food", "point_of_interest", "store", "establishment"], "place_id": "ChIJK1eu7DQVWBQRp6BT_C_4rjY"}, {"name": "QNB Al-Ahli El-Sebak Branch", "formatted_address": "35 El-Andalus, El-Montaza, Heliopolis, Cairo Governorate, Egypt", "lat": 31.3187536, "types": ["bank", "finance", "point_of_interest", "establishment"], "place_id": "ChIJUWjfdoYVWBQREy-bMSCS2g4"}, {"name": "Roman Spa", "formatted_address": "10 Ibn Al Masrefi, El-Bostan, Heliopolis, Cairo Governorate, Egypt", "lat": 31.319484, "types": ["spa", "point_of_interest", "establishment"], "place_id": "ChIJiZLrULsVWBQR_h_0D5VaXro"}]