[{"name": "Hluoplis-Home Tools", "formatted_address": "7 Moheb Kasem, Almazah, Heliopolis, Cairo Governorate, Egypt", "lat": 31.351371, "types": ["point_of_interest", "establishment"], "place_id": "ChIJ--Regv8VWBQRYpfkqhc7K6M"}, {"name": "Ittihadia Palace", "formatted_address": "Al Nadi، El-Montaza, Heliopolis, Cairo Governorate, Egypt", "lat": 31.3193929, "types": ["tourist_attraction", "premise", "point_of_interest", "establishment"], "place_id": "ChIJuftqUS8-WBQRtM7fDk0QcPk"}, {"name": "Baron Empain Palace", "formatted_address": "El-Orouba, El-Montaza, Heliopolis, Cairo Governorate 11757, Egypt", "lat": 31.3303332, "types": ["point_of_interest", "establishment"], "place_id": "ChIJ1_GM8iE-WBQRLNVi-RT7vDA"}, {"name": "Bon Voyage", "formatted_address": "16 Adly, Al Fawalah, Abdeen, Cairo Governorate, Egypt", "lat": 31.244439, "types": ["tourist_attraction", "point_of_interest", "establishment"], "place_id": "ChIJJZ3TEL5AWBQRc-PhG_sO-S0"}, {"name": "Our Lady of Heliopolis Co-Cathedral", "formatted_address": "Nazih Khalifa crossroad، Al Ahram, Heliopolis, Cairo Governorate, Egypt", "lat": 31.3251828, "types": ["church", "place_of_worship", "point_of_interest", "establishment"], "place_id": "ChIJJdgh-okVWBQR5TqTmKuQ0IM"}, {"name": "Mosque-Madrassa of Sultan Hassan", "formatted_address": "El-Darb El-Ahmar, El-Khalifa, Cairo Governorate, Egypt", "lat": 31.2561704, "types": ["mosque", "tourist_attraction", "place_of_worship", "point_of_interest", "establishment"], "place_id": "ChIJdRfpCqxAWBQR5IwPTJC5xnQ"}, {"name": "Panorama", "formatted_address": "2 Othman Hasan, Almazah, Heliopolis, Cairo Governorate, Egypt", "lat": 31.3512482, "types": ["point_of_interest", "establishment"], "place_id": "ChIJ97iSf_8VWBQRnn91S0O4Dxw"}, {"name": "El Khawaga", "formatted_address": "11 Wahba Ghobrial, Almazah, Heliopolis, Cairo Governorate, Egypt", "lat": 31.3517843, "types": ["point_of_interest", "establishment"], "place_id": "ChIJc7xZhP8VWBQRP0BlL_tb7P8"}, {"name": "Abo Ali-Haberdashery", "formatted_address": "Almazah, Heliopolis, Cairo Governorate, Egypt", "lat": 31.3519589, "types": ["point_of_interest", "establishment"], "place_id": "ChIJqZBOhf8VWBQR36YKL91vncs"}, {"name": "Ahmed Afifi", "formatted_address": "6 ش عبد الله محمد، Almazah, Heliopolis, Cairo Governorate, Egypt", "lat": 31.3520213, "types": ["point_of_interest", "establishment"], "place_id": "ChIJvXoKiP8VWBQRCox2dGstXx0"}, {"name": "Fine Arts", "formatted_address": "1 ش الشهيد مهيب قاسم، Al Gazirah Al Gadidah, Heliopolis, Cairo Governorate, Egypt", "lat": 31.351088, "types": ["point_of_interest", "establishment"], "place_id": "ChIJdbrRfv8VWBQRu7k6n7gD6zY"}, {"name": "Hessen Ellaban", "formatted_address": "11 ATA Allah Masoud, Almazah, Heliopolis, Cairo Governorate, Egypt", "lat": 31.3518959, "types": ["point_of_interest", "establishment"], "place_id": "ChIJM4arh_8VWBQRRh0OgJi3bLk"}, {"name": "Saad Group", "formatted_address": "295 Omar Ebn El Khattab St.، EL NOZHA EL GADIDA، Heliopolis, Cairo Governorate, Egypt", "lat": 31.3511914, "types": ["point_of_interest", "establishment"], "place_id": "ChIJGbbwwvYVWBQRLHJqLVNlAAw"}, {"name": "TAA TAA", "formatted_address": "Almazah, Heliopolis, Cairo Governorate, Egypt", "lat": 31.3514373, "types": ["point_of_interest", "establishment"], "place_id": "ChIJVXzFnf8VWBQRSzevDK8dULc"}, {"name": "Porto Heliopolis", "formatted_address": "Almazah, Heliopolis, Cairo Governorate, Egypt", "lat": 31.348709, "types": ["lodging", "point_of_interest", "establishment"], "place_id": "ChIJR5FCXgE-WBQR471eyuZuvGw"}, {"name": "Rodi Glass", "formatted_address": "7 Othman Hasan, Almazah, Heliopolis, Cairo Governorate, Egypt", "lat": 31.351627, "types": ["health", "point_of_interest", "establishment"], "place_id": "ChIJzya0mv8VWBQRup-X5neGBa4"}, {"name": "Bolman", "formatted_address": "12 Othman Hasan, Almazah, Heliopolis, Cairo Governorate, Egypt", "lat": 31.3517284, "types": ["hair_care", "health", "point_of_interest", "establishment"], "place_id": "ChIJySkshP8VWBQRMVFKL0cA5zI"}, {"name": "ساحة ونس Wanas", "formatted_address": "8 شارع عثمان بن عفان ميدان، Salah El-Din St., Heliopolis, Cairo Governorate, Egypt", "lat": 31.32762679999999, "types": ["point_of_interest", "establishment"], "place_id": "ChIJF1cxUooVWBQROX4KlNHDnDc"}, {"name": "منزل محمد يوسف", "formatted_address": "9 وهبة غبريال، الماظة، قسم مصر الجديدة،، Cairo Governorate, Egypt", "lat": 31.3516726, "types": ["lodging", "point_of_interest", "establishment"], "place_id": "ChIJebfLHNAVWBQR8bMv6qtQpIQ"}, {"name": "Heliopolis Towers Hotel", "formatted_address": "El Shaheed Sayed Zakaria, Sheraton Al Matar, El Nozha, Cairo Governorate 11736, Egypt", "lat": 31.3661798, "types": ["lodging", "point_of_interest", "establishment"], "place_id": "ChIJZ9p3820WWBQRmZh2M_MSzOQ"}, {"name": "Al Hassan WA Al Hossin", "formatted_address": "2 Wahba Ghobrial, Almazah, Heliopolis, Cairo Governorate, Egypt", "lat": 31.3511923, "types": ["pharmacy", "health", "point_of_interest", "store", "establishment"], "place_id": "ChIJvSEVf_8VWBQRvPYPZY1Q14E"}, {"name": "Radisson Blu Hotel, Cairo Heliopolis", "formatted_address": "Abdel Hamid Badawi St Heliopolis, Cairo Governorate 11787, Egypt", "lat": 31.3753121, "types": ["lodging", "point_of_interest", "establishment"], "place_id": "ChIJQZJ8fWUWWBQRAUPO9I6SxPg"}, {"name": "Porto Heliopolis Towers resale بورتو هليوبلس ريسيل", "formatted_address": "thawra street Infront of Dar Al Eshara Heliopolis, Cairo Governorate 11111, Egypt", "lat": 31.3495401, "types": ["point_of_interest", "establishment"], "place_id": "ChIJb1noYb9AWBQRFKM1zjICsvM"}, {"name": "IDP Education & IELTS Testing - Cairo", "formatted_address": "31 Omar Bekir St off Othman Ibn Afan St, Othman Ibn Affan, Nozha, Cairo Governorate 11361, Egypt", "lat": 31.348553, "types": ["point_of_interest", "establishment"], "place_id": "ChIJYWJmM-EVWBQRsRn2yOGljFo"}, {"name": "Citystars Heliopolis", "formatted_address": "Citystars, Cairo Governorate 11771, Egypt", "lat": 31.3458082, "types": ["shopping_mall", "point_of_interest", "establishment"], "place_id": "ChIJo0ecE_gVWBQRGGrouhZFdME"}, {"name": "11 Al Saudia Bldg - Al Quba Al Gadida", "formatted_address": "11 AL Saudia Bldg, Al Quba, Egypt", "lat": 31.3511851, "types": ["point_of_interest", "establishment"], "place_id": "ChIJ64__tQs_WBQRJV3Ywz3Uuck"}, {"name": "Elfade", "formatted_address": "Almazah, Heliopolis, Cairo Governorate, Egypt", "lat": 31.3518844, "types": ["point_of_interest", "establishment"], "place_id": "ChIJtfeFh_8VWBQRhzYjWIR9Qqo"}, {"name": "City Centre Almaza", "formatted_address": "Passage Inside Almaza Airport, Sheraton Al Matar, El Nozha, Cairo Governorate, Egypt", "lat": 31.3651812, "types": ["shopping_mall", "point_of_interest", "establishment"], "place_id": "ChIJae0gF_g9WBQRz6pWyx0wl7U"}, {"name": "Maadi Island", "formatted_address": "Dar Al Salam, Giza Governorate, Egypt", "lat": 31.239237, "types": ["restaurant", "tourist_attraction", "park", "food", "point_of_interest", "establishment"], "place_id": "ChIJwY7d5MFHWBQRl1nMXlW_tUY"}, {"name": "Baron Hotel Heliopolis", "formatted_address": "14 Al Baroon, El-Montaza, Heliopolis, Cairo Governorate, Egypt", "lat": 31.3314609, "types": ["lodging", "point_of_interest", "establishment"], "place_id": "ChIJUbVOACI-WBQRWsi5B7gYfxs"}, {"name": "C & Co", "formatted_address": "ش El-Sayed El-Merghany, Mansheya El-Bakry, Heliopolis, Cairo Governorate, Egypt", "lat": 31.316849, "types": ["point_of_interest", "establishment"], "place_id": "ChIJTUAo2C4-WBQRxX_4hyzbFbE"}, {"name": "سوق مصر الجديدة الدولى", "formatted_address": "95 ش عثمان بن عفان، El-Nozha, El Nozha, Cairo Governorate, Egypt", "lat": 31.3424833, "types": ["electronics_store", "point_of_interest", "store", "establishment"], "place_id": "ChIJzUuMOu4VWBQRv22i8RLxnuU"}, {"name": "Eslam", "formatted_address": "Almazah, Heliopolis, Cairo Governorate, Egypt", "lat": 31.3519468, "types": ["point_of_interest", "establishment"], "place_id": "ChIJUWi0mv8VWBQR5TyQ9t6y_0g"}, {"name": "Golden Park Hotel", "formatted_address": "شارع الحجاز ، مصر الجديده، 221 شارع الحجاز ، هيليوبوليس ،، El Nozha, Cairo Governorate, Egypt", "lat": 31.3525102, "types": ["lodging", "point_of_interest", "establishment"], "place_id": "ChIJsQQdRNgVWBQRss6fVxNFk_8"}, {"name": "Medo Car", "formatted_address": "Almazah, Heliopolis, Cairo Governorate, Egypt", "lat": 31.3519546, "types": ["point_of_interest", "establishment"], "place_id": "ChIJCYhMhf8VWBQRXEzVWqwZnFw"}, {"name": "ISmail Refaei", "formatted_address": "أحمد عبد العزيز، الماظة، قسم مصر الجديدة،، Cairo Governorate, Egypt", "lat": 31.3518436, "types": ["car_rental", "point_of_interest", "establishment"], "place_id": "ChIJzba63joVWBQRF2sNOaHglSs"}, {"name": "لايف ماركت", "formatted_address": "1-11 عطا الله مسعود، الماظة، قسم مصر الجديدة،، Cairo Governorate, Egypt", "lat": 31.3518017, "types": ["supermarket", "grocery_or_supermarket", "food", "point_of_interest", "store", "establishment"], "place_id": "ChIJQ_mseaEVWBQRitaODYaHY8Q"}, {"name": "Hilton Cairo Heliopolis", "formatted_address": "El-Orouba, Sheraton Al Matar, El Nozha, Cairo Governorate, Egypt", "lat": 31.3646213, "types": ["lodging", "point_of_interest", "establishment"], "place_id": "ChIJUYFpLCELRRQRzCxbUHFt6Vs"}, {"name": "صوت الفن", "formatted_address": "16 Adly, Bab Al Louq, Abdeen, Cairo Governorate, Egypt", "lat": 31.244439, "types": ["point_of_interest", "establishment"], "place_id": "ChIJ__8vEb5AWBQRqaCYbvGsNWU"}, {"name": "يلا تى فى", "formatted_address": "Al Ezba Al Gadida, Almazah, Heliopolis, Cairo Governorate 11000, Egypt", "lat": 31.3512162, "types": ["point_of_interest", "establishment"], "place_id": "ChIJrd1y1QE-WBQRyB-s-YSry_g"}, {"name": "Heliopolis Sporting Club (HSC)", "formatted_address": "17 El-Sayed El-Marghany, Mansheya El-Bakry, Heliopolis, Cairo Governorate, Egypt", "lat": 31.3164398, "types": ["point_of_interest", "establishment"], "place_id": "ChIJB9zy8B4-WBQRz_zRpJte8sA"}, {"name": "Hussein sadat", "formatted_address": "3 Moheb Kasem, Almazah, Heliopolis, Cairo Governorate, Egypt", "lat": 31.3511923, "types": ["hair_care", "health", "point_of_interest", "establishment"], "place_id": "ChIJ6W62yQUVWBQRmZKI0LgsBXQ"}, {"name": "ألبان الباشا", "formatted_address": "9 Ahmed Abd El-Aziz, Almazah, Heliopolis, Cairo Governorate, Egypt", "lat": 31.3521305, "types": ["grocery_or_supermarket", "food", "point_of_interest", "store", "establishment"], "place_id": "ChIJy-tvGwA-WBQRkbc_OUV-2_0"}, {"name": "Queens Hospital _ Cleopatra Hospitals Group", "formatted_address": "4 Sheikh Nour Eldin, off Thawra St., Heliopolis, 11345, Egypt", "lat": 31.3318691, "types": ["hospital", "doctor", "health", "point_of_interest", "establishment"], "place_id": "ChIJ65q6gh8-WBQRb6VXdsqqg4w"}, {"name": "Hedeya Heliopolis Branch", "formatted_address": "25 El-Horreya St. - off, El-Nozha, Cairo Governorate 11757, Egypt", "lat": 31.3394971, "types": ["point_of_interest", "clothing_store", "store", "establishment"], "place_id": "ChIJzXYzCrE_WBQRFRjWzFCKNaE"}, {"name": "El Raay", "formatted_address": "6 ATA Allah Masoud, Almazah, Heliopolis, Cairo Governorate, Egypt", "lat": 31.3515345, "types": ["store", "point_of_interest", "establishment"], "place_id": "ChIJ0wJkKAA-WBQR4YTkVpMm1G4"}, {"name": "Kekhia Mosque", "formatted_address": "37 El-Gomhoreya, Ghayt Al Adah, Abdeen, Cairo Governorate, Egypt", "lat": 31.2467482, "types": ["mosque", "place_of_worship", "point_of_interest", "establishment"], "place_id": "ChIJszjyyr1AWBQRgiNs59NHCMM"}, {"name": "Misr El Dawleya", "formatted_address": "96 ش محمد فريد، وسط البلد، Abdeen, Cairo Governorate, Egypt", "lat": 31.2442814, "types": ["point_of_interest", "establishment"], "place_id": "ChIJYaZ29JVAWBQRfDHDvqzkKAg"}, {"name": "El Nozha Notary Office", "formatted_address": "3-5, Othman Basha Ghaleb, El-Bostan, Heliopolis, Cairo Governorate, Egypt", "lat": 31.3229814, "types": ["finance", "point_of_interest", "establishment"], "place_id": "ChIJRynlNo4VWBQRTzzFtSL__Cs"}, {"name": "El Asta", "formatted_address": "9 Ahmed Khalaf, Almazah, Heliopolis, Cairo Governorate, Egypt", "lat": 31.3514604, "types": ["car_repair", "point_of_interest", "establishment"], "place_id": "ChIJAR6Cnv8VWBQR-vNhqL8H-HE"}, {"name": "IDEAL TOURS", "formatted_address": "46 Othman Ibn Affan, St, Heliopolis, Cairo Governorate, Egypt", "lat": 31.3355204, "types": ["travel_agency", "point_of_interest", "establishment"], "place_id": "ChIJbULBHIYVWBQRq8pbPoPfngI"}, {"name": "W.Alaska", "formatted_address": "شارع عثمان بن عفان، ميدان الاسماعيلية، Heliopolis, Cairo Governorate, Egypt", "lat": 31.3326923, "types": ["home_goods_store", "point_of_interest", "store", "establishment"], "place_id": "ChIJccPdX_MVWBQRBHHSNOBzZ2I"}, {"name": "Williams Furnture", "formatted_address": "1 ATA Allah Masoud, Almazah, Heliopolis, Cairo Governorate, Egypt", "lat": 31.351257, "types": ["shopping_mall", "point_of_interest", "establishment"], "place_id": "ChIJEZoQ1QE-WBQRfZOCgMzYBkY"}, {"name": "Rana Vone", "formatted_address": "Almazah, Heliopolis, Cairo Governorate, Egypt", "lat": 31.3519216, "types": ["point_of_interest", "establishment"], "place_id": "ChIJbT1Hhv8VWBQR8t27HmVtZgo"}, {"name": "Dr. Hassan Sayed Shaker", "formatted_address": "17 El-Imam Ali, Almazah, Heliopolis, Cairo Governorate 11341, Egypt", "lat": 31.335312, "types": ["hospital", "health", "point_of_interest", "establishment"], "place_id": "ChIJlXPZme8VWBQRgVvcQr9kbto"}, {"name": "Abo Neaen.", "formatted_address": "11 ATA Allah Masoud, Almazah, Heliopolis, Cairo Governorate, Egypt", "lat": 31.3518959, "types": ["point_of_interest", "establishment"], "place_id": "ChIJaRith_8VWBQRoeAhPZZeYko"}, {"name": "Lemon Spaces sheraton Heliopolis", "formatted_address": "Building # 19، El-Safa, Sheraton Al Matar, El Nozha, Cairo Governorate, Egypt", "lat": 31.3667492, "types": ["lodging", "point_of_interest", "establishment"], "place_id": "ChIJ0dUH_3oXWBQRT1ZYgsJShvE"}, {"name": "Hassan El Masry For Trade", "formatted_address": "El-Adaweya, Bulaq, Cairo Governorate, Egypt", "lat": 31.2351906, "types": ["point_of_interest", "establishment"], "place_id": "ChIJFUUgxutAWBQRkngLdBQzTX8"}, {"name": "Hossam", "formatted_address": "5 Moheb Kasem, Almazah, Heliopolis, Cairo Governorate, Egypt", "lat": 31.35128169999999, "types": ["supermarket", "grocery_or_supermarket", "food", "point_of_interest", "store", "establishment"], "place_id": "ChIJpYueeP8VWBQRNvxGlu3-PJU"}, {"name": "Sonesta Hotel Tower & Casino Cairo", "formatted_address": "3 El Tayaran St, Ash Sharekat, Nasr City, Cairo Governorate, Egypt", "lat": 31.3175599, "types": ["casino", "lodging", "point_of_interest", "establishment"], "place_id": "ChIJKYApCUc-WBQROTn4JL8ozhI"}]