[{"name": "Ittihadia Palace", "formatted_address": "Al Nadi، El-Montaza, Heliopolis, Cairo Governorate, Egypt", "lat": 30.0888643, "lng": 31.3193929, "types": ["tourist_attraction", "premise", "point_of_interest", "establishment"], "place_id": "ChIJuftqUS8-WBQRtM7fDk0QcPk"}, {"name": "Our Lady of Heliopolis Co-Cathedral", "formatted_address": "Nazih Khalifa crossroad، Al Ahram, Heliopolis, Cairo Governorate, Egypt", "lat": 30.0935707, "lng": 31.3251828, "types": ["church", "place_of_worship", "point_of_interest", "establishment"], "place_id": "ChIJJdgh-okVWBQR5TqTmKuQ0IM"}, {"name": "Baron Empain Palace", "formatted_address": "El-Orouba, El-Montaza, Heliopolis, Cairo Governorate 11757, Egypt", "lat": 30.0866701, "lng": 31.3303332, "types": ["point_of_interest", "establishment"], "place_id": "ChIJ1_GM8iE-WBQRLNVi-RT7vDA"}, {"name": "مريم عتمان", "formatted_address": "مصر الجديدة، المطار، قسم النزهة،، Cairo Governorate, Egypt", "lat": 30.112315, "lng": 31.3438507, "types": ["point_of_interest", "establishment"], "place_id": "ChIJgxrFUogVWBQRS1UPh4qIBp0"}, {"name": "Nordix Egypt", "formatted_address": "22 متفرع من ش فريد سميكة، Al Matar, El Nozha, Cairo Governorate, Egypt", "lat": 30.1122619, "lng": 31.345483, "types": ["point_of_interest", "establishment"], "place_id": "ChIJAeBmGKEVWBQRTIKZUxqraxg"}, {"name": "Mosque-Madrassa of Sultan Hassan", "formatted_address": "El-Darb El-Ahmar, El-Khalifa, Cairo Governorate, Egypt", "lat": 30.0322791, "lng": 31.2561704, "types": ["mosque", "tourist_attraction", "place_of_worship", "point_of_interest", "establishment"], "place_id": "ChIJdRfpCqxAWBQR5IwPTJC5xnQ"}, {"name": "Mar Guirguis church", "formatted_address": "Al Matar, El Nozha, Cairo Governorate, Egypt", "lat": 30.112315, "lng": 31.3438507, "types": ["church", "place_of_worship", "point_of_interest", "establishment"], "place_id": "ChIJo7ZMU40VWBQRyM0cS-gcbeM"}, {"name": "Bromo Motors", "formatted_address": "160 ميدان الحجاز، Al Matar, El Nozha, Cairo Governorate, Egypt", "lat": 30.1120211, "lng": 31.34491539999999, "types": ["point_of_interest", "establishment"], "place_id": "ChIJQSuK8dwVWBQRTcpR4vGXlyw"}, {"name": "كيميت توريدات معدات مطارات ومقاولات", "formatted_address": "16 محمد غنيم، Al Matar, El Nozha, Cairo Governorate, Egypt", "lat": 30.11251459999999, "lng": 31.342972, "types": ["point_of_interest", "establishment"], "place_id": "ChIJVVXlqyQ-WBQRnCPy1bxzWSs"}, {"name": "Zazy Collection", "formatted_address": "111 ش فريد سميكة، Al Matar, El Nozha, Cairo Governorate, Egypt", "lat": 30.1122619, "lng": 31.345483, "types": ["point_of_interest", "establishment"], "place_id": "ChIJ3wzJitwVWBQR3wtC0gMctEE"}, {"name": "Media Rack", "formatted_address": "15 Abdel Azim Awadallah St.، Al Matar, Heliopolis, Cairo Governorate, Egypt", "lat": 30.112068, "lng": 31.342883, "types": ["point_of_interest", "establishment"], "place_id": "ChIJFbMI09wVWBQRc68dm8ldfsc"}, {"name": "Egyptravel", "formatted_address": "Safer square 12 Hassona, النواوي، Cairo Governorate, Egypt", "lat": 30.112315, "lng": 31.3438507, "types": ["travel_agency", "point_of_interest", "establishment"], "place_id": "ChIJneOVGKdHWBQR2dPurZOd9g8"}, {"name": "Disruptive Management Solutions - DMS", "formatted_address": "Military College, 03 General Abdulaziz Ali St, Al Matar, El Nozha, Cairo Governorate, Egypt", "lat": 30.112315, "lng": 31.3438507, "types": ["point_of_interest", "establishment"], "place_id": "ChIJxbKCrkoVWBQRRg1tITQb_BQ"}, {"name": "حجز فنادق مصر الجديدة", "formatted_address": "مصر الجديدة، Cairo Governorate, Egypt", "lat": 30.112315, "lng": 31.3438507, "types": ["travel_agency", "point_of_interest", "establishment"], "place_id": "ChIJI1h83OMVWBQRtdlkKJjuHuw"}, {"name": "هيلتون هيليوبلس", "formatted_address": "Al Matar, El Nozha, Cairo Governorate, Egypt", "lat": 30.112315, "lng": 31.3438507, "types": ["lodging", "point_of_interest", "establishment"], "place_id": "ChIJocT4HcUVWBQRgIk90yuylWM"}, {"name": "Golden Park Hotel", "formatted_address": "شارع الحجاز ، مصر الجديده، 221 شارع الحجاز ، هيليوبوليس ،، El Nozha, Cairo Governorate, Egypt", "lat": 30.1153686, "lng": 31.3525102, "types": ["lodging", "point_of_interest", "establishment"], "place_id": "ChIJsQQdRNgVWBQRss6fVxNFk_8"}, {"name": "Egipto Tour", "formatted_address": "Triumph square, 9 Mostafa Sadek El Rafae Street, Al Matar, El Nozha, Cairo Governorate 11361, Egypt", "lat": 30.112315, "lng": 31.3438507, "types": ["travel_agency", "point_of_interest", "establishment"], "place_id": "ChIJz1YOGw4VWBQR2H8smMZ423g"}, {"name": "Porto Heliopolis", "formatted_address": "Almazah, Heliopolis, Cairo Governorate, Egypt", "lat": 30.0827031, "lng": 31.348709, "types": ["lodging", "point_of_interest", "establishment"], "place_id": "ChIJR5FCXgE-WBQR471eyuZuvGw"}, {"name": "اوتوشوب فرع جسر السويس", "formatted_address": "شنودة، 6 عمارات الشرطة - ناصية عزبة، Cairo Governorate, Egypt", "lat": 30.112315, "lng": 31.3438507, "types": ["car_repair", "point_of_interest", "store", "establishment"], "place_id": "ChIJSfibmtoVWBQRKQFQedKNvE0"}, {"name": "Heliopolis Towers Hotel", "formatted_address": "El Shaheed Sayed Zakaria, Sheraton Al Matar, El Nozha, Cairo Governorate 11736, Egypt", "lat": 30.1074763, "lng": 31.3661798, "types": ["lodging", "point_of_interest", "establishment"], "place_id": "ChIJZ9p3820WWBQRmZh2M_MSzOQ"}, {"name": "El Dawleya Cars", "formatted_address": "61 Farid Semeika St.، Al Matar, Heliopolis, Cairo Governorate, Egypt", "lat": 30.112639, "lng": 31.344487, "types": ["point_of_interest", "establishment"], "place_id": "ChIJAeBmGKEVWBQRQZIutCFDKuU"}, {"name": "Lont Group", "formatted_address": "4A Kamal EL Shafie، Ismailia Square، Heliopolis, Cairo Governorate, Egypt", "lat": 30.112315, "lng": 31.3438507, "types": ["travel_agency", "point_of_interest", "establishment"], "place_id": "ChIJ2_pLw4Q_WBQR5wCWEEgCfSw"}, {"name": "شقق مقروشة للايجار في القاهرة", "formatted_address": "ميدان تريومف، Al Matar, El Nozha, Cairo Governorate 11757, Egypt", "lat": 30.112315, "lng": 31.3438507, "types": ["lodging", "point_of_interest", "establishment"], "place_id": "ChIJWZEUunIVWBQR9m5l_WAmnt4"}, {"name": "Saint Mary Church - Ard El-Golf", "formatted_address": "Shams Al Din Al Zahabi, Al Golf, Nasr City, Cairo Governorate, Egypt", "lat": 30.0825805, "lng": 31.33328239999999, "types": ["church", "place_of_worship", "point_of_interest", "establishment"], "place_id": "ChIJz961RBg-WBQR2HK25harflQ"}, {"name": "Radisson Blu Hotel, Cairo Heliopolis", "formatted_address": "Abdel Hamid Badawi St Heliopolis, Cairo Governorate 11787, Egypt", "lat": 30.1065093, "lng": 31.3753121, "types": ["lodging", "point_of_interest", "establishment"], "place_id": "ChIJQZJ8fWUWWBQRAUPO9I6SxPg"}, {"name": "Church of the Great Martyr Saint George and Anba Ebram - كنيسة الشهيد العظيم مارجرجس و الأنبا ابرآم", "formatted_address": "54 Abd El-Aziz Fahmy, Al Matar, El Nozha, Cairo Governorate, Egypt", "lat": 30.1080494, "lng": 31.3392792, "types": ["church", "place_of_worship", "point_of_interest", "establishment"], "place_id": "ChIJvzrXsekVWBQRye4OpOsJnNM"}, {"name": "Soliman Travel", "formatted_address": "95 ش فريد سميكة، Al Matar, El Nozha, Cairo Governorate, Egypt", "lat": 30.1122619, "lng": 31.345483, "types": ["travel_agency", "point_of_interest", "establishment"], "place_id": "ChIJAeBmGKEVWBQR9txzbMNO-No"}, {"name": "فندق كنكورد السلام", "formatted_address": "المطار، قسم النزهة، محافظة القاهرة‬،، Egypt", "lat": 30.112315, "lng": 31.3438507, "types": ["lodging", "point_of_interest", "establishment"], "place_id": "ChIJZYOYs08VWBQRBPgJTZvjWGo"}, {"name": "معاز السقا", "formatted_address": "14 عبد الحي فتحي، المطار، قسم النزهة،، Cairo Governorate, Egypt", "lat": 30.1125006, "lng": 31.3438292, "types": ["point_of_interest", "establishment"], "place_id": "ChIJv5bKAj8VWBQRkEBXT4OP3sE"}, {"name": "الندى للسياحة", "formatted_address": "95 Mohammed Farid, Al Matar, El Nozha, Cairo Governorate, Egypt", "lat": 30.114135, "lng": 31.3429199, "types": ["travel_agency", "point_of_interest", "establishment"], "place_id": "ChIJ87OaqtwVWBQRi2RVO1IZb0w"}, {"name": "المصرية لخدمات المؤتمرات", "formatted_address": "6 Al Abnasy Street, Mansheiet El-Bakry, Cairo Governorate 11341, Egypt", "lat": 30.112315, "lng": 31.3438507, "types": ["point_of_interest", "establishment"], "place_id": "ChIJV2-3ZtM_WBQRppQSBfVwTtY"}, {"name": "go fianance", "formatted_address": "Al Matar, El Nozha, Cairo Governorate, Egypt", "lat": 30.112315, "lng": 31.3438507, "types": ["point_of_interest", "establishment"], "place_id": "ChIJp4eMKKYVWBQRkImXhuDazGc"}, {"name": "مستشفى الحرية التخصصى", "formatted_address": "11 Latif Mansour St، Almazah, El Nozha, Cairo Governorate, Egypt", "lat": 30.112315, "lng": 31.3438507, "types": ["hospital", "health", "point_of_interest", "establishment"], "place_id": "ChIJq7jFPhw-WBQRx7wGgL_7bO8"}, {"name": "art planet 369", "formatted_address": "Al Matar, El Nozha, Cairo Governorate, Egypt", "lat": 30.112315, "lng": 31.3438507, "types": ["point_of_interest", "establishment"], "place_id": "ChIJgW-2iYQVWBQRAcyJwo7q004"}, {"name": "كمبوند سكاي كابيتال", "formatted_address": "محافظة القاهرة‬،4 ش صلاح الدين من العروبه - مصر الجديده، Cairo Governorate 11736, Egypt", "lat": 30.112315, "lng": 31.3438507, "types": ["real_estate_agency", "lodging", "point_of_interest", "establishment"], "place_id": "ChIJxeUN-f6NVxQR4gOpLWmma2E"}, {"name": "A|X Heliopolis City Stars Mall", "formatted_address": "City Stars Mall Heliopolis, Il Cairo, 11757, Egypt", "lat": 30.11216649999999, "lng": 31.34367929999999, "types": ["point_of_interest", "clothing_store", "store", "establishment"], "place_id": "ChIJi1N7kww_WBQR2_0TRndb_UU"}, {"name": "St. Mark Coptic Orthodox Church Cleopatra", "formatted_address": "35 كيلوباترا، الماظة، قسم مصر الجديدة،، Cairo Governorate, Egypt", "lat": 30.0924011, "lng": 31.3296246, "types": ["church", "place_of_worship", "point_of_interest", "establishment"], "place_id": "ChIJH3kNmooVWBQRfL4z5mf-KXU"}, {"name": "TOLIP El Galaa - Heliopolis", "formatted_address": "El Orouba St, Sheraton Al Matar, El Nozha, Cairo Governorate, Egypt", "lat": 30.0985969, "lng": 31.3490226, "types": ["lodging", "point_of_interest", "establishment"], "place_id": "ChIJvyeGu-QVWBQRkPqc2rg6IsE"}, {"name": "Maadi Island", "formatted_address": "Dar Al Salam, Giza Governorate, Egypt", "lat": 29.965527, "lng": 31.239237, "types": ["restaurant", "tourist_attraction", "park", "food", "point_of_interest", "establishment"], "place_id": "ChIJwY7d5MFHWBQRl1nMXlW_tUY"}, {"name": "مطبعة الأندلس", "formatted_address": "مصر الجديده الجرفه سابقن،، Egypt", "lat": 30.112315, "lng": 31.3438507, "types": ["point_of_interest", "establishment"], "place_id": "ChIJCX2oMEEVWBQRqJxm0dvnFks"}, {"name": "super", "formatted_address": "Al Matar, El Nozha, Cairo Governorate 11736, Egypt", "lat": 30.112315, "lng": 31.3438507, "types": ["secondary_school", "school", "point_of_interest", "establishment"], "place_id": "ChIJhznDAIIVWBQRSHr8c3DBaYU"}, {"name": "EGENT Center (Heliopolis Branch)", "formatted_address": "24 el Ahram street, Al Matar, El Nozha, Cairo Governorate, Egypt", "lat": 30.112315, "lng": 31.3438507, "types": ["health", "point_of_interest", "establishment"], "place_id": "ChIJA9dUAxwVWBQRn6gBuXiy7yA"}, {"name": "مصر الجديدة", "formatted_address": "المطار، قسم النزهة،، Cairo Governorate, Egypt", "lat": 30.111333, "lng": 31.3443623, "types": ["point_of_interest", "store", "establishment"], "place_id": "ChIJJ9PrwbkVWBQRv9pWnoGZE6o"}, {"name": "الهندسيه للستائر الرأسيه", "formatted_address": "مصر الجديده، القاهره، مصر فارغ، Egypt", "lat": 30.112315, "lng": 31.3438507, "types": ["home_goods_store", "point_of_interest", "store", "establishment"], "place_id": "ChIJT2uD_nYVWBQRmvvE3fIiJnw"}, {"name": "Arab film school", "formatted_address": "15-Al-Ahram Street, Heliopolis, Cairo Governorate 11757, Egypt", "lat": 30.112315, "lng": 31.3438507, "types": ["point_of_interest", "establishment"], "place_id": "ChIJcYZ1plEVWBQRfQ17CkMcvAQ"}, {"name": "مداك لانظمه الالومنيوم Madac for Aluminum Systems & U-PVC", "formatted_address": "53 شارع احمد زكى النزهه الجديده امام فلوبتير بالاس، مصر الجديده، القاهرة 11843، مصر Masr Elgdeda، Egypt", "lat": 30.112315, "lng": 31.3438507, "types": ["general_contractor", "point_of_interest", "establishment"], "place_id": "ChIJX5vK7EAVWBQRgVSZ83YGpW4"}, {"name": "New khalifa", "formatted_address": "roxy, 2 Dimsuq street, Al Matar, El Nozha, Cairo Governorate, Egypt", "lat": 30.112315, "lng": 31.3438507, "types": ["food", "point_of_interest", "establishment"], "place_id": "ChIJs9rBu-Y_WBQRT34u3gM2KM8"}, {"name": "Hilton Cairo Heliopolis", "formatted_address": "El-Orouba, Sheraton Al Matar, El Nozha, Cairo Governorate, Egypt", "lat": 30.1067298, "lng": 31.3646213, "types": ["lodging", "point_of_interest", "establishment"], "place_id": "ChIJUYFpLCELRRQRzCxbUHFt6Vs"}, {"name": "Computer & Communication Concept - C & CC", "formatted_address": "6 Aflaton St.، Masaken Al Mohandesin, Heliopolis, Cairo Governorate, Egypt", "lat": 30.079575, "lng": 31.344988, "types": ["point_of_interest", "establishment"], "place_id": "ChIJVznwLfEVWBQR_2KCGtndzME"}, {"name": "OKKA Coffee Machine", "formatted_address": "5 ش ابن سينا - ميدان سفير Heliopolis القاهرة، 11757, Egypt", "lat": 30.112315, "lng": 31.3438507, "types": ["home_goods_store", "point_of_interest", "store", "establishment"], "place_id": "ChIJ30hiuoUVWBQRhk5mzfGj5Yc"}, {"name": "سيتى كريب", "formatted_address": "علي،قسم النزهه ، أحمد محمود، Egypt", "lat": 30.112315, "lng": 31.3438507, "types": ["restaurant", "food", "point_of_interest", "store", "establishment"], "place_id": "ChIJFw-y-tkVWBQRDGCNSqSvMdo"}, {"name": "Eduk Educational Consultant", "formatted_address": "10 Qaitbay St, Ismailia Square, Cairo Governorate, Egypt", "lat": 30.112315, "lng": 31.3438507, "types": ["point_of_interest", "establishment"], "place_id": "ChIJlZaYZbsVWBQRtvBn7GNVW1Y"}, {"name": "elsultan aqaria group", "formatted_address": "70 ش جوزيف تيتو - طريق المطار, El-Nozha, Egypt", "lat": 30.112315, "lng": 31.3438507, "types": ["lodging", "point_of_interest", "establishment"], "place_id": "ChIJsc8dY3UVWBQR4ERwwyHLfwc"}, {"name": "مركز الدكتور امجد الحداد حساسية ومناعه 12ش بطرس غالى روكسي مصر الجديده", "formatted_address": "12 شارع بطرس غالى روكسى، روكسي، مصر الجديده، Cairo Governorate, Egypt", "lat": 30.112315, "lng": 31.343851, "types": ["doctor", "health", "point_of_interest", "establishment"], "place_id": "ChIJf2fnvc4VWBQRy8CF-La2d4c"}, {"name": "Dr. Mina magdi dental clinic", "formatted_address": "60 Heliopolis st. El ibrahemya 2ndfloor, Egypt", "lat": 30.112315, "lng": 31.3438507, "types": ["dentist", "health", "point_of_interest", "establishment"], "place_id": "ChIJyVgcg9oVWBQRsq6fyvZ8Vu0"}, {"name": "Nshape ارض الجولف", "formatted_address": "Asmaa Fahmi, Al Golf, Nasr City, Cairo Governorate, Egypt", "lat": 30.079046, "lng": 31.3382582, "types": ["point_of_interest", "establishment"], "place_id": "ChIJK24uUhc-WBQROSbDAGuBic8"}, {"name": "الجيزة", "formatted_address": "Al Matar, El Nozha, Cairo Governorate, Egypt", "lat": 30.112315, "lng": 31.3438507, "types": ["restaurant", "food", "point_of_interest", "establishment"], "place_id": "ChIJgZe0hhsVWBQRb1sBrfjhhC0"}, {"name": "parrot crafts", "formatted_address": "19 mohamed elshaibani street, Al Matar, El Nozha, Cairo Governorate, Egypt", "lat": 30.112315, "lng": 31.3438507, "types": ["point_of_interest", "establishment"], "place_id": "ChIJpWN11U4VWBQRdMRql2T4eK4"}, {"name": "The Great Pyramid of Giza", "formatted_address": "Al Haram, Nazlet El-Semman, Al Giza Desert, Giza Governorate, Egypt", "lat": 29.9792345, "lng": 31.1342019, "types": ["tourist_attraction", "premise", "point_of_interest", "establishment"], "place_id": "ChIJGymPrIdFWBQRJCSloj8vDIE"}, {"name": "La Vie Gym", "formatted_address": "٤حسن منصور _خلف نادي النصر _ميدان المحكمة _مصر، الحديدة، المطار، قسم النزهة، محافظة القاهرة‬،، Egypt", "lat": 30.112315, "lng": 31.3438507, "types": ["gym", "health", "point_of_interest", "establishment"], "place_id": "ChIJfe8BkEkVWBQRKi2MKUETkMw"}]