[{"name": "Salah Eldin Square", "formatted_address": "Cleopatra, Almazah, Heliopolis, Cairo Governorate, Egypt", "lat": 31.329797, "types": ["tourist_attraction", "point_of_interest", "establishment"], "place_id": "ChIJy3RkGIsVWBQRa0ALsaVU_l8"}, {"name": "Ittihadia Palace", "formatted_address": "Al Nadi، El-Montaza, Heliopolis, Cairo Governorate, Egypt", "lat": 31.3193929, "types": ["tourist_attraction", "premise", "point_of_interest", "establishment"], "place_id": "ChIJuftqUS8-WBQRtM7fDk0QcPk"}, {"name": "Baron Empain Palace", "formatted_address": "El-Orouba, El-Montaza, Heliopolis, Cairo Governorate 11757, Egypt", "lat": 31.3303332, "types": ["point_of_interest", "establishment"], "place_id": "ChIJ1_GM8iE-WBQRLNVi-RT7vDA"}, {"name": "Professional Health & Safety Bureau - Shebin El Qanater", "formatted_address": "ارض الدلتا - عزبة بدر، شبين القناطر، القليوبية، Cairo Governorate, Egypt", "lat": 31.33105299999999, "types": ["point_of_interest", "establishment"], "place_id": "ChIJ_XhPrIwVWBQRJPNLB97Mwqo"}, {"name": "Our Lady of Heliopolis Co-Cathedral", "formatted_address": "Nazih Khalifa crossroad، Al Ahram, Heliopolis, Cairo Governorate, Egypt", "lat": 31.3251828, "types": ["church", "place_of_worship", "point_of_interest", "establishment"], "place_id": "ChIJJdgh-okVWBQR5TqTmKuQ0IM"}, {"name": "Bon Voyage", "formatted_address": "16 Adly, Al Fawalah, Abdeen, Cairo Governorate, Egypt", "lat": 31.244439, "types": ["tourist_attraction", "point_of_interest", "establishment"], "place_id": "ChIJJZ3TEL5AWBQRc-PhG_sO-S0"}, {"name": "ABA Sofia Abd El Monim", "formatted_address": "Al Bustan, Heliopolis, Cairo Governorate, Egypt", "lat": 31.33055209999999, "types": ["point_of_interest", "establishment"], "place_id": "ChIJ79MApowVWBQR7P8wPNBWUgw"}, {"name": "Sinai Air Cargo", "formatted_address": "8 ش القناطر، El-Bostan, Heliopolis, Cairo Governorate, Egypt", "lat": 31.3308566, "types": ["point_of_interest", "establishment"], "place_id": "ChIJ-0NyqYwVWBQR-vvW-Cw0ejY"}, {"name": "Cynna", "formatted_address": "Al Bustan, Heliopolis, Cairo Governorate, Egypt", "lat": 31.330685, "types": ["point_of_interest", "establishment"], "place_id": "ChIJm7CnqYwVWBQR-f-R0mvjlYE"}, {"name": "Alex", "formatted_address": "Al Bustan, Heliopolis, Cairo Governorate, Egypt", "lat": 31.3301807, "types": ["point_of_interest", "establishment"], "place_id": "ChIJEaRno4wVWBQRnCAsqMbPCFk"}, {"name": "Loweta", "formatted_address": "16 Damanhour, El-Bostan, Heliopolis, Cairo Governorate, Egypt", "lat": 31.3304393, "types": ["point_of_interest", "establishment"], "place_id": "ChIJp7cJpYwVWBQR96AbVame3mU"}, {"name": "Ads", "formatted_address": "Al Bustan, Heliopolis, Cairo Governorate, Egypt", "lat": 31.3289406, "types": ["point_of_interest", "establishment"], "place_id": "ChIJlXh7eosVWBQR_iufGLiWmEk"}, {"name": "Hamam", "formatted_address": "Al Bustan, Heliopolis, Cairo Governorate, Egypt", "lat": 31.3296649, "types": ["point_of_interest", "establishment"], "place_id": "ChIJXbpVnowVWBQRCqhxCens5Vc"}, {"name": "Giza Necropolis", "formatted_address": "Al Haram, Giza Governorate, Egypt", "lat": 31.1324955, "types": ["tourist_attraction", "premise", "museum", "point_of_interest", "establishment"], "place_id": "ChIJzbs54n1PWBQRizZuWjV0dMo"}, {"name": "Supply Bureau - Heliopolis", "formatted_address": "2 Mansoura, El-Bostan, Heliopolis, Cairo Governorate, Egypt", "lat": 31.3292775, "types": ["point_of_interest", "establishment"], "place_id": "ChIJ-7jLbYsVWBQRFdYCXarehEY"}, {"name": "Shon King", "formatted_address": "22 Othman Ibn Affan, El-Bostan, Heliopolis, Cairo Governorate, Egypt", "lat": 31.3311114, "types": ["point_of_interest", "establishment"], "place_id": "ChIJU-ccVYsVWBQRzBUsWLD5GWk"}, {"name": "قناطر مياه احمد بن طولون", "formatted_address": "Industrial Zone, Dar El-Salam, El Basatin, Cairo Governorate, Egypt", "lat": 31.2599397, "types": ["point_of_interest", "establishment"], "place_id": "ChIJjYFEWJtHWBQRH4lwJjPCabU"}, {"name": "HELIOPOLIS GROUP - Narcotics Anonymous Fellowshiop Egypt I مجموعة هليوبليس- زمالة المدمنين المجهولين مصر", "formatted_address": "workspace, ٤٤ شارع صلاح الدين، مصر الجديدة، الدور التانى، 404, Cairo Governorate 11737, Egypt", "lat": 31.3300818, "types": ["point_of_interest", "establishment"], "place_id": "ChIJcX0lhI4VWBQR9LM3DWhj-Os"}, {"name": "Dr. Jamal Aborgilh Clinic", "formatted_address": "3 Damanhour, El-Bostan, Heliopolis, Cairo Governorate, Egypt", "lat": 31.3310337, "types": ["doctor", "health", "point_of_interest", "establishment"], "place_id": "ChIJ83qMVYsVWBQRzvu95688jhw"}, {"name": "Bells cafe & Restaurant - اجراس مقهى ومطعم", "formatted_address": "18 شارع شبين, ميدان صلاح الدين, مصر الجديده، مصر الجديده، Cairo Governorate, Egypt", "lat": 31.331126, "types": ["cafe", "food", "point_of_interest", "establishment"], "place_id": "ChIJOV72U4sVWBQRzy-r2cd348w"}, {"name": "Balcon Heliopolis", "formatted_address": "26 Sohag, El-Bostan, Heliopolis, Cairo Governorate, Egypt", "lat": 31.3324821, "types": ["point_of_interest", "establishment"], "place_id": "ChIJVQnP3PIVWBQR-BFcoaXdkc0"}, {"name": "Atelii Gawish", "formatted_address": "7 Al Qanater, El-Bostan, Heliopolis, Cairo Governorate, Egypt", "lat": 31.3307361, "types": ["clothing_store", "point_of_interest", "store", "establishment"], "place_id": "ChIJQRbkVosVWBQRdqStU0t_2S8"}, {"name": "St. Mark Coptic Orthodox Church Cleopatra", "formatted_address": "35 كيلوباترا، الماظة، قسم مصر الجديدة،، Cairo Governorate, Egypt", "lat": 31.3296246, "types": ["church", "place_of_worship", "point_of_interest", "establishment"], "place_id": "ChIJH3kNmooVWBQRfL4z5mf-KXU"}, {"name": "Salah Al Din Square (Heliopolis)", "formatted_address": "Almazah, Heliopolis, Cairo Governorate, Egypt", "lat": 31.330282, "types": ["transit_station", "point_of_interest", "establishment"], "place_id": "ChIJqQFEOYsVWBQRIpaMq83UaXs"}, {"name": "El Asema Hospital Heliopolis", "formatted_address": "12 Shebeen, El-Bostan, Heliopolis, Cairo Governorate, Egypt", "lat": 31.3307213, "types": ["hospital", "health", "point_of_interest", "establishment"], "place_id": "ChIJ58RJTIsVWBQRT0Oog1-ibwA"}, {"name": "Maadi Island", "formatted_address": "Dar Al Salam, Giza Governorate, Egypt", "lat": 31.239237, "types": ["restaurant", "tourist_attraction", "park", "food", "point_of_interest", "establishment"], "place_id": "ChIJwY7d5MFHWBQRl1nMXlW_tUY"}, {"name": "Porto Heliopolis", "formatted_address": "Almazah, Heliopolis, Cairo Governorate, Egypt", "lat": 31.348709, "types": ["lodging", "point_of_interest", "establishment"], "place_id": "ChIJR5FCXgE-WBQR471eyuZuvGw"}, {"name": "وليد", "formatted_address": "2 القناطر، البستان، قسم مصر الجديدة، محافظة القاهرة‬،، Egypt", "lat": 31.3301106, "types": ["point_of_interest", "establishment"], "place_id": "ChIJJfPLY8EVWBQR7ZTi1WmuTfY"}, {"name": "Radisson Blu Hotel, Cairo Heliopolis", "formatted_address": "Abdel Hamid Badawi St Heliopolis, Cairo Governorate 11787, Egypt", "lat": 31.3753121, "types": ["lodging", "point_of_interest", "establishment"], "place_id": "ChIJQZJ8fWUWWBQRAUPO9I6SxPg"}, {"name": "Capital Hospital Heliopolis", "formatted_address": "ميدان صلاح الدين، El-Bostan, Heliopolis, Cairo Governorate, Egypt", "lat": 31.3309065, "types": ["hospital", "health", "point_of_interest", "establishment"], "place_id": "ChIJ-UxPTIsVWBQRtB4WWX5rP_Y"}, {"name": "Dr Abou regela", "formatted_address": "4 Al Qanater, El-Bostan, Heliopolis, Cairo Governorate, Egypt", "lat": 31.3310017, "types": ["doctor", "health", "point_of_interest", "establishment"], "place_id": "ChIJfQN9FxMVWBQRGX-6iphvmCQ"}, {"name": "ميدان الجامع", "formatted_address": "Al Gamea Sq., El-Bostan, Heliopolis, Cairo Governorate, Egypt", "lat": 31.3284471, "types": ["point_of_interest", "establishment"], "place_id": "ChIJm2mEeIsVWBQRCjnDXHwgOjs"}, {"name": "El Rahman", "formatted_address": "Al Bustan, Heliopolis, Cairo Governorate, Egypt", "lat": 31.3303396, "types": ["point_of_interest", "establishment"], "place_id": "ChIJIefbpowVWBQRrEQrzGtnT3Q"}, {"name": "Post Office - West Heliopolis", "formatted_address": "El-Nozha, El Nozha, Cairo Governorate, Egypt", "lat": 31.33018539999999, "types": ["post_office", "finance", "point_of_interest", "establishment"], "place_id": "ChIJ-1tRxpIVWBQR8pyCMmqAgXM"}, {"name": "El Motaheda Stationery", "formatted_address": "8 Al Qanater, El-Bostan, Heliopolis, Cairo Governorate, Egypt", "lat": 31.330685, "types": ["book_store", "point_of_interest", "store", "establishment"], "place_id": "ChIJm4EJqYwVWBQR6p10h1629k8"}, {"name": "Candle Center", "formatted_address": "Madinet Al Qanater Al Khayreyah, El Qanater El Khayreya, Al Qalyubia Governorate, Egypt", "lat": 31.1384342, "types": ["point_of_interest", "establishment"], "place_id": "ChIJb0DnFQ9pWBQR04UYR3SSxPY"}, {"name": "Baron Hotel Heliopolis", "formatted_address": "14 Al Baroon, El-Montaza, Heliopolis, Cairo Governorate, Egypt", "lat": 31.3314609, "types": ["lodging", "point_of_interest", "establishment"], "place_id": "ChIJUbVOACI-WBQRWsi5B7gYfxs"}, {"name": "La Garderie", "formatted_address": "5-8, Damanhour, El-Bostan, Heliopolis, Cairo Governorate, Egypt", "lat": 31.330657, "types": ["point_of_interest", "establishment"], "place_id": "ChIJhz-1qIwVWBQR0Pq7qvHkirk"}, {"name": "Labor Bureau - Heliopolis", "formatted_address": "3 Haroun El-Rashid, El-Bostan, Heliopolis, Cairo Governorate, Egypt", "lat": 31.32925089999999, "types": ["point_of_interest", "establishment"], "place_id": "ChIJMbYPyfIVWBQRwRHg80Z7Y64"}, {"name": "Heliopolis Towers Hotel", "formatted_address": "El Shaheed Sayed Zakaria, Sheraton Al Matar, El Nozha, Cairo Governorate 11736, Egypt", "lat": 31.3661798, "types": ["lodging", "point_of_interest", "establishment"], "place_id": "ChIJZ9p3820WWBQRmZh2M_MSzOQ"}, {"name": "Sherouk", "formatted_address": "Al Bustan, Heliopolis, Cairo Governorate, Egypt", "lat": 31.3307319, "types": ["point_of_interest", "store", "establishment"], "place_id": "ChIJe281qIwVWBQRp5ORIwRDUBA"}, {"name": "العزازي للطباعة", "formatted_address": "20 Damanhour, El-Bostan, Heliopolis, Cairo Governorate, Egypt", "lat": 31.3294301, "types": ["point_of_interest", "establishment"], "place_id": "ChIJN7vok4wVWBQRWDTYod0D160"}, {"name": "El Horreya", "formatted_address": "Madinet Al Qanater Al Khayreyah, El Qanater El Khayreya, Al Qalyubia Governorate, Egypt", "lat": 31.1384342, "types": ["point_of_interest", "establishment"], "place_id": "ChIJb0DnFQ9pWBQRONbU_rBcUn0"}, {"name": "Negmet Heliopolis", "formatted_address": "5 ش الرملة متفرع من اسماعيل رمزى, Al Gamea Sq., Heliopolis, Cairo Governorate, Egypt", "lat": 31.3288131, "types": ["supermarket", "grocery_or_supermarket", "food", "point_of_interest", "store", "establishment"], "place_id": "ChIJ4fyiDosVWBQR_9nQVlRtOVQ"}, {"name": "Citystars Heliopolis", "formatted_address": "Citystars, Cairo Governorate 11771, Egypt", "lat": 31.3458082, "types": ["shopping_mall", "point_of_interest", "establishment"], "place_id": "ChIJo0ecE_gVWBQRGGrouhZFdME"}, {"name": "The Great Pyramid of Giza", "formatted_address": "Al Haram, Nazlet El-Semman, Al Giza Desert, Giza Governorate, Egypt", "lat": 31.1342019, "types": ["tourist_attraction", "premise", "point_of_interest", "establishment"], "place_id": "ChIJGymPrIdFWBQRJCSloj8vDIE"}, {"name": "Khattab Paper Point", "formatted_address": "4 ش صلاح الدين، Almazah, Heliopolis, Cairo Governorate, Egypt", "lat": 31.3341, "types": ["point_of_interest", "establishment"], "place_id": "ChIJx9lCdfUVWBQRkBpdq15VFcs"}, {"name": "معمل ألفا - فرع صلاح الدين", "formatted_address": "برج روما سنتر، 28 Othman Ibn Affan, El-Bostan, Heliopolis, Cairo Governorate, Egypt", "lat": 31.3327357, "types": ["health", "point_of_interest", "establishment"], "place_id": "ChIJ_34qwhwVWBQRi1oUsdsvolM"}, {"name": "Queens Hospital _ Cleopatra Hospitals Group", "formatted_address": "4 Sheikh Nour Eldin, off Thawra St., Heliopolis, 11345, Egypt", "lat": 31.3318691, "types": ["hospital", "doctor", "health", "point_of_interest", "establishment"], "place_id": "ChIJ65q6gh8-WBQRb6VXdsqqg4w"}, {"name": "Il Pennello Ceramic Café & Restaurant", "formatted_address": "Omar Ibn El-Khattab, El-Bostan, Heliopolis, Cairo Governorate, Egypt", "lat": 31.33329, "types": ["cafe", "restaurant", "food", "point_of_interest", "establishment"], "place_id": "ChIJA9aGkfIVWBQR6C-ilXdzmvM"}, {"name": "Mum&Me Montessori International Academy", "formatted_address": "9 Damanhour, El-Bostan, Heliopolis, Cairo Governorate, Egypt", "lat": 31.3306002, "types": ["school", "point_of_interest", "establishment"], "place_id": "ChIJ_-omIicVWBQRHcYPCY-7HkM"}, {"name": "Golden Park Hotel", "formatted_address": "شارع الحجاز ، مصر الجديده، 221 شارع الحجاز ، هيليوبوليس ،، El Nozha, Cairo Governorate, Egypt", "lat": 31.3525102, "types": ["lodging", "point_of_interest", "establishment"], "place_id": "ChIJsQQdRNgVWBQRss6fVxNFk_8"}, {"name": "الناسخ السريع", "formatted_address": "٧ شارع الدلتا - متفرع من شارع دمنهور, Al Gamea Sq., Heliopolis, Cairo Governorate 11757, Egypt", "lat": 31.33044289999999, "types": ["point_of_interest", "store", "establishment"], "place_id": "ChIJ11WD8VgVWBQRV7-bO1yAIe4"}, {"name": "Al Reda", "formatted_address": "Al Bustan, Heliopolis, Cairo Governorate, Egypt", "lat": 31.3299031, "types": ["hardware_store", "home_goods_store", "point_of_interest", "store", "establishment"], "place_id": "ChIJ0Z64lYwVWBQRuDtv3i5LUHM"}, {"name": "Greek Cultural Center", "formatted_address": "1 ميدان صلاح الدين، El-Bostan, Heliopolis, Cairo Governorate, Egypt", "lat": 31.3316764, "types": ["point_of_interest", "establishment"], "place_id": "ChIJqUvOiKtAWBQRTyx5-5Qk4_4"}, {"name": "(Heliopolis Public library)", "formatted_address": "Beirut, Almazah, Heliopolis, Cairo Governorate, Egypt", "lat": 31.3328428, "types": ["library", "point_of_interest", "establishment"], "place_id": "ChIJd3h9YvUVWBQR2Oi9DLQTI8E"}, {"name": "صوت الفن", "formatted_address": "16 Adly, Bab Al Louq, Abdeen, Cairo Governorate, Egypt", "lat": 31.244439, "types": ["point_of_interest", "establishment"], "place_id": "ChIJ__8vEb5AWBQRqaCYbvGsNWU"}, {"name": "أولاد خضر للعطارة", "formatted_address": "7 Al Delta, El-Bostan, Heliopolis, Cairo Governorate, Egypt", "lat": 31.33052, "types": ["point_of_interest", "establishment"], "place_id": "ChIJzUbMTpQVWBQRvCEEJthAd4E"}, {"name": "Elsook Eltgare-Home Tools", "formatted_address": "Al Bustan, Heliopolis, Cairo Governorate, Egypt", "lat": 31.3305133, "types": ["car_repair", "point_of_interest", "establishment"], "place_id": "ChIJq0zipYwVWBQR-MkBA4V6o8U"}, {"name": "Abou Samra", "formatted_address": "Madinet Al Qanater Al Khayreyah, El Qanater El Khayreya, Al Qalyubia Governorate, Egypt", "lat": 31.1384342, "types": ["point_of_interest", "establishment"], "place_id": "ChIJb0DnFQ9pWBQRC6sMULbUH-w"}]