[{"name": "Ittihadia Palace", "formatted_address": "Al Nadi، El-Montaza, Heliopolis, Cairo Governorate, Egypt", "lat": 30.0888643, "lng": 31.3193929, "types": ["tourist_attraction", "premise", "point_of_interest", "establishment"], "place_id": "ChIJuftqUS8-WBQRtM7fDk0QcPk"}, {"name": "Our Lady of Heliopolis Co-Cathedral", "formatted_address": "Nazih Khalifa crossroad، Al Ahram, Heliopolis, Cairo Governorate, Egypt", "lat": 30.0935707, "lng": 31.3251828, "types": ["church", "place_of_worship", "point_of_interest", "establishment"], "place_id": "ChIJJdgh-okVWBQR5TqTmKuQ0IM"}, {"name": "Baron Empain Palace", "formatted_address": "El-Orouba, El-Montaza, Heliopolis, Cairo Governorate 11757, Egypt", "lat": 30.0866701, "lng": 31.3303332, "types": ["point_of_interest", "establishment"], "place_id": "ChIJ1_GM8iE-WBQRLNVi-RT7vDA"}, {"name": "El Korba Square - الكوربة مصر الجديدة", "formatted_address": "7 Abo Al Houl ST., Korba Square, المنتزه، قسم مصر الجديدة، محافظة القاهرة‬،, المنتزه، قسم مصر الجديدة، محافظة, القاهرة‬،, Egypt", "lat": 30.0910293, "lng": 31.324302, "types": ["point_of_interest", "establishment"], "place_id": "ChIJUduKY5k_WBQRwgxGmYZDrhU"}, {"name": "الكاتدرائية المرقسية بالعباسية", "formatted_address": "222 Ramses, El-Demerdash, Al Waili, Cairo Governorate, Egypt", "lat": 30.0723123, "lng": 31.2751707, "types": ["tourist_attraction", "church", "place_of_worship", "point_of_interest", "establishment"], "place_id": "ChIJyT6K35o_WBQRbPkqnilswVY"}, {"name": "Cairo Tower", "formatted_address": "Zamalek, Cairo Governorate, Egypt", "lat": 30.045915, "lng": 31.2242898, "types": ["tourist_attraction", "premise", "museum", "point_of_interest", "establishment"], "place_id": "ChIJpVgdqJpAWBQR_tZY0ny_5mw"}, {"name": "Professional For Marketing Services", "formatted_address": "190 ش رمسيس، مدينة نصر، القاهرة، Cairo Governorate, Egypt", "lat": 30.0897147, "lng": 31.3227357, "types": ["point_of_interest", "establishment"], "place_id": "ChIJp75Q9SY-WBQRF36GpnxGm1c"}, {"name": "ماك لتنشيط الاعمال التجاريه", "formatted_address": "22 أ Ramses, El-Montaza, Heliopolis, Cairo Governorate, Egypt", "lat": 30.0891201, "lng": 31.32319009999999, "types": ["point_of_interest", "establishment"], "place_id": "ChIJC6nvjiY-WBQR_seoTBbNBfw"}, {"name": "Salah Al-Din Al-Ayoubi Castle, Salah Salem Street, Cairo", "formatted_address": "Salah Salem St, Al Abageyah, El-Khalifa, Cairo Governorate, Egypt", "lat": 30.0290436, "lng": 31.2594688, "types": ["point_of_interest", "establishment"], "place_id": "ChIJY-3CkKxAWBQRby736eSW2y8"}, {"name": "Al Kassab For Real Estate Investment", "formatted_address": "10 heliopolis st.، El-Montaza, Heliopolis, Cairo Governorate, Egypt", "lat": 30.0909837, "lng": 31.322709, "types": ["point_of_interest", "establishment"], "place_id": "ChIJ_____yY-WBQRM7zms1xEyyk"}, {"name": "براندز فور ليس", "formatted_address": "56 Ramses, El-Montaza, Heliopolis, Cairo Governorate, Egypt", "lat": 30.0925804, "lng": 31.320295, "types": ["point_of_interest", "establishment"], "place_id": "ChIJTcr02yc-WBQRRWWH2uHhLUQ"}, {"name": "Andalusian Garden", "formatted_address": "Emtedad Ramses, As Sarayat Ash Sharqeyah, Nasr City, Cairo Governorate, Egypt", "lat": 30.061296, "lng": 31.3003751, "types": ["park", "point_of_interest", "establishment"], "place_id": "ChIJ0zHMBKk_WBQRcsehjuBGW6U"}, {"name": "Heliopolis Evangelical Church", "formatted_address": "18 Cleopatra, Almazah, Heliopolis, Cairo Governorate, Egypt", "lat": 30.0913153, "lng": 31.3280276, "types": ["church", "place_of_worship", "point_of_interest", "establishment"], "place_id": "ChIJibHnjiA-WBQRs_geaF2cbjU"}, {"name": "Arab Co. For Environmental Engineering - Eco Tech", "formatted_address": "11 Ramses, El-Montaza, Heliopolis, Cairo Governorate, Egypt", "lat": 30.0909837, "lng": 31.322709, "types": ["point_of_interest", "establishment"], "place_id": "ChIJ_____yY-WBQR08ajf4woGfc"}, {"name": "Lumina Sound & Light", "formatted_address": "11 Ramsis, El-Montaza, Heliopolis, Cairo Governorate, Egypt", "lat": 30.0904116, "lng": 31.3227533, "types": ["point_of_interest", "establishment"], "place_id": "ChIJ_____yY-WBQR-IILOW4azi8"}, {"name": "Masjid El Fath", "formatted_address": "Ramses, Al Gayarah, Al Azbakeya, Cairo Governorate, Egypt", "lat": 30.0598295, "lng": 31.246056, "types": ["mosque", "place_of_worship", "point_of_interest", "establishment"], "place_id": "ChIJI29lhZFAWBQRvIPOeJWKZow"}, {"name": "Al-Azhar Mosque", "formatted_address": "El-Darb El-Ahmar, Cairo Governorate, Egypt", "lat": 30.045688, "lng": 31.2626851, "types": ["mosque", "tourist_attraction", "place_of_worship", "point_of_interest", "establishment"], "place_id": "ChIJ9SH986JAWBQR6FIeS8dSZ2c"}, {"name": "The National Museum of Egyptian Civilization", "formatted_address": "Ein as Seirah, Old Cairo, Cairo Governorate, Egypt", "lat": 30.0081493, "lng": 31.2482604, "types": ["museum", "tourist_attraction", "point_of_interest", "establishment"], "place_id": "ChIJj57jY2hHWBQRXRSPb0RY4MI"}, {"name": "MASTOORA", "formatted_address": "56 شارع رمسيس - روكسي، El-Montaza, Heliopolis, Egypt", "lat": 30.0925804, "lng": 31.320295, "types": ["clothing_store", "point_of_interest", "store", "establishment"], "place_id": "ChIJZ6Eh34kVWBQRuNmBY1AKeWM"}, {"name": "El Ryadh For Recruitment", "formatted_address": "11 Ramses, El-Montaza, Heliopolis, Cairo Governorate, Egypt", "lat": 30.0909837, "lng": 31.322709, "types": ["point_of_interest", "establishment"], "place_id": "ChIJ_____yY-WBQRRghNhE86fek"}, {"name": "Dr. Tarek Hussein", "formatted_address": "٥٦ شارع رمسيس تقاطع, Boutros Ghaly, روكسي, Heliopolis, Cairo Governorate, Egypt", "lat": 30.0925376, "lng": 31.3203418, "types": ["doctor", "health", "point_of_interest", "establishment"], "place_id": "ChIJnbOLff0_WBQROv0TSj_Zbys"}, {"name": "Continue Academy", "formatted_address": "رمسيس، 45 شارع رمسيس متفرع من شارع الاهرام، Heliopolis, 12411, Egypt", "lat": 30.0918763, "lng": 31.3212095, "types": ["point_of_interest", "establishment"], "place_id": "ChIJ-4jTzic-WBQRMB3j2MvJuco"}, {"name": "منظمه المرأة العربيه", "formatted_address": "منظمه المراه العربيه25 شارع رمسيس, Egypt", "lat": 30.0894671, "lng": 31.3232539, "types": ["point_of_interest", "establishment"], "place_id": "ChIJbcwo9SY-WBQRAs5QXjC-8uA"}, {"name": "Agyco International Center", "formatted_address": "16 Baghdad St, El-Montaza, Heliopolis, Cairo Governorate, Egypt", "lat": 30.0909837, "lng": 31.322709, "types": ["point_of_interest", "establishment"], "place_id": "ChIJ-wyUFY9AWBQRn3jWGJUN7t4"}, {"name": "Heliopolis Community Church", "formatted_address": "City, El-Montaza, Heliopolis, Cairo Governorate, Egypt", "lat": 30.088439, "lng": 31.3229244, "types": ["church", "place_of_worship", "point_of_interest", "establishment"], "place_id": "ChIJmUbmrSA-WBQRF4KOCvyi5S8"}, {"name": "St Michael's Church الكنيسة الأسقفية بالكوربة", "formatted_address": "Baghdad St, El-Montaza, Heliopolis, Cairo Governorate, Egypt", "lat": 30.0884753, "lng": 31.3229984, "types": ["church", "place_of_worship", "point_of_interest", "establishment"], "place_id": "ChIJfaLreiY-WBQRlouIfsEe-o8"}, {"name": "Korba Posta Office", "formatted_address": "البوسطة، المنتزه، مصر الجديدة،، Cairo Governorate, Egypt", "lat": 30.0894726, "lng": 31.3216349, "types": ["post_office", "finance", "point_of_interest", "establishment"], "place_id": "ChIJX8nHbSY-WBQRDrUhlxkHb-M"}, {"name": "Health & Beauty Magazine", "formatted_address": "7 ش الصومال، El-Montaza, Heliopolis, Cairo Governorate, Egypt", "lat": 30.0904986, "lng": 31.3220716, "types": ["point_of_interest", "establishment"], "place_id": "ChIJMYqgWiY-WBQRDupdaEM-Suk"}, {"name": "محور الفردوس", "formatted_address": "Keswa, El-Gamaleya, El Gamaliya, Cairo Governorate, Egypt", "lat": 30.0539873, "lng": 31.28057799999999, "types": ["park", "point_of_interest", "establishment"], "place_id": "ChIJgfNAB4Y_WBQRCoLcil2RCwo"}, {"name": "Teachers Syndicate Heliopolis Branch", "formatted_address": "1 شارع غرناطة ، شارع ابراهيم اللقانى ، روكسى، Heliopolis, Cairo Governorate, Egypt", "lat": 30.0925119, "lng": 31.3177426, "types": ["point_of_interest", "establishment"], "place_id": "ChIJlS5HVig-WBQRk-sRVLziuKs"}, {"name": "Travel Choice Korba Branch", "formatted_address": "7 Baghdad St, El-Montaza, Heliopolis, Cairo Governorate, Egypt", "lat": 30.0894817, "lng": 31.3226545, "types": ["travel_agency", "point_of_interest", "establishment"], "place_id": "ChIJY_PEYSY-WBQR9Z73VcKvUCU"}, {"name": "Egypt Marketing Company Tourism and Hospitality", "formatted_address": "Ramses, El-Montaza, Heliopolis, Cairo Governorate, Egypt", "lat": 30.0900668, "lng": 31.3223879, "types": ["travel_agency", "point_of_interest", "establishment"], "place_id": "ChIJSUWuXiY-WBQRQjYE1aTiIr8"}, {"name": "Hawsa Kids", "formatted_address": "45 شارع رمسيس، متفرع من شارع الاهرام، روكسي، مصر الجديدة،، الاهرام، محافظة القاهرة‬،، Egypt", "lat": 30.0918569, "lng": 31.3209748, "types": ["clothing_store", "point_of_interest", "store", "establishment"], "place_id": "ChIJ_1O35vs_WBQRZ9CdhNL5BYo"}, {"name": "Casual Korba", "formatted_address": "55 شارع رمسيس متفرع من، Boutros Ghaly, Egypt", "lat": 30.0925297, "lng": 31.3203667, "types": ["shoe_store", "point_of_interest", "store", "establishment"], "place_id": "ChIJ_xjrPQk_WBQRDUEJ6M_yGzs"}, {"name": "Heliopolis House Hotel", "formatted_address": "القاهره، Cairo Governorate 11757, Egypt", "lat": 30.0904967, "lng": 31.3193882, "types": ["lodging", "point_of_interest", "establishment"], "place_id": "ChIJ_____yY-WBQRnKKY4Z5TlIA"}, {"name": "Dr. Tarek Hussein’s Oncology Clinic", "formatted_address": "٥٦ شارع رمسيس تقاطع, Boutros Ghaly, روكسي, Heliopolis, Cairo Governorate, Egypt", "lat": 30.0922534, "lng": 31.3206772, "types": ["doctor", "health", "point_of_interest", "establishment"], "place_id": "ChIJ84QIJTk_WBQRFarwu0xIuYY"}, {"name": "مركز الاستاذ الدكتور/ طارق مأمون للعيون", "formatted_address": "روكسى، 56 Ramses, Heliopolis, Cairo Governorate 11341, Egypt", "lat": 30.0925804, "lng": 31.320295, "types": ["doctor", "health", "point_of_interest", "establishment"], "place_id": "ChIJsUd0f5RAWBQRR7Dr-c0YNog"}, {"name": "معمل الاهرام روكسي. دكتورة ليلي رؤوف جندي ابوسيف. El Ahram lab Roxy", "formatted_address": "٧ شارع الاهرام فوق البنك الاهلي _ روكسي مصر الجديدة 7 al Aahram street Roxy Heliopolis Heliopolis, Cairo Governorate 11341, Egypt", "lat": 30.0908038, "lng": 31.32071699999999, "types": ["health", "point_of_interest", "establishment"], "place_id": "ChIJVWkOpSc-WBQRdR-9lGBIi1E"}, {"name": "Dr. Raouf Rafiq Ramsis", "formatted_address": "11 Ramses, El-Montaza, Heliopolis, Cairo Governorate, Egypt", "lat": 30.0912152, "lng": 31.3219045, "types": ["doctor", "health", "point_of_interest", "establishment"], "place_id": "ChIJ_____yY-WBQRuoKFUR9NTTk"}, {"name": "مؤسسة مصر الخير- فرع الكوربة", "formatted_address": "2 شارع بغداد متفرع من ابراهيم اللقاني بجوار سور الاتحادية الكوربة، Heliopolis, Cairo Governorate, Egypt", "lat": 30.0898094, "lng": 31.3226234, "types": ["point_of_interest", "establishment"], "place_id": "ChIJj6WsXZM_WBQRSvVjdFJpiKM"}, {"name": "Gallery Taji", "formatted_address": "11 Ramsis, El-Montaza, Heliopolis, Cairo Governorate, Egypt", "lat": 30.0903777, "lng": 31.3226957, "types": ["point_of_interest", "establishment"], "place_id": "ChIJ_____yY-WBQRt0yCAEjtATQ"}, {"name": "Assets For Real Estate", "formatted_address": "11 Ramsis, El-Montaza, Heliopolis, Cairo Governorate, Egypt", "lat": 30.0909837, "lng": 31.322709, "types": ["point_of_interest", "establishment"], "place_id": "ChIJ_____yY-WBQR8HmFzmGh5-g"}, {"name": "International Office For Legal Consultations", "formatted_address": "11 Ramsis, El-Montaza, Heliopolis, Cairo Governorate, Egypt", "lat": 30.0909837, "lng": 31.322709, "types": ["point_of_interest", "establishment"], "place_id": "ChIJ_____yY-WBQR967BHUnPjoA"}, {"name": "FAB", "formatted_address": "شارع رمسيس، مصر الجديدة، قسم مصر الجديدة،، Cairo Governorate, Egypt", "lat": 30.0878077, "lng": 31.32466239999999, "types": ["atm", "finance", "point_of_interest", "establishment"], "place_id": "ChIJ0YWeHSQ-WBQRULxx7-bTtoE"}, {"name": "Dokan JEANS", "formatted_address": "شارع رمسيس متفرع من شارع, Boutros Ghaly, روكسي, Cairo Governorate, Egypt", "lat": 30.0920578, "lng": 31.3211429, "types": ["point_of_interest", "clothing_store", "store", "establishment"], "place_id": "ChIJDZBJSXQ_WBQR31t9bLCad8k"}, {"name": "United For Import & Export", "formatted_address": "El Moushir Kamal Hassan Aly St.، El-Montaza, Heliopolis, Cairo Governorate, Egypt", "lat": 30.0909837, "lng": 31.322709, "types": ["point_of_interest", "establishment"], "place_id": "ChIJ_____yY-WBQRDkXnZRbNJzU"}, {"name": "Heliopolis Company For Housing & Development", "formatted_address": "28 Ibrahim Al Lakani, El-Montaza, Heliopolis, Cairo Governorate, Egypt", "lat": 30.089427, "lng": 31.32091599999999, "types": ["general_contractor", "point_of_interest", "establishment"], "place_id": "ChIJeUp1DiY-WBQRkHRQbiaGSrA"}, {"name": "Baron Hotel Heliopolis", "formatted_address": "14 Al Baroon, El-Montaza, Heliopolis, Cairo Governorate, Egypt", "lat": 30.0860748, "lng": 31.3314609, "types": ["lodging", "point_of_interest", "establishment"], "place_id": "ChIJUbVOACI-WBQRWsi5B7gYfxs"}, {"name": "شركه الماسه فرع روكسى", "formatted_address": "Ramses, El-Montaza, Heliopolis, Cairo Governorate, Egypt", "lat": 30.0927895, "lng": 31.3197959, "types": ["point_of_interest", "establishment"], "place_id": "ChIJxXlQ4Cc-WBQRbU-XcgHA2FQ"}, {"name": "St. Mark Coptic Orthodox Church Cleopatra", "formatted_address": "35 كيلوباترا، الماظة، قسم مصر الجديدة،، Cairo Governorate, Egypt", "lat": 30.0924011, "lng": 31.3296246, "types": ["church", "place_of_worship", "point_of_interest", "establishment"], "place_id": "ChIJH3kNmooVWBQRfL4z5mf-KXU"}, {"name": "BCD Travel Heliopolis/Cairo", "formatted_address": "5 Al Fatemeen Street, Ismailia Square, Heliopolis, Cairo Governorate, Egypt", "lat": 30.0906522, "lng": 31.3230963, "types": ["travel_agency", "point_of_interest", "establishment"], "place_id": "ChIJCaOLYsQ_WBQRu5LT7S-Acgw"}, {"name": "Heliopolis Comprehensive Clinic", "formatted_address": "El-Montaza, Heliopolis, Cairo Governorate, Egypt", "lat": 30.0912332, "lng": 31.3212805, "types": ["health", "point_of_interest", "establishment"], "place_id": "ChIJWSiOtic-WBQRE26bOmWIhQE"}, {"name": "Casual", "formatted_address": "54 شارع رمسيس روكسي، Cairo Governorate 11757, Egypt", "lat": 30.0924525, "lng": 31.3204257, "types": ["shoe_store", "point_of_interest", "store", "establishment"], "place_id": "ChIJRTZo0Cc-WBQRlKAxf1XWUds"}, {"name": "مكتب بريد هليوبوليس", "formatted_address": "Al Bostah, El-Montaza, Heliopolis, Cairo Governorate, Egypt", "lat": 30.0895658, "lng": 31.32145289999999, "types": ["post_office", "finance", "point_of_interest", "establishment"], "place_id": "ChIJUxT4bCY-WBQReH-iJrJAbDM"}, {"name": "Mina Femme", "formatted_address": "54 Ramses, El-Montaza, Heliopolis, Cairo Governorate, Egypt", "lat": 30.09238, "lng": 31.3203406, "types": ["clothing_store", "point_of_interest", "store", "establishment"], "place_id": "ChIJVVVF2ic-WBQRYe_HEiiZcgo"}, {"name": "Simon Shop", "formatted_address": "23 Ramses, El-Montaza, Heliopolis, Cairo Governorate, Egypt", "lat": 30.0892968, "lng": 31.3233967, "types": ["point_of_interest", "store", "establishment"], "place_id": "ChIJJ7qsjyY-WBQRoAIqjtCoRoc"}, {"name": "Heliopolis Sporting Club (HSC)", "formatted_address": "17 El-Sayed El-Marghany, Mansheya El-Bakry, Heliopolis, Cairo Governorate, Egypt", "lat": 30.0883155, "lng": 31.3164398, "types": ["point_of_interest", "establishment"], "place_id": "ChIJB9zy8B4-WBQRz_zRpJte8sA"}, {"name": "Super Exchange", "formatted_address": "31 Ramses, El-Montaza, Heliopolis, Cairo Governorate, Egypt", "lat": 30.09032, "lng": 31.3226085, "types": ["finance", "point_of_interest", "establishment"], "place_id": "ChIJOW-_WSY-WBQRYPBEHxuEnTc"}, {"name": "Radisson Blu Hotel, Cairo Heliopolis", "formatted_address": "Abdel Hamid Badawi St Heliopolis, Cairo Governorate 11787, Egypt", "lat": 30.1065093, "lng": 31.3753121, "types": ["lodging", "point_of_interest", "establishment"], "place_id": "ChIJQZJ8fWUWWBQRAUPO9I6SxPg"}, {"name": "Orascom Training & Technology", "formatted_address": "13 Demeashque St, Heliopolis، Roxy، Cairo Governorate 11599, Egypt", "lat": 30.0911175, "lng": 31.3219717, "types": ["point_of_interest", "establishment"], "place_id": "ChIJ_____yY-WBQR3Q3PibIfs_0"}]