[{"name": "فيحاء الخليج", "formatted_address": "6540 Al Gamea Al Haditha St, Al Abageyah, El Mukkatam, Cairo Governorate, Egypt", "lat": 29.9916748, "lng": 31.3168376, "types": ["point_of_interest", "establishment"], "place_id": "ChIJq5-pfSI5WBQRtze0A7tnOec"}, {"name": "Al-Roda Nilometer", "formatted_address": "Al-Miqyas Street, Southern Tip of Al-Roda Island, Cairo Governorate شارع المقياس, الطرف الجنوبي, لجزيرة الروضة, Cairo Governorate, Egypt", "lat": 30.0128843, "lng": 31.2240325, "types": ["point_of_interest", "establishment"], "place_id": "ChIJGVPuNj1HWBQRoFB2qr0p0MM"}, {"name": "Ittihadia Palace", "formatted_address": "Al Nadi، El-Montaza, Heliopolis, Cairo Governorate, Egypt", "lat": 30.0888643, "lng": 31.3193929, "types": ["tourist_attraction", "premise", "point_of_interest", "establishment"], "place_id": "ChIJuftqUS8-WBQRtM7fDk0QcPk"}, {"name": "Baron Empain Palace", "formatted_address": "El-Orouba, El-Montaza, Heliopolis, Cairo Governorate 11757, Egypt", "lat": 30.0866701, "lng": 31.3303332, "types": ["point_of_interest", "establishment"], "place_id": "ChIJ1_GM8iE-WBQRLNVi-RT7vDA"}, {"name": "5th District garden", "formatted_address": "6378 Mohammed Abou Zaid, Al Abageyah, El Mukkatam, Cairo Governorate, Egypt", "lat": 29.9934724, "lng": 31.3158749, "types": ["park", "point_of_interest", "establishment"], "place_id": "ChIJW8cRss85WBQRvoj2N3FqQJ0"}, {"name": "المصرية الدولية للاستيراد والتصدير", "formatted_address": "161 Al Gamea Al Haditha St, Al Abageyah, El Mukkatam, Cairo Governorate, Egypt", "lat": 29.991904, "lng": 31.3145288, "types": ["point_of_interest", "establishment"], "place_id": "ChIJC1A3ByI5WBQRKbICUrUCh5Y"}, {"name": "Mini Compound الروضة 4", "formatted_address": "Mini Compound الروضة 4 شارع الروضة، 4, Al Abageyah, قسم الخليفة، Cairo Governorate, Egypt", "lat": 29.9925266, "lng": 31.3147983, "types": ["point_of_interest", "establishment"], "place_id": "ChIJvywWbgA5WBQRfmGY_mOEIUQ"}, {"name": "Abdeen Palace Museum", "formatted_address": "شارع جمعه عابدين،، El-Gomhoreya Square, Rahbet Abdin, Abdeen, Cairo Governorate, Egypt", "lat": 30.0422696, "lng": 31.248544, "types": ["tourist_attraction", "museum", "point_of_interest", "establishment"], "place_id": "ChIJF_ZR9bpAWBQR_WeDJloU-7o"}, {"name": "صيدلية ليلة", "formatted_address": "Al Abageyah, قسم الخليفة، Cairo Governorate, Egypt", "lat": 29.9922795, "lng": 31.31181429999999, "types": ["point_of_interest", "establishment"], "place_id": "ChIJX98E9PQ5WBQRWbfSI94a14A"}, {"name": "El Shahir", "formatted_address": "38, Al Abageyah, قسم الخليفة، Cairo Governorate, Egypt", "lat": 29.9939539, "lng": 31.3130613, "types": ["point_of_interest", "establishment"], "place_id": "ChIJ-74skSE5WBQR6pASU52m-20"}, {"name": "Sultan Al-Ashraf Qaytbay Mosque and Mausoleum", "formatted_address": "El-Gamaleya, El Gamaliya, Cairo Governorate, Egypt", "lat": 30.0438889, "lng": 31.275, "types": ["mosque", "tourist_attraction", "place_of_worship", "point_of_interest", "establishment"], "place_id": "ChIJi-5yHWg_WBQRC0czPCgA_vw"}, {"name": "شركة قصور مصر للإستثمار العقاري والمقاولات", "formatted_address": "شارع الروضة، Al Abageyah, قسم الخليفة، Cairo Governorate, Egypt", "lat": 29.9924991, "lng": 31.314863, "types": ["general_contractor", "point_of_interest", "establishment"], "place_id": "ChIJtXd5ECI5WBQRiZ0k2kfTymI"}, {"name": "Our Lady of Heliopolis Co-Cathedral", "formatted_address": "Nazih Khalifa crossroad، Al Ahram, Heliopolis, Cairo Governorate, Egypt", "lat": 30.0935707, "lng": 31.3251828, "types": ["church", "place_of_worship", "point_of_interest", "establishment"], "place_id": "ChIJJdgh-okVWBQR5TqTmKuQ0IM"}, {"name": "مكتبة أوكا", "formatted_address": "شارع الروضة، Al Abageyah, قسم الخليفة، Cairo Governorate, Egypt", "lat": 29.9924822, "lng": 31.3151878, "types": ["point_of_interest", "store", "establishment"], "place_id": "ChIJJdB8ESI5WBQRJsaYjyJ7bTk"}, {"name": "Spine Architecture And Engineering", "formatted_address": "12 الحريري، Al Manteqah Al Oula, Nasr City, Cairo Governorate, Egypt", "lat": 29.9905358, "lng": 31.31486, "types": ["point_of_interest", "establishment"], "place_id": "ChIJBXmCvmg-WBQR5EIo2ts4_9U"}, {"name": "جمعية بنكمل بعض للاعمال الخيريه", "formatted_address": "قطعة 6501 الحي الخامس، El Mukkatam, Cairo Governorate, Egypt", "lat": 29.992941, "lng": 31.315988, "types": ["point_of_interest", "establishment"], "place_id": "ChIJocbcgDc5WBQR4j7KZxKMfzY"}, {"name": "Home", "formatted_address": "Mokattam Entrance, Al Gamea Al Haditha St, Al Abageyah, El Mukkatam, Cairo Governorate, Egypt", "lat": 29.9915295, "lng": 31.3178685, "types": ["lodging", "point_of_interest", "establishment"], "place_id": "ChIJJVJjIME5WBQRR9cv1PtCc1A"}, {"name": "ايطاليانو ITALIANO", "formatted_address": "بجوار الاكاديمية الحديثة، شارع الروضة، الأباجية، قسم الخليفة، محافظة القاهرة‬، مصر، شارع الروضة،، Egypt", "lat": 29.9933969, "lng": 31.3134633, "types": ["restaurant", "food", "point_of_interest", "establishment"], "place_id": "ChIJpe2Wyr45WBQROAaqGhNZhWA"}, {"name": "VIP Playstation", "formatted_address": "6319, شارع الروضة، الأباجية، قسم الخليفة، محافظة القاهرة‬،، 11571, Egypt", "lat": 29.9918503, "lng": 31.3175278, "types": ["point_of_interest", "store", "establishment"], "place_id": "ChIJi-q6ki45WBQRQeyevmhSs_A"}, {"name": "مطعم هالبينو", "formatted_address": "شارع الروضة، Al Abageyah, قسم الخليفة، Cairo Governorate, Egypt", "lat": 29.9922506, "lng": 31.3140467, "types": ["restaurant", "food", "point_of_interest", "establishment"], "place_id": "ChIJ4Zj4-iE5WBQRmhrHQbl2UuY"}, {"name": "Dahab Cafe", "formatted_address": "بجوار الاكاديمية الحديثة، شارع الروضة، الأباجية، قسم الخليفة، محافظة القاهرة‬، مصر، شارع الروضة،، الأباجية، المقطم، محافظة القاهرة‬،، Egypt", "lat": 29.9934665, "lng": 31.3135197, "types": ["cafe", "food", "point_of_interest", "store", "establishment"], "place_id": "ChIJ3T1A0k05WBQRQRoVdB6R7iE"}, {"name": "ماركت إكسبريس 2", "formatted_address": "بجوار الاكاديمية الحديثة، شارع الروضة، الأباجية، قسم الخليفة، محافظة القاهرة‬، مصر، شارع الروضة،، الأباجية، المقطم، محافظة القاهرة‬،، Egypt", "lat": 29.993366, "lng": 31.313541, "types": ["supermarket", "grocery_or_supermarket", "food", "point_of_interest", "store", "establishment"], "place_id": "ChIJ28QR0Go5WBQRHjfmJ_VDrys"}, {"name": "Ebad Alrahman Mosque", "formatted_address": "إسماعيل المنوائي، Al Abageyah, قسم الخليفة، Cairo Governorate, Egypt", "lat": 29.9930093, "lng": 31.3168368, "types": ["mosque", "place_of_worship", "point_of_interest", "establishment"], "place_id": "ChIJBUJRWCI5WBQRhjjoYnecMkQ"}, {"name": "Family Park", "formatted_address": "مدخل الرحاب 2 ) الكيلو 26،، Suez Rd, Egypt", "lat": 30.0802783, "lng": 31.5013244, "types": ["park", "tourist_attraction", "point_of_interest", "establishment"], "place_id": "ChIJ97tx7voYWBQR-q4kFfGwYYo"}, {"name": "مطعم عاشور", "formatted_address": "شارع الروضة، Al Abageyah, قسم الخليفة، Cairo Governorate, Egypt", "lat": 29.9929753, "lng": 31.3153917, "types": ["restaurant", "food", "point_of_interest", "establishment"], "place_id": "ChIJJdB8ESI5WBQRnowX9hGCtLA"}, {"name": "الحضيري للحدايد والبويات", "formatted_address": "الأكاديمية، الأباجية، قسم الخليفة،، Cairo Governorate, Egypt", "lat": 29.9920107, "lng": 31.3159836, "types": ["point_of_interest", "store", "establishment"], "place_id": "ChIJf3aUfQU5WBQRBttugzE0MqA"}, {"name": "Candy Market", "formatted_address": "Al Rawdah Steet, Al Abageyah, El Mukkatam, Cairo Governorate, Egypt", "lat": 29.9928156, "lng": 31.3137905, "types": ["point_of_interest", "establishment"], "place_id": "ChIJcaxLhXw5WBQRSBu-bHjM5NU"}, {"name": "HADesign STUDIO", "formatted_address": "MTI ST, شارع المقطم، Cairo Governorate, Egypt", "lat": 29.9921102, "lng": 31.3152792, "types": ["general_contractor", "point_of_interest", "establishment"], "place_id": "ChIJ8eJrrOo5WBQRv2uNLxR7qfY"}, {"name": "مودرن أكاديمي - هندسة", "formatted_address": "Al Abageyah, قسم الخليفة، Cairo Governorate, Egypt", "lat": 29.9927769, "lng": 31.3172435, "types": ["university", "point_of_interest", "establishment"], "place_id": "ChIJ9b--9iI5WBQRF0YsaIPvfi8"}, {"name": "مركز فليكس للعلاج الطبيعي والتغذية العلاجية", "formatted_address": "قطعة ٦٣٤٧ شارع الجامعة الحديثة الرئيسي شارع ٤٤, El Mukkatam, Cairo Governorate 11571, Egypt", "lat": 29.991789, "lng": 31.316235, "types": ["hospital", "health", "point_of_interest", "establishment"], "place_id": "ChIJpT1Xneg5WBQR_x6gLNLkDBQ"}, {"name": "سبونج بوب المقطم", "formatted_address": "Al Gamea Al Haditha St, Al Abageyah, El Mukkatam, Cairo Governorate, Egypt", "lat": 29.9919677, "lng": 31.31412, "types": ["point_of_interest", "establishment"], "place_id": "ChIJo4aeaRQ5WBQR6CNLO3Hl64c"}, {"name": "Time Gap Workspace", "formatted_address": "Al Abageyah, قسم الخليفة، Cairo Governorate, Egypt", "lat": 29.9930653, "lng": 31.3163235, "types": ["point_of_interest", "establishment"], "place_id": "ChIJb-_jwxY5WBQR8rY_CIskJE4"}, {"name": "سوبر ماركت منه الله", "formatted_address": "عارع العبدلاوي متفرع من شارع الجامعه الحديثة، شارع المقطم، القاهره, Cairo Governorate, Egypt", "lat": 29.991904, "lng": 31.3145288, "types": ["university", "point_of_interest", "establishment"], "place_id": "ChIJibz5G4A5WBQRu2xeBNZA8LY"}, {"name": "حضانة بنى", "formatted_address": "ش محمد الدع، شارع المقطم، Egypt", "lat": 29.9916522, "lng": 31.3134165, "types": ["school", "point_of_interest", "establishment"], "place_id": "ChIJIZKQUB85WBQR05FAimrptRo"}, {"name": "توب ليموزين لايجار السيارات", "formatted_address": "6347 Al Gamea Al Haditha St, Al Abageyah, El Mukkatam, Cairo Governorate 11575, Egypt", "lat": 29.9920002, "lng": 31.3161353, "types": ["car_rental", "point_of_interest", "establishment"], "place_id": "ChIJ_y1ZRiI5WBQRZNK1LwjZ7nQ"}, {"name": "Modern Academy for Engineering and Technology", "formatted_address": "El-Hadaba El-Wosta-Elmokattam Close to Mokattam Central, Egypt", "lat": 29.9932067, "lng": 31.3125908, "types": ["university", "point_of_interest", "establishment"], "place_id": "ChIJraoAwCE5WBQRckjTt_DL9Ik"}, {"name": "Academic Education Center", "formatted_address": "شارع العبدلاوي، Al Abageyah, قسم الخليفة، Cairo Governorate, Egypt", "lat": 29.9919846, "lng": 31.3167263, "types": ["school", "point_of_interest", "establishment"], "place_id": "ChIJP3YRYyI5WBQRCAjKjc2BqbI"}, {"name": "سنتر Success", "formatted_address": "Street 33, Al Abageyah, El Mukkatam, Cairo Governorate, Egypt", "lat": 29.9941064, "lng": 31.3149958, "types": ["point_of_interest", "establishment"], "place_id": "ChIJR4WVw_I5WBQRKz5a7CVGO-c"}, {"name": "شركه توب كلينر للتنظيف", "formatted_address": "شارع الجامعة الحديثة، الأباجية،، قسم الخليفة، Egypt", "lat": 29.9923893, "lng": 31.313485, "types": ["point_of_interest", "establishment"], "place_id": "ChIJ2fPuTz05WBQRCLMPcLCmM4s"}, {"name": "Go Heliopolis - Khozam The First Compound In Heliopolis", "formatted_address": "شارع النزهة، مصر الجديدة،، Egypt", "lat": 30.0732268, "lng": 31.3397646, "types": ["lodging", "point_of_interest", "establishment"], "place_id": "ChIJZ7ZHBKs_WBQRJD3Ntp2Q_ww"}, {"name": "قطعة 6385 ش ملحق هندسة الحى الخامس", "formatted_address": "مقابل جملتى ماركت الهضبة الوسطى من شارع الجامعة الحديثة، Al Rawdah Steet, الأباجية،، قسم الخليفة،، Cairo Governorate, Egypt", "lat": 29.9924079, "lng": 31.3162293, "types": ["point_of_interest", "establishment"], "place_id": "ChIJeQ8oFHs5WBQR2dcGHdgd4nc"}, {"name": "مشروع LAYAN", "formatted_address": "6341, شارع الجامعة الحديثة، الأباجية، قسم الخليفة، محافظة القاهرة‬،، Egypt", "lat": 29.9932102, "lng": 31.3174088, "types": ["lodging", "point_of_interest", "establishment"], "place_id": "ChIJIQuR3145WBQRmrNljMrDOBs"}, {"name": "التكية", "formatted_address": "Al Rawdah Steet, Al Abageyah, قسم الخليفة،، Cairo Governorate, Egypt", "lat": 29.9923729, "lng": 31.3165722, "types": ["restaurant", "food", "point_of_interest", "establishment"], "place_id": "ChIJkcwCiVE5WBQRvYQq0PDC5SA"}, {"name": "PS VR", "formatted_address": "Al Academeya, Al Abageyah, El Mukkatam, Cairo Governorate, Egypt", "lat": 29.992355, "lng": 31.3132808, "types": ["point_of_interest", "establishment"], "place_id": "ChIJ9YwVfAw5WBQRTldLT_bjU8Q"}, {"name": "الشروق اكسترا لاعمال الالومنيوم", "formatted_address": "القطعة 6347، Al Gamea Al Haditha St, El Mukkatam, Cairo Governorate, Egypt", "lat": 29.9920002, "lng": 31.3161353, "types": ["point_of_interest", "establishment"], "place_id": "ChIJu76OZcQ5WBQRCG3pSPUTCEo"}, {"name": "Choco Valley", "formatted_address": "Al Abageyah, قسم الخليفة، Cairo Governorate, Egypt", "lat": 29.9931123, "lng": 31.314337, "types": ["food", "point_of_interest", "establishment"], "place_id": "ChIJ314JRqk5WBQRtnGvZ5cbQXI"}, {"name": "City Hights", "formatted_address": "Al Akademeya, Al Abageyah, قسم الخليفة، Cairo Governorate, Egypt", "lat": 29.9935793, "lng": 31.3169668, "types": ["point_of_interest", "establishment"], "place_id": "ChIJj9OB_yI5WBQRZ3tdHXkMXSU"}, {"name": "Egy Wok", "formatted_address": "Al Rawdah Steet, Al Abageyah, El Mukkatam, Cairo Governorate, Egypt", "lat": 29.9925683, "lng": 31.3137301, "types": ["restaurant", "food", "point_of_interest", "establishment"], "place_id": "ChIJ8bA0bIU5WBQRA7RlEdMDVwU"}, {"name": "هاوس تك", "formatted_address": "قطعة 6435 ش 44، شارع المقطم، Egypt", "lat": 29.992408, "lng": 31.314605, "types": ["electronics_store", "point_of_interest", "store", "establishment"], "place_id": "ChIJk5387zc5WBQRtjKIdwZ2xM8"}, {"name": "المصطفى للحدايد و البويات", "formatted_address": "6458 Al Gamea Al Haditha St, Al Abageyah, قسم الخليفة، Cairo Governorate, Egypt", "lat": 29.9916748, "lng": 31.3168376, "types": ["home_goods_store", "point_of_interest", "store", "establishment"], "place_id": "ChIJNYxKwRA5WBQR1tHlxpXbx8Q"}, {"name": "IGTL Services", "formatted_address": "Al Abageyah, قسم الخليفة، Cairo Governorate, Egypt", "lat": 29.9931084, "lng": 31.3157128, "types": ["point_of_interest", "establishment"], "place_id": "ChIJ33nTQCI5WBQR0nXMkFdK-pc"}, {"name": "komica finishing", "formatted_address": "Al Abageyah, قسم الخليفة، Cairo Governorate, Egypt", "lat": 29.9918446, "lng": 31.3161129, "types": ["point_of_interest", "establishment"], "place_id": "ChIJB9eXUZA5WBQR9ubYg6-DcqE"}, {"name": "ارابيسك - Cafè", "formatted_address": "المقطم الهضبه شارع 44 بجوار، Al Gamea Al Hadeisa, Al Abageyah, قسم الخليفة، Cairo Governorate, Egypt", "lat": 29.9924676, "lng": 31.3131172, "types": ["cafe", "food", "point_of_interest", "store", "establishment"], "place_id": "ChIJp0eV4yE5WBQRYQV9C9Gr-EU"}, {"name": "Next Five", "formatted_address": "الهضبة الوسطى، الأباجية، قسم الخليفة،، Cairo Governorate, Egypt", "lat": 29.9923789, "lng": 31.3151629, "types": ["lodging", "point_of_interest", "establishment"], "place_id": "ChIJtTAD6Vw5WBQRdZqPD5g0bkc"}, {"name": "ard elgolf office", "formatted_address": "Hadeket al Golf Steet, Ezbet Fahmy, قسم الخليفة، Cairo Governorate, Egypt", "lat": 29.99345, "lng": 31.3167415, "types": ["point_of_interest", "establishment"], "place_id": "ChIJ7TaXViI5WBQR3hfvfJKfnHU"}, {"name": "Modern Academy - Architecture departrment", "formatted_address": "شارع العبدلاوى، المقطم، القاهرة، مصر, 11585, Egypt", "lat": 29.992592, "lng": 31.317446, "types": ["school", "point_of_interest", "establishment"], "place_id": "ChIJ2ajB8yI5WBQRyG99nHQ-rGI"}, {"name": "ZMK TRAINING CENTER", "formatted_address": "Al Rawdah Steet, الأباجية،، قسم الخليفة،، Cairo Governorate, Egypt", "lat": 29.9923489, "lng": 31.3164626, "types": ["point_of_interest", "establishment"], "place_id": "ChIJb0PVqRY5WBQR2qsZHNTBqls"}, {"name": "Meatopia", "formatted_address": "شارع الجامعة الحديثة المقطم،, Al Gamea Al Haditha St, Cairo Governorate, Egypt", "lat": 29.992634, "lng": 31.314449, "types": ["food", "point_of_interest", "store", "establishment"], "place_id": "ChIJg_xWM-U5WBQRTYGReztczxU"}, {"name": "مكتب الرضا للتسويق العقاري والتشطيبات الفرع الثانى", "formatted_address": "شارع الجامعة الحديثة، الأباجية، قسم الخليفة، محافظة القاهرة‬،، Egypt", "lat": 29.9919677, "lng": 31.31412, "types": ["shopping_mall", "point_of_interest", "establishment"], "place_id": "ChIJ96-BA1Y5WBQRSHvk23NvzeA"}, {"name": "TouchWood", "formatted_address": "Al Hadaba Al Wosta, شارع المقطم، Cairo Governorate 11122, Egypt", "lat": 29.9915144, "lng": 31.3145336, "types": ["point_of_interest", "establishment"], "place_id": "ChIJRQEtHCQ5WBQRb79LB_7CLxY"}]