[{"name": "Al Thawra Mosque", "formatted_address": "Almazah, Heliopolis, Cairo Governorate, Egypt", "lat": 30.089369, "lng": 31.3301332, "types": ["mosque", "place_of_worship", "point_of_interest", "establishment"], "place_id": "ChIJxT6QNiA-WBQRL3pMhgW-Y4w"}, {"name": "Porto Heliopolis", "formatted_address": "Almazah, Heliopolis, Cairo Governorate, Egypt", "lat": 30.0827031, "lng": 31.348709, "types": ["lodging", "point_of_interest", "establishment"], "place_id": "ChIJR5FCXgE-WBQR471eyuZuvGw"}, {"name": "Ittihadia Palace", "formatted_address": "Al Nadi، El-Montaza, Heliopolis, Cairo Governorate, Egypt", "lat": 30.0888643, "lng": 31.3193929, "types": ["tourist_attraction", "premise", "point_of_interest", "establishment"], "place_id": "ChIJuftqUS8-WBQRtM7fDk0QcPk"}, {"name": "ATMs National Bank of Egypt - Kentucky - Revolution", "formatted_address": "10 شارع الثورة, مصر الجديدة, 11843, Egypt", "lat": 30.090952, "lng": 31.325676, "types": ["atm", "finance", "point_of_interest", "establishment"], "place_id": "ChIJPaEWzSA-WBQRfs3rk0zjcFE"}, {"name": "Piccadilly Heliopolis", "formatted_address": "El-Thawra St, Masaken Al Mohandesin, Nasr City, Cairo Governorate, Egypt", "lat": 30.08201439999999, "lng": 31.3486145, "types": ["shopping_mall", "point_of_interest", "establishment"], "place_id": "ChIJuzLQDrw_WBQRdEpgBYHA2pY"}, {"name": "El Korba Square - الكوربة مصر الجديدة", "formatted_address": "7 Abo Al Houl ST., Korba Square, المنتزه، قسم مصر الجديدة، محافظة القاهرة‬،, المنتزه، قسم مصر الجديدة، محافظة, القاهرة‬،, Egypt", "lat": 30.0910293, "lng": 31.324302, "types": ["point_of_interest", "establishment"], "place_id": "ChIJUduKY5k_WBQRwgxGmYZDrhU"}, {"name": "Artillery Officers House", "formatted_address": "26 El-Thawra St, Masaken Al Mohandesin, Nasr City, Cairo Governorate, Egypt", "lat": 30.0803833, "lng": 31.3538881, "types": ["point_of_interest", "establishment"], "place_id": "ChIJ_we0WBs-WBQRnpOK6RpDB_0"}, {"name": "Egypt's Society for Culture and Development", "formatted_address": "42 شارع الثورة، شارع عبد الله دراز، ارض الجولف، 11341 ،، Cairo Governorate, Egypt", "lat": 30.0855594, "lng": 31.3359639, "types": ["library", "point_of_interest", "establishment"], "place_id": "ChIJX07rlh4-WBQRa5JveZxXs0A"}, {"name": "مستشفى الحرية التخصصى", "formatted_address": "11 Latif Mansour St، Almazah, El Nozha, Cairo Governorate, Egypt", "lat": 30.112315, "lng": 31.3438507, "types": ["hospital", "health", "point_of_interest", "establishment"], "place_id": "ChIJq7jFPhw-WBQRx7wGgL_7bO8"}, {"name": "ادارة المشاه", "formatted_address": "49 ب El-Thawra St, Al Matar, El Nozha, Cairo Governorate, Egypt", "lat": 30.084924, "lng": 31.3368674, "types": ["point_of_interest", "establishment"], "place_id": "ChIJQV0wqh4-WBQRse6xXBOFbZQ"}, {"name": "QNB Alahli", "formatted_address": "78 El-Thawra Street, Heliopolis El-Thawra St, Masaken Al Mohandesin, Heliopolis, Cairo Governorate, Egypt", "lat": 30.0826783, "lng": 31.34160259999999, "types": ["bank", "finance", "point_of_interest", "establishment"], "place_id": "ChIJA5SYWxs-WBQRRg-moywMWns"}, {"name": "Samir & Aly Stationery House", "formatted_address": "88 El-Thawra St, Almazah, Heliopolis, Cairo Governorate, Egypt", "lat": 30.0828201, "lng": 31.3431124, "types": ["book_store", "point_of_interest", "store", "establishment"], "place_id": "ChIJgSxfqAQ-WBQR7QcmMDEWjas"}, {"name": "Queens Hospital _ Cleopatra Hospitals Group", "formatted_address": "4 Sheikh Nour Eldin, off Thawra St., Heliopolis, 11345, Egypt", "lat": 30.0886869, "lng": 31.3318691, "types": ["hospital", "doctor", "health", "point_of_interest", "establishment"], "place_id": "ChIJ65q6gh8-WBQRb6VXdsqqg4w"}, {"name": "Abu Dhabi Islamic Bank - ADIB Egypt - مصرف أبو ظبي الإسلامي", "formatted_address": "27 Abdel Hameed Badawy st., infront of El Shams Club - Heliopolis - Cairo, Cairo, Cairo Governorate, Egypt", "lat": 30.116584, "lng": 31.346804, "types": ["bank", "atm", "finance", "point_of_interest", "establishment"], "place_id": "ChIJR1RWRtoVWBQR1ilW-evAzfw"}, {"name": "Dar Al Eshara", "formatted_address": "Masaken Al Mohandesin, Nasr City, Cairo Governorate, Egypt", "lat": 30.0811408, "lng": 31.3488, "types": ["point_of_interest", "establishment"], "place_id": "ChIJLyhTqQY-WBQRc1aMkVsnYv8"}, {"name": "The Furn Furniture Mall", "formatted_address": "26 El-Thawra St, Masaken Al Mohandesin, Nasr City, Cairo Governorate 11757, Egypt", "lat": 30.0806002, "lng": 31.35461849999999, "types": ["furniture_store", "home_goods_store", "point_of_interest", "store", "establishment"], "place_id": "ChIJ3WRfBP49WBQRD3u_jEUFEuo"}, {"name": "El Thawra Street", "formatted_address": "Masaken Al Mohandesin, Heliopolis, Cairo Governorate, Egypt", "lat": 30.08331, "lng": 31.34089, "types": ["transit_station", "point_of_interest", "establishment"], "place_id": "ChIJRZnvYxs-WBQRaI6Hn3cbdJ8"}, {"name": "فندق دار المدفعيه", "formatted_address": "El-Thawra St, Masaken Al Mohandesin, Heliopolis, Cairo Governorate, Egypt", "lat": 30.080488, "lng": 31.35416739999999, "types": ["lodging", "point_of_interest", "establishment"], "place_id": "ChIJjUF1Av49WBQRxA4a0lsk4nU"}, {"name": "Al Watany Ophthalmology Hospital", "formatted_address": "٢١١, El Hegaz St, Cairo Governorate, Egypt", "lat": 30.1147368, "lng": 31.3515542, "types": ["hospital", "health", "point_of_interest", "establishment"], "place_id": "ChIJ06TYwusVWBQRyKwcO2gaws4"}, {"name": "Thawq Coffee - ذَوق", "formatted_address": "6 Abdel Moneim Ismail, Off Nozha Street, Heliopolis ٦ شارع عبد المنعم إسماعيل، متفرع من شارع النزهة،, Heliopolis, Cairo Governorate, Egypt", "lat": 30.0869462, "lng": 31.34202, "types": ["food", "point_of_interest", "store", "establishment"], "place_id": "ChIJjexLYTQ_WBQRdobxovl_We4"}, {"name": "Beit ward", "formatted_address": "مجمع مطاعم تيفولي دوم, Almazah, Heliopolis, Cairo Governorate, Egypt", "lat": 30.0864862, "lng": 31.3476597, "types": ["restaurant", "food", "point_of_interest", "establishment"], "place_id": "ChIJl4wtjso_WBQRnbNuDhI4cC4"}, {"name": "Sodic 46 El Thawra Street, Heliopolis", "formatted_address": "46 El-Thawra St, Almazah, Heliopolis, Cairo Governorate, Egypt", "lat": 30.086013, "lng": 31.3365718, "types": ["real_estate_agency", "point_of_interest", "establishment"], "place_id": "ChIJa3_JAiU_WBQRoarMzyMWRUc"}, {"name": "Misr For Central Clearing, Depository & Registry", "formatted_address": "117 El-Thawra St, Masaken Al Mohandesin, Heliopolis, Cairo Governorate, Egypt", "lat": 30.0821742, "lng": 31.3433521, "types": ["point_of_interest", "establishment"], "place_id": "ChIJ_we0WBs-WBQRc_YMliOZLHI"}, {"name": "Palestine Hospital", "formatted_address": "64 El-Thawra St, Almazah, Heliopolis, Cairo Governorate, Egypt", "lat": 30.0847713, "lng": 31.3393266, "types": ["hospital", "health", "point_of_interest", "establishment"], "place_id": "ChIJ_we0WBs-WBQROHvbj_O4ouY"}, {"name": "Al Kholafaa Al Rashdeen Mosque", "formatted_address": "El Hegaz St, El-Bostan, Heliopolis, Cairo Governorate, Egypt", "lat": 30.1010215, "lng": 31.3243996, "types": ["mosque", "place_of_worship", "point_of_interest", "establishment"], "place_id": "ChIJufJ9io4VWBQRRErdNLAMvpM"}, {"name": "El Abiad Exchange", "formatted_address": "شارع الثورة - ميدان الكورية - مصر الجديدة، 7 El-Thawra St, Heliopolis, Cairo Governorate, Egypt", "lat": 30.0906269, "lng": 31.3251881, "types": ["finance", "point_of_interest", "establishment"], "place_id": "ChIJ8cIELCc-WBQRg-pVGb2H8G0"}, {"name": "Or", "formatted_address": "122 El-Thawra St, Almazah, Heliopolis, Cairo Governorate, Egypt", "lat": 30.0817621, "lng": 31.3468691, "types": ["clothing_store", "point_of_interest", "store", "establishment"], "place_id": "ChIJ_we0WBs-WBQRpj0sDgt5Kh0"}, {"name": "Saint Clare's School", "formatted_address": "20 El-Thawra St, Almazah, Heliopolis, Cairo Governorate, Egypt", "lat": 30.0896464, "lng": 31.3293315, "types": ["school", "point_of_interest", "establishment"], "place_id": "ChIJ_we0WBs-WBQRNa7gq-3wS_I"}, {"name": "As - Sawra Hospital", "formatted_address": "11 El-Thawra St, El-Montaza, Heliopolis, Cairo Governorate, Egypt", "lat": 30.09016149999999, "lng": 31.3269763, "types": ["hospital", "health", "point_of_interest", "establishment"], "place_id": "ChIJ_we0WBs-WBQRKHclchjytSU"}, {"name": "Fouda Pharmacy", "formatted_address": "21 شارع كليوباترا متفرع من شارع الثورة 21 Cleopatra، Heliopolis, Cairo Governorate, Egypt", "lat": 30.0903007, "lng": 31.3278191, "types": ["pharmacy", "health", "point_of_interest", "store", "establishment"], "place_id": "ChIJ9Wx08CA-WBQRv_aL55Uyf3k"}, {"name": "بروكلين", "formatted_address": "Citystars Heliopolis, مدينه نصر : مول تيفولي بلازا شارع عمر بن الخطاب من شارع الثورة (خلف مول, Egypt", "lat": 30.0736204, "lng": 31.3457251, "types": ["restaurant", "food", "point_of_interest", "establishment"], "place_id": "ChIJ7wfm1MA_WBQR4asMOMO0ZXY"}, {"name": "عمارات الشركة السعودية المصرية Emarat Sharikah Saudiah Masriah", "formatted_address": "El-Thawra St طريق السويس كوبري الجيش المصري مصر الجديدة, شارع El-Thawra St, Cairo Governorate, Egypt", "lat": 30.08214529999999, "lng": 31.3440464, "types": ["point_of_interest", "establishment"], "place_id": "ChIJiWYNfjE_WBQRIflSg4C065g"}, {"name": "Dr.mohammad Ahmad Ramadan", "formatted_address": "78 El-Thawra St Almazah Heliopolis El-Thawra St, Almazah, Heliopolis, Cairo Governorate, Egypt", "lat": 30.0851829, "lng": 31.33832829999999, "types": ["dentist", "health", "point_of_interest", "establishment"], "place_id": "ChIJWyVpExw-WBQRDTxmjio-_BM"}, {"name": "Halaket El Samak", "formatted_address": "58 El-Thawra St, Almazah, Heliopolis, Cairo Governorate, Egypt", "lat": 30.0852699, "lng": 31.3378829, "types": ["restaurant", "food", "point_of_interest", "establishment"], "place_id": "ChIJcyThdhw-WBQR175ksRdKSdQ"}, {"name": "كومرس", "formatted_address": "61 El-Thawra St, Al Golf, Heliopolis, Cairo Governorate, Egypt", "lat": 30.0839756, "lng": 31.3387514, "types": ["general_contractor", "point_of_interest", "establishment"], "place_id": "ChIJX60X-lA_WBQRSQFhbUBGMbY"}, {"name": "Heliopolis Residence", "formatted_address": "102 El-Thawra St, Almazah, Heliopolis, Cairo Governorate, Egypt", "lat": 30.0819611, "lng": 31.3450191, "types": ["general_contractor", "point_of_interest", "establishment"], "place_id": "ChIJIeRAPT8_WBQR26KcnOrRTAc"}, {"name": "Golden Land Tours", "formatted_address": "1 Nabeel Mahmoud, Masaken Al Mohandesin, Heliopolis, Cairo Governorate, Egypt", "lat": 30.08104089999999, "lng": 31.3443621, "types": ["travel_agency", "point_of_interest", "establishment"], "place_id": "ChIJbet96QQ-WBQRsy9RkOA8gK8"}, {"name": "ابو عوف الكوربة", "formatted_address": "18 نزيه خليفة من شارع، El-Thawra St, Egypt", "lat": 30.08957149999999, "lng": 31.3279044, "types": ["store", "point_of_interest", "establishment"], "place_id": "ChIJ--P2orA_WBQRORUAjoMcgI0"}, {"name": "Stad Cafe", "formatted_address": "بجوار دار المدفعية، 26، شارع El-Thawra St, Heliopolis, Cairo Governorate 11757, Egypt", "lat": 30.08063039999999, "lng": 31.3546171, "types": ["cafe", "food", "point_of_interest", "establishment"], "place_id": "ChIJlbpD7OE9WBQRuJKxNt7Y7FE"}, {"name": "Il Parco", "formatted_address": "El-Thawra St, Almazah, Heliopolis, Cairo Governorate 11757, Egypt", "lat": 30.0831984, "lng": 31.3425007, "types": ["cafe", "food", "point_of_interest", "establishment"], "place_id": "ChIJi08Bsd0_WBQRdCBBEBr-qRw"}, {"name": "Emaar", "formatted_address": "Almazah, Heliopolis, Cairo Governorate, Egypt", "lat": 30.0862726, "lng": 31.3360783, "types": ["general_contractor", "point_of_interest", "establishment"], "place_id": "ChIJI8lPlh4-WBQRS37fUtmHnLQ"}, {"name": "Koshary Hend", "formatted_address": "189 El-Nozha, Al Matar, Heliopolis, Cairo Governorate, Egypt", "lat": 30.1103985, "lng": 31.3457416, "types": ["restaurant", "food", "point_of_interest", "establishment"], "place_id": "ChIJh3no4acVWBQRCefrliSTZ2k"}, {"name": "Telecom Egypt - Almaza Central", "formatted_address": "El-Thawra St, Al Golf, Heliopolis, Cairo Governorate, Egypt", "lat": 30.0859993, "lng": 31.3351308, "types": ["point_of_interest", "establishment"], "place_id": "ChIJ_8xJwR4-WBQRolSDhT9Pwks"}, {"name": "DANIEL HECHTER & OR Thawra", "formatted_address": "الثورة، الماظة، مصر الجديدة, Cairo Governorate, Egypt", "lat": 30.08185, "lng": 31.3469104, "types": ["clothing_store", "point_of_interest", "store", "establishment"], "place_id": "ChIJo-sphyY_WBQRy2sbd9DhTSE"}, {"name": "بنك مصر - فرع مصر الجديدة", "formatted_address": "El-Sayed El-Merghany, Almazah, Heliopolis, Cairo Governorate, Egypt", "lat": 30.08985869999999, "lng": 31.3410678, "types": ["point_of_interest", "establishment"], "place_id": "ChIJeQcEvvcVWBQR--gznEGqQ1s"}, {"name": "McDonald's Merghany", "formatted_address": "110, Merghani, 110 Al Merghani, St, Heliopolis, Cairo Governorate, Egypt", "lat": 30.08742, "lng": 31.334673, "types": ["restaurant", "food", "point_of_interest", "establishment"], "place_id": "ChIJlZQvbyc-WBQR-Rxu40GPFq8"}, {"name": "Life Park Heliopolis", "formatted_address": "46 El-Thawra St, Almazah, Heliopolis, Cairo Governorate, Egypt", "lat": 30.0860857, "lng": 31.3367769, "types": ["real_estate_agency", "point_of_interest", "establishment"], "place_id": "ChIJ6_plTOc_WBQRuNJ_XS_N0aM"}, {"name": "Saint Mary Church - Ard El-Golf", "formatted_address": "Shams Al Din Al Zahabi, Al Golf, Nasr City, Cairo Governorate, Egypt", "lat": 30.0825805, "lng": 31.33328239999999, "types": ["church", "place_of_worship", "point_of_interest", "establishment"], "place_id": "ChIJz961RBg-WBQR2HK25harflQ"}, {"name": "Mashreq", "formatted_address": "78 El-Thawra St, Masaken Al Mohandesin, Heliopolis, Cairo Governorate, Egypt", "lat": 30.0836471, "lng": 31.3416097, "types": ["bank", "finance", "point_of_interest", "establishment"], "place_id": "ChIJzfuHWxs-WBQRwmR59oV3joM"}, {"name": "Al Watany Eye Hospital - WEH", "formatted_address": "Thawra street، Egyptian Army Bridge, El Nozha, Egypt", "lat": 30.0792679, "lng": 31.3748485, "types": ["hospital", "health", "point_of_interest", "establishment"], "place_id": "ChIJ_Sr1evU9WBQRxqSFKuqJRJE"}, {"name": "castle tours", "formatted_address": "60 El-Thawra St, Almazah, Heliopolis, Cairo Governorate, Egypt", "lat": 30.0851385, "lng": 31.3380323, "types": ["travel_agency", "point_of_interest", "establishment"], "place_id": "ChIJ27kn7rk_WBQRf38sDx7_9Q8"}, {"name": "Heliopolis Towers Hotel", "formatted_address": "El Shaheed Sayed Zakaria, Sheraton Al Matar, El Nozha, Cairo Governorate 11736, Egypt", "lat": 30.1074763, "lng": 31.3661798, "types": ["lodging", "point_of_interest", "establishment"], "place_id": "ChIJZ9p3820WWBQRmZh2M_MSzOQ"}, {"name": "B. Own Heliopolis Language School", "formatted_address": "8 متفرع من ش الثورة، Almazah, Heliopolis, Cairo Governorate, Egypt", "lat": 30.086491, "lng": 31.337605, "types": ["school", "point_of_interest", "establishment"], "place_id": "ChIJ_we0WBs-WBQRSO3wQU9uXQQ"}, {"name": "Aboshama Furniture", "formatted_address": "القاهرة مصر الجديدة شارع الثورة بجوار دار المدفعية مول، ذافرن، محافظة القاهرة‬،، Egypt", "lat": 30.0815405, "lng": 31.3475658, "types": ["shopping_mall", "point_of_interest", "establishment"], "place_id": "ChIJ_cZq6v89WBQRwBiTUtsjkbM"}, {"name": "STAD CAFE", "formatted_address": "26 الثورة، الجولف،، Heliopolis, Cairo Governorate, Egypt", "lat": 30.0804615, "lng": 31.3549575, "types": ["restaurant", "food", "point_of_interest", "establishment"], "place_id": "ChIJoztCvAY9WBQR6WNsMMIJd6c"}, {"name": "كان زمان", "formatted_address": "El-Thawra St, Almazah, Heliopolis, Cairo Governorate, Egypt", "lat": 30.0835644, "lng": 31.3418487, "types": ["restaurant", "food", "point_of_interest", "establishment"], "place_id": "ChIJ_we0WBs-WBQRQAkXg0I75H0"}, {"name": "Rojada Thawra Branch", "formatted_address": "Almazah, Heliopolis, Cairo Governorate, Egypt", "lat": 30.0820091, "lng": 31.3454208, "types": ["clothing_store", "point_of_interest", "store", "establishment"], "place_id": "ChIJYdAmhwQ-WBQRgdF_niBApm4"}, {"name": "SIGMA", "formatted_address": "78 El-Thawra St, Almazah, Heliopolis El-Thawra St, Masaken Al Mohandesin, Heliopolis, Cairo Governorate, Egypt", "lat": 30.0825875, "lng": 31.34205609999999, "types": ["point_of_interest", "establishment"], "place_id": "ChIJVVXlTxs-WBQRDeJBNLHWYFg"}, {"name": "بنك مصر", "formatted_address": "شارع طه حسين ،النزهة ،قسم النزهة، Cairo Governorate, Egypt", "lat": 30.1246309, "lng": 31.3645562, "types": ["atm", "finance", "point_of_interest", "establishment"], "place_id": "ChIJ-emM8YcWWBQR9Z5BxFhrmr0"}, {"name": "اعمار مصر للتنمية", "formatted_address": "40 El-Thawra St, Almazah, Heliopolis, Cairo Governorate, Egypt", "lat": 30.08623889999999, "lng": 31.3355882, "types": ["point_of_interest", "establishment"], "place_id": "ChIJm5_3vx4-WBQRKubGg1gp0i8"}]