[{"name": "Ittihadia Palace", "formatted_address": "Al Nadi، El-Montaza, Heliopolis, Cairo Governorate, Egypt", "lat": 30.0888643, "lng": 31.3193929, "types": ["tourist_attraction", "premise", "point_of_interest", "establishment"], "place_id": "ChIJuftqUS8-WBQRtM7fDk0QcPk"}, {"name": "Our Lady of Heliopolis Co-Cathedral", "formatted_address": "Nazih Khalifa crossroad، Al Ahram, Heliopolis, Cairo Governorate, Egypt", "lat": 30.0935707, "lng": 31.3251828, "types": ["church", "place_of_worship", "point_of_interest", "establishment"], "place_id": "ChIJJdgh-okVWBQR5TqTmKuQ0IM"}, {"name": "Charisma For Import & Export", "formatted_address": "3 Al Safdi, Mansheya El-Bakry, Heliopolis, Cairo Governorate, Egypt", "lat": 30.091162, "lng": 31.3065288, "types": ["point_of_interest", "establishment"], "place_id": "ChIJG5CiE9M_WBQRYThtt8ZXSGE"}, {"name": "Baron Empain Palace", "formatted_address": "El-Orouba, El-Montaza, Heliopolis, Cairo Governorate 11757, Egypt", "lat": 30.0866701, "lng": 31.3303332, "types": ["point_of_interest", "establishment"], "place_id": "ChIJ1_GM8iE-WBQRLNVi-RT7vDA"}, {"name": "Soundous", "formatted_address": "Mansheyat Al Bakri, Heliopolis, Cairo Governorate, Egypt", "lat": 30.0908588, "lng": 31.3071021, "types": ["point_of_interest", "establishment"], "place_id": "ChIJZS3aPdM_WBQRZBIMzxE4vSw"}, {"name": "Abd El Fatah", "formatted_address": "Mansheyat Al Bakri, Heliopolis, Cairo Governorate, Egypt", "lat": 30.0914815, "lng": 31.3076027, "types": ["point_of_interest", "establishment"], "place_id": "ChIJ6fu_RdM_WBQRo5NJias2DQY"}, {"name": "El Salam", "formatted_address": "Mansheyat Al Bakri, Heliopolis, Cairo Governorate, Egypt", "lat": 30.090121, "lng": 31.3049861, "types": ["point_of_interest", "establishment"], "place_id": "ChIJF6eGUdI_WBQRTPRhzCmsOJ8"}, {"name": "Smart Man", "formatted_address": "Mansheyat Al Bakri, Heliopolis, Cairo Governorate, Egypt", "lat": 30.0906958, "lng": 31.305828, "types": ["point_of_interest", "establishment"], "place_id": "ChIJhaCNBtM_WBQRKBcSX-lOWB4"}, {"name": "Kodak Heliopolis", "formatted_address": "57 Al Maqrizi, Mansheya El-Bakry, Heliopolis, Cairo Governorate, Egypt", "lat": 30.0909717, "lng": 31.3078025, "types": ["point_of_interest", "establishment"], "place_id": "ChIJPYPDN9M_WBQRjyTNXa7JIag"}, {"name": "Ikhlas Technology", "formatted_address": "14 El Makrizy St.، Mansheya El-Bakry, Heliopolis, Cairo Governorate, Egypt", "lat": 30.0907, "lng": 31.307, "types": ["point_of_interest", "establishment"], "place_id": "ChIJb_b4VNI_WBQRDMpsYiMt1vI"}, {"name": "Tiba For Suspended Ceilings & Contracting", "formatted_address": "14 من ش الفيروز، جسر السويس، القاهرة، Cairo Governorate, Egypt", "lat": 30.092037, "lng": 31.306222, "types": ["point_of_interest", "establishment"], "place_id": "ChIJo2IacNM_WBQR2Fn_GRxBpog"}, {"name": "Love Me", "formatted_address": "53 el Maqrizy st.، Mansheya El-Bakry, Heliopolis, Cairo Governorate, Egypt", "lat": 30.090696, "lng": 31.307929, "types": ["point_of_interest", "establishment"], "place_id": "ChIJb_b4VNI_WBQRlN4haQVoT9w"}, {"name": "مسجد التوحيد", "formatted_address": "المقريزي، Mansheya El-Bakry, Heliopolis, Cairo Governorate, Egypt", "lat": 30.090901, "lng": 31.3066896, "types": ["mosque", "place_of_worship", "point_of_interest", "establishment"], "place_id": "ChIJK9LAFtM_WBQRBK2gMXT4F2Y"}, {"name": "Pinky", "formatted_address": "12 el Maqrizy st.، Mansheya El-Bakry, Heliopolis, Cairo Governorate, Egypt", "lat": 30.0909039, "lng": 31.30750219999999, "types": ["point_of_interest", "establishment"], "place_id": "ChIJRUkGOdM_WBQRB9C0dDYUNUo"}, {"name": "Dr. Meram Nabil Fouad", "formatted_address": "1 ش الحسينى، محرم بك، الاسكندرية، Cairo Governorate, Egypt", "lat": 30.0926369, "lng": 31.3062752, "types": ["point_of_interest", "establishment"], "place_id": "ChIJ3V_KYtM_WBQRFYulgGFmn1Y"}, {"name": "El Deeb", "formatted_address": "AZ Zaytoun Ash Sharqeyah, AZ Zaytoun, Cairo Governorate, Egypt", "lat": 30.0920846, "lng": 31.3062266, "types": ["point_of_interest", "establishment"], "place_id": "ChIJWaF6ZdM_WBQRpoG0r2rycwk"}, {"name": "Dena", "formatted_address": "7 المقريزي، Mansheya El-Bakry, Heliopolis, Cairo Governorate, Egypt", "lat": 30.0905458, "lng": 31.3060574, "types": ["point_of_interest", "establishment"], "place_id": "ChIJd0h7BNM_WBQRWyA6bsNo1Jw"}, {"name": "Nermin Salama For Law & Translation", "formatted_address": "53 المقريزي، Mansheya El-Bakry, Heliopolis, Cairo Governorate, Egypt", "lat": 30.090696, "lng": 31.307929, "types": ["point_of_interest", "establishment"], "place_id": "ChIJb_b4VNI_WBQRCuZ2rXPLkhk"}, {"name": "مسجد التوحيد", "formatted_address": "13 Gesr Al Suez, Mansheya El-Bakry, Heliopolis, Cairo Governorate, Egypt", "lat": 30.0911932, "lng": 31.3060844, "types": ["mosque", "place_of_worship", "point_of_interest", "establishment"], "place_id": "ChIJ3TAfF9M_WBQR9Pfu9Korw5M"}, {"name": "Universal For Printing & Gifts Bags", "formatted_address": "5 ش البصيرى، جسر السويس، Heliopolis, Cairo Governorate, Egypt", "lat": 30.092103, "lng": 31.307378, "types": ["point_of_interest", "establishment"], "place_id": "ChIJ0Uf9W9M_WBQRHGDntwi8IJE"}, {"name": "Amazon", "formatted_address": "18 ش المقريزى، Mansheya El-Bakry, Heliopolis, Cairo Governorate, Egypt", "lat": 30.0902173, "lng": 31.3053368, "types": ["point_of_interest", "establishment"], "place_id": "ChIJh-yAN9M_WBQRc4uTNy4nyzc"}, {"name": "Maadi Island", "formatted_address": "Dar Al Salam, Giza Governorate, Egypt", "lat": 29.965527, "lng": 31.239237, "types": ["restaurant", "tourist_attraction", "park", "food", "point_of_interest", "establishment"], "place_id": "ChIJwY7d5MFHWBQRl1nMXlW_tUY"}, {"name": "Kazem Agha Mosque", "formatted_address": "شارع Kaveterya Agha, Mansheya El-Bakry, Heliopolis, Cairo Governorate, Egypt", "lat": 30.0918316, "lng": 31.3059198, "types": ["mosque", "place_of_worship", "point_of_interest", "establishment"], "place_id": "ChIJ8_n-c9M_WBQRkqEreAq3NT0"}, {"name": "مسجد الصفا", "formatted_address": "١٢أ، Gesr Al Suez, El-Qobba, قسم اول، Cairo Governorate, Egypt", "lat": 30.0911726, "lng": 31.3060385, "types": ["mosque", "place_of_worship", "point_of_interest", "establishment"], "place_id": "ChIJlSwmDNM_WBQRR6inJft2grA"}, {"name": "مسجد الرحمة", "formatted_address": "شارع Ibn Abd Al Zaher, Mansheya El-Bakry, Heliopolis, Cairo Governorate, Egypt", "lat": 30.0910612, "lng": 31.3074118, "types": ["mosque", "place_of_worship", "point_of_interest", "establishment"], "place_id": "ChIJUYW-ONM_WBQRSUxszmlhRdI"}, {"name": "Family Park", "formatted_address": "مدخل الرحاب 2 ) الكيلو 26،، Suez Rd, Egypt", "lat": 30.0802783, "lng": 31.5013244, "types": ["park", "tourist_attraction", "point_of_interest", "establishment"], "place_id": "ChIJ97tx7voYWBQR-q4kFfGwYYo"}, {"name": "Amr Shaheen For Accounting & Auditing", "formatted_address": "4 Ibn Abd Al Zaher, Mansheya El-Bakry, Heliopolis, Cairo Governorate, Egypt", "lat": 30.0917, "lng": 31.30719999999999, "types": ["point_of_interest", "establishment"], "place_id": "ChIJr600QtM_WBQRP2xrGYQr9MM"}, {"name": "Modern Technology for Information Systems MTIS", "formatted_address": "El-Zaytoun Sharkeya, Heliopolis, Cairo Governorate, Egypt", "lat": 30.092377, "lng": 31.306775, "types": ["point_of_interest", "establishment"], "place_id": "ChIJp4QbYdM_WBQRJcJLrRMHF2g"}, {"name": "المستشار / تامر المنسي", "formatted_address": "16 ش السيد المقريزى - مصر الجديدة، مصر الجديدة، القاهرة، مصر، Cairo Governorate, Egypt", "lat": 30.09082739999999, "lng": 31.3069958, "types": ["lawyer", "point_of_interest", "establishment"], "place_id": "ChIJT-4Y_qs_WBQRC-gUzz_67HQ"}, {"name": "شركة ناريتا للسياحة", "formatted_address": "خلف مستشفى منشية البكرى، ١٦ أ، Al Zoubidi, Mansheya El-Bakry, Heliopolis, Cairo Governorate, Egypt", "lat": 30.0912531, "lng": 31.3072679, "types": ["travel_agency", "point_of_interest", "establishment"], "place_id": "ChIJgz7PQNM_WBQRDOyeQsXh7UY"}, {"name": "جمعية الزهراء النسائية", "formatted_address": "22 Gesr El Suez St.، GESR EL SUEZ، Zeitoun, Cairo Governorate, Egypt", "lat": 30.091969, "lng": 31.306111, "types": ["point_of_interest", "establishment"], "place_id": "ChIJfdLreZEWWBQRJt14Fd3W-eI"}, {"name": "The Great Pyramid of Giza", "formatted_address": "Al Haram, Nazlet El-Semman, Al Giza Desert, Giza Governorate, Egypt", "lat": 29.9792345, "lng": 31.1342019, "types": ["tourist_attraction", "premise", "point_of_interest", "establishment"], "place_id": "ChIJGymPrIdFWBQRJCSloj8vDIE"}, {"name": "Heliopolis Sporting Club (HSC)", "formatted_address": "17 El-Sayed El-Marghany, Mansheya El-Bakry, Heliopolis, Cairo Governorate, Egypt", "lat": 30.0883155, "lng": 31.3164398, "types": ["point_of_interest", "establishment"], "place_id": "ChIJB9zy8B4-WBQRz_zRpJte8sA"}, {"name": "Porto Heliopolis", "formatted_address": "Almazah, Heliopolis, Cairo Governorate, Egypt", "lat": 30.0827031, "lng": 31.348709, "types": ["lodging", "point_of_interest", "establishment"], "place_id": "ChIJR5FCXgE-WBQR471eyuZuvGw"}, {"name": "St. Mark Coptic Orthodox Church Cleopatra", "formatted_address": "35 كيلوباترا، الماظة، قسم مصر الجديدة،، Cairo Governorate, Egypt", "lat": 30.0924011, "lng": 31.3296246, "types": ["church", "place_of_worship", "point_of_interest", "establishment"], "place_id": "ChIJH3kNmooVWBQRfL4z5mf-KXU"}, {"name": "Heliopolis Towers Hotel", "formatted_address": "El Shaheed Sayed Zakaria, Sheraton Al Matar, El Nozha, Cairo Governorate 11736, Egypt", "lat": 30.1074763, "lng": 31.3661798, "types": ["lodging", "point_of_interest", "establishment"], "place_id": "ChIJZ9p3820WWBQRmZh2M_MSzOQ"}, {"name": "El Anfaal", "formatted_address": "Mansheyat Al Bakri, Heliopolis, Cairo Governorate, Egypt", "lat": 30.091742, "lng": 31.3082636, "types": ["point_of_interest", "establishment"], "place_id": "ChIJIdFEUtM_WBQRcuqvh0MJciI"}, {"name": "دارى لاعمال الاند سكيب", "formatted_address": "16 Al Sayed Al Maqreezi, Mansheya El-Bakry, Heliopolis, Cairo Governorate 11757, Egypt", "lat": 30.0905857, "lng": 31.3072642, "types": ["point_of_interest", "establishment"], "place_id": "ChIJ_VjwxQY_WBQRh8DaNKObHUk"}, {"name": "Mansheyet El Bakry General Hospital", "formatted_address": "13 ش Gesr Al Suez, Mansheya El-Bakry, Heliopolis, Cairo Governorate, Egypt", "lat": 30.0911932, "lng": 31.3060844, "types": ["hospital", "health", "point_of_interest", "establishment"], "place_id": "ChIJO3lbbtM_WBQR4rWY0INWS4s"}, {"name": "St Michael's Church الكنيسة الأسقفية بالكوربة", "formatted_address": "Baghdad St, El-Montaza, Heliopolis, Cairo Governorate, Egypt", "lat": 30.0884753, "lng": 31.3229984, "types": ["church", "place_of_worship", "point_of_interest", "establishment"], "place_id": "ChIJfaLreiY-WBQRlouIfsEe-o8"}, {"name": "Social Insurance Bureau - Mansheyet El Bakry", "formatted_address": "12 El-Maqrezy - ١٢ شارع المقريزي، منشية البكري، مصر الجديدة, Mansheya El-Bakry, Cairo Governorate, Egypt", "lat": 30.0904657, "lng": 31.3056201, "types": ["local_government_office", "point_of_interest", "establishment"], "place_id": "ChIJ_____yY-WBQRWFQ1z-yKySk"}, {"name": "El Ghanam", "formatted_address": "7 المقريزي، Mansheya El-Bakry, Heliopolis, Cairo Governorate, Egypt", "lat": 30.0907531, "lng": 31.3066857, "types": ["book_store", "point_of_interest", "store", "establishment"], "place_id": "ChIJ_ck4F9M_WBQRTJse2gzx9_U"}, {"name": "Radisson Blu Hotel, Cairo Heliopolis", "formatted_address": "Abdel Hamid Badawi St Heliopolis, Cairo Governorate 11787, Egypt", "lat": 30.1065093, "lng": 31.3753121, "types": ["lodging", "point_of_interest", "establishment"], "place_id": "ChIJQZJ8fWUWWBQRAUPO9I6SxPg"}, {"name": "Baron Hotel Heliopolis", "formatted_address": "14 Al Baroon, El-Montaza, Heliopolis, Cairo Governorate, Egypt", "lat": 30.0860748, "lng": 31.3314609, "types": ["lodging", "point_of_interest", "establishment"], "place_id": "ChIJUbVOACI-WBQRWsi5B7gYfxs"}, {"name": "جراج الحرمين الشريفين", "formatted_address": "7 المقريزي، Mansheya El-Bakry, Heliopolis, Cairo Governorate, Egypt", "lat": 30.0912599, "lng": 31.3061206, "types": ["parking", "point_of_interest", "establishment"], "place_id": "ChIJpcovDdM_WBQRO9_W5KsDJNg"}, {"name": "Dr. Mohamed Hussein Mostafa", "formatted_address": "16 El Maqrizy St.، Mansheya El-Bakry, Heliopolis, Cairo Governorate, Egypt", "lat": 30.090966, "lng": 31.307238, "types": ["doctor", "health", "point_of_interest", "establishment"], "place_id": "ChIJb_b4VNI_WBQRQ3yt62qEHe8"}, {"name": "Garage El Bakry", "formatted_address": "39 المقريزي، Mansheya El-Bakry, Heliopolis, Cairo Governorate, Egypt", "lat": 30.0910476, "lng": 31.306934, "types": ["parking", "point_of_interest", "establishment"], "place_id": "ChIJDz36PdM_WBQRL8aTCdUpP0U"}, {"name": "ديكورات وتشطيبات دارى للديكورات والتشطيبات واعمال البناء واعمال الاند سكيب والشلالات والنوافير", "formatted_address": "16 أ Al Sayed Al Maqreezi, Mansheya El-Bakry, Heliopolis, Cairo Governorate, Egypt", "lat": 30.0905209, "lng": 31.3073023, "types": ["point_of_interest", "establishment"], "place_id": "ChIJMRxOUvQVWBQRwuy6q0_QIPk"}, {"name": "Sonesta Hotel Tower & Casino Cairo", "formatted_address": "3 El Tayaran St, Ash Sharekat, Nasr City, Cairo Governorate, Egypt", "lat": 30.0789591, "lng": 31.3175599, "types": ["casino", "lodging", "point_of_interest", "establishment"], "place_id": "ChIJKYApCUc-WBQROTn4JL8ozhI"}, {"name": "Citystars Heliopolis", "formatted_address": "Citystars, Cairo Governorate 11771, Egypt", "lat": 30.0728734, "lng": 31.3458082, "types": ["shopping_mall", "point_of_interest", "establishment"], "place_id": "ChIJo0ecE_gVWBQRGGrouhZFdME"}, {"name": "XO", "formatted_address": "٩ شارع الباجورى،، Mansheya El-Bakry, Heliopolis, Cairo Governorate, Egypt", "lat": 30.0916834, "lng": 31.3073176, "types": ["cafe", "food", "point_of_interest", "establishment"], "place_id": "ChIJzW5jQ9M_WBQRWWAzpNeFLCQ"}, {"name": "Salem", "formatted_address": "Mansheyat Al Bakri, Heliopolis, Cairo Governorate, Egypt", "lat": 30.0909786, "lng": 31.3072975, "types": ["point_of_interest", "establishment"], "place_id": "ChIJaRPXPtM_WBQRi0HKQYn6re0"}, {"name": "أ.د.أمين عبد الحميد", "formatted_address": "شارع Al Sayed Al Maqreezi, Mansheya El-Bakry, Heliopolis, Cairo Governorate, Egypt", "lat": 30.0907888, "lng": 31.3065471, "types": ["doctor", "health", "point_of_interest", "establishment"], "place_id": "ChIJgZPAENM_WBQRr6-uyt63cKE"}, {"name": "BIG GYM", "formatted_address": "14 El-Maqreezy Street, Mansheyat El-Bakry, Heliopolis, Cairo Governorate, Egypt", "lat": 30.0906483, "lng": 31.3063408, "types": ["gym", "health", "point_of_interest", "establishment"], "place_id": "ChIJh0gNe2Y_WBQR-qY97NgEtEM"}, {"name": "معمل الفا", "formatted_address": "سوق العصر، 21 شارع الخليفة المأمون، منشية البكري، قسم مصر الجديدة، محافظة القاهرة‬ اعلى on the run امام، Egypt", "lat": 30.0881797, "lng": 31.3104199, "types": ["health", "point_of_interest", "establishment"], "place_id": "ChIJs-YrEi0-WBQRTb8W38lgV9Q"}, {"name": "بيت المهندسين", "formatted_address": "Mansheya El-Bakry, Heliopolis, Cairo Governorate, Egypt", "lat": 30.0888643, "lng": 31.3043899, "types": ["point_of_interest", "establishment"], "place_id": "ChIJ_-Os9ZM_WBQRtHxz30ZNViE"}, {"name": "برازر", "formatted_address": "Mansheyat Al Bakri, Heliopolis, Cairo Governorate, Egypt", "lat": 30.0915025, "lng": 31.3076617, "types": ["book_store", "point_of_interest", "store", "establishment"], "place_id": "ChIJq3CPRdM_WBQRHxbYkr7MZLU"}, {"name": "Munch", "formatted_address": "1Omarat, Al Saudeya, Masaken Al Mohandesin, Nasr City, Cairo Governorate, Egypt", "lat": 30.0909435, "lng": 31.3070731, "types": ["restaurant", "food", "point_of_interest", "establishment"], "place_id": "ChIJ1aX2NTM_WBQRb_vyhDWjTTc"}, {"name": "الأزهر", "formatted_address": "16 El Maqrizy St.، Mansheya El-Bakry, Heliopolis, Cairo Governorate, Egypt", "lat": 30.0910413, "lng": 31.3069397, "types": ["point_of_interest", "establishment"], "place_id": "ChIJb_b4VNI_WBQRBdfybZyCRcI"}, {"name": "هارون", "formatted_address": "١٣ أ جسر السويس، قسم اول مصر الجديده، Cairo Governorate, Egypt", "lat": 30.0911903, "lng": 31.3060707, "types": ["home_goods_store", "general_contractor", "point_of_interest", "store", "establishment"], "place_id": "ChIJT5ctDNM_WBQRx92-GXOyKwI"}]