[{"name": "Salah Al-Din Al-Ayoubi Castle, Salah Salem Street, Cairo", "formatted_address": "Salah Salem St, Al Abageyah, El-Khalifa, Cairo Governorate, Egypt", "lat": 31.2594688, "types": ["point_of_interest", "establishment"], "place_id": "ChIJY-3CkKxAWBQRby736eSW2y8"}, {"name": "Masr Al Jadidah", "formatted_address": "Masr Al Jadidah, Al Matar, El Nozha, Cairo Governorate, Egypt", "lat": 31.3438507, "types": ["locality", "political"], "place_id": "ChIJmeXkw9wVWBQRBpKjSi7CZ2w"}, {"name": "مريم عتمان", "formatted_address": "مصر الجديدة، المطار، قسم النزهة،، Cairo Governorate, Egypt", "lat": 31.3438507, "types": ["point_of_interest", "establishment"], "place_id": "ChIJgxrFUogVWBQRS1UPh4qIBp0"}, {"name": "Baron Empain Palace", "formatted_address": "El-Orouba, El-Montaza, Heliopolis, Cairo Governorate 11757, Egypt", "lat": 31.3303332, "types": ["point_of_interest", "establishment"], "place_id": "ChIJ1_GM8iE-WBQRLNVi-RT7vDA"}, {"name": "المصرية لخدمات المؤتمرات", "formatted_address": "6 Al Abnasy Street, Mansheiet El-Bakry, Cairo Governorate 11341, Egypt", "lat": 31.3438507, "types": ["point_of_interest", "establishment"], "place_id": "ChIJV2-3ZtM_WBQRppQSBfVwTtY"}, {"name": "الهندسيه للستائر الرأسيه", "formatted_address": "مصر الجديده، القاهره، مصر فارغ، Egypt", "lat": 31.3438507, "types": ["home_goods_store", "point_of_interest", "store", "establishment"], "place_id": "ChIJT2uD_nYVWBQRmvvE3fIiJnw"}, {"name": "El Obour Buildings", "formatted_address": "24 عمارات العبور صلاح سالم مصر الجديدك القاهرة عمارات العبور، Salah Salem St, Egypt", "lat": 31.302247, "types": ["point_of_interest", "establishment"], "place_id": "ChIJlxRbmbY_WBQRnekOCpKjLtM"}, {"name": "Egyptravel", "formatted_address": "Safer square 12 Hassona, النواوي، Cairo Governorate, Egypt", "lat": 31.3438507, "types": ["travel_agency", "point_of_interest", "establishment"], "place_id": "ChIJneOVGKdHWBQR2dPurZOd9g8"}, {"name": "Beirut Square Heliopolis - ميدان بيروت مصر الجديدة", "formatted_address": "Beirut Square ( Korba, Almazah, Heliopolis, Cairo Governorate, Egypt", "lat": 31.3273145, "types": ["point_of_interest", "establishment"], "place_id": "ChIJceNUu3EVWBQRxch3XBiRuiM"}, {"name": "EGENT Center (Heliopolis Branch)", "formatted_address": "24 el Ahram street, Al Matar, El Nozha, Cairo Governorate, Egypt", "lat": 31.3438507, "types": ["health", "point_of_interest", "establishment"], "place_id": "ChIJA9dUAxwVWBQRn6gBuXiy7yA"}, {"name": "Egypt", "formatted_address": "٦ شارع محمد مأمون متفرع من شارع عبدالعظيم عوض الله -خلف مطعم جاد ميدان الحجاز, Egypt", "lat": 31.3424551, "types": ["point_of_interest", "establishment"], "place_id": "ChIJC17-PcMVWBQRUNid6oGFCjM"}, {"name": "حجز فنادق مصر الجديدة", "formatted_address": "مصر الجديدة، Cairo Governorate, Egypt", "lat": 31.3438507, "types": ["travel_agency", "point_of_interest", "establishment"], "place_id": "ChIJI1h83OMVWBQRtdlkKJjuHuw"}, {"name": "Arab film school", "formatted_address": "15-Al-Ahram Street, Heliopolis, Cairo Governorate 11757, Egypt", "lat": 31.3438507, "types": ["point_of_interest", "establishment"], "place_id": "ChIJcYZ1plEVWBQRfQ17CkMcvAQ"}, {"name": "elsultan aqaria group", "formatted_address": "70 ش جوزيف تيتو - طريق المطار, El-Nozha, Egypt", "lat": 31.3438507, "types": ["lodging", "point_of_interest", "establishment"], "place_id": "ChIJsc8dY3UVWBQR4ERwwyHLfwc"}, {"name": "A|X Heliopolis City Stars Mall", "formatted_address": "City Stars Mall Heliopolis, Il Cairo, 11757, Egypt", "lat": 31.34367929999999, "types": ["point_of_interest", "clothing_store", "store", "establishment"], "place_id": "ChIJi1N7kww_WBQR2_0TRndb_UU"}, {"name": "اوتوشوب فرع جسر السويس", "formatted_address": "شنودة، 6 عمارات الشرطة - ناصية عزبة، Cairo Governorate, Egypt", "lat": 31.3438507, "types": ["car_repair", "point_of_interest", "store", "establishment"], "place_id": "ChIJSfibmtoVWBQRKQFQedKNvE0"}, {"name": "super", "formatted_address": "Al Matar, El Nozha, Cairo Governorate 11736, Egypt", "lat": 31.3438507, "types": ["secondary_school", "school", "point_of_interest", "establishment"], "place_id": "ChIJhznDAIIVWBQRSHr8c3DBaYU"}, {"name": "مونجينى عمارات العبور صلاح سالم Obour Building", "formatted_address": "3 عمارات العبور 22 عمارات العبور، Salah Salem St, Mansheya El-Bakry, قسم مصر الجديدة،، Cairo Governorate, Egypt", "lat": 31.315436, "types": ["bakery", "food", "point_of_interest", "store", "establishment"], "place_id": "ChIJuaxvSDE-WBQRree2LjAL4bY"}, {"name": "مركز الدكتور امجد الحداد حساسية ومناعه 12ش بطرس غالى روكسي مصر الجديده", "formatted_address": "12 شارع بطرس غالى روكسى، روكسي، مصر الجديده، Cairo Governorate, Egypt", "lat": 31.343851, "types": ["doctor", "health", "point_of_interest", "establishment"], "place_id": "ChIJf2fnvc4VWBQRy8CF-La2d4c"}, {"name": "New khalifa", "formatted_address": "roxy, 2 Dimsuq street, Al Matar, El Nozha, Cairo Governorate, Egypt", "lat": 31.3438507, "types": ["food", "point_of_interest", "establishment"], "place_id": "ChIJs9rBu-Y_WBQRT34u3gM2KM8"}, {"name": "مستشفى الحرية التخصصى", "formatted_address": "11 Latif Mansour St، Almazah, El Nozha, Cairo Governorate, Egypt", "lat": 31.3438507, "types": ["hospital", "health", "point_of_interest", "establishment"], "place_id": "ChIJq7jFPhw-WBQRx7wGgL_7bO8"}, {"name": "princess toys", "formatted_address": "Al Matar, El Nozha, Cairo Governorate, Egypt", "lat": 31.3438507, "types": ["point_of_interest", "store", "establishment"], "place_id": "ChIJqSpPHO8VWBQRezuQybllP-8"}, {"name": "معاز السقا", "formatted_address": "مصر الجديدة، المطار، قسم النزهة، محافظة القاهرة‬،، Egypt", "lat": 31.3438507, "types": ["school", "point_of_interest", "establishment"], "place_id": "ChIJnVjy6JQVWBQRQ3ih7tn5Nws"}, {"name": "La Vie Gym", "formatted_address": "٤حسن منصور _خلف نادي النصر _ميدان المحكمة _مصر، الحديدة، المطار، قسم النزهة، محافظة القاهرة‬،، Egypt", "lat": 31.3438507, "types": ["gym", "health", "point_of_interest", "establishment"], "place_id": "ChIJfe8BkEkVWBQRKi2MKUETkMw"}, {"name": "مدرسة البطل علي فهمي بالصوالح", "formatted_address": "مصر الجديدة، المطار، قسم النزهة،، Cairo Governorate, Egypt", "lat": 31.3438507, "types": ["school", "point_of_interest", "establishment"], "place_id": "ChIJz-uM8hIVWBQRWR8pB_-1pOE"}, {"name": "Egyptair", "formatted_address": "Al Matar, El Nozha, Cairo Governorate, Egypt", "lat": 31.3438507, "types": ["travel_agency", "point_of_interest", "establishment"], "place_id": "ChIJmeXkw9wVWBQRhp0z_uttSsk"}, {"name": "كلية البنات الإسلامية", "formatted_address": "Al Matar, El Nozha, Cairo Governorate, Egypt", "lat": 31.3438507, "types": ["school", "point_of_interest", "establishment"], "place_id": "ChIJm_9G-NIVWBQRek3167HyMZE"}, {"name": "OKKA Coffee Machine", "formatted_address": "5 ش ابن سينا - ميدان سفير Heliopolis القاهرة، 11757, Egypt", "lat": 31.3438507, "types": ["home_goods_store", "point_of_interest", "store", "establishment"], "place_id": "ChIJ30hiuoUVWBQRhk5mzfGj5Yc"}, {"name": "كلية البنات جامعة عين شمس", "formatted_address": "Al Matar, El Nozha, Cairo Governorate, Egypt", "lat": 31.3437665, "types": ["school", "point_of_interest", "establishment"], "place_id": "ChIJ9TIiBcQVWBQRnL0x6V1A3A0"}, {"name": "محمد سعد", "formatted_address": "Al Matar, El Nozha, Cairo Governorate 11757, Egypt", "lat": 31.3438507, "types": ["furniture_store", "home_goods_store", "point_of_interest", "store", "establishment"], "place_id": "ChIJi0ahxJQVWBQRvGgOE2t1p2c"}, {"name": "mario", "formatted_address": "Al Matar, El Nozha, Cairo Governorate 11033, Egypt", "lat": 31.3438507, "types": ["local_government_office", "point_of_interest", "establishment"], "place_id": "ChIJ0_2aR5EVWBQRmJBWskYFzCI"}, {"name": "Mohamed hassan", "formatted_address": "Roxy, Al Matar, El Nozha, Cairo Governorate, Egypt", "lat": 31.3438507, "types": ["general_contractor", "point_of_interest", "establishment"], "place_id": "ChIJWcrQp1cVWBQRxa48aNK0CZw"}, {"name": "Samaan Jewellery", "formatted_address": "51 Nakhla El-Moteay st, Al Matar, El Nozha, Cairo Governorate, Egypt", "lat": 31.3438507, "types": ["jewelry_store", "point_of_interest", "store", "establishment"], "place_id": "ChIJl9wNM-MVWBQRKfG5PZ3vx1Q"}, {"name": "مطعم ماجيك", "formatted_address": "الكربة، مصر الجديدة، محافظة ،، Cairo Governorate, Egypt", "lat": 31.3438507, "types": ["restaurant", "food", "point_of_interest", "establishment"], "place_id": "ChIJ21lBnv8VWBQRl3wYqthw0dw"}, {"name": "Gonline for Trading", "formatted_address": "8 Sayed Afifi, Al Matar, El Nozha, Cairo Governorate, Egypt", "lat": 31.3438507, "types": ["point_of_interest", "establishment"], "place_id": "ChIJD41-uccVWBQR6NYWzQjgGzY"}, {"name": "الجيزة", "formatted_address": "Al Matar, El Nozha, Cairo Governorate, Egypt", "lat": 31.3438507, "types": ["restaurant", "food", "point_of_interest", "establishment"], "place_id": "ChIJgZe0hhsVWBQRb1sBrfjhhC0"}, {"name": "Spectra Restaurant", "formatted_address": "city stars, Al Matar, El Nozha, Cairo Governorate, Egypt", "lat": 31.3438507, "types": ["restaurant", "food", "point_of_interest", "establishment"], "place_id": "ChIJO5X6FZoVWBQRuJSlbjeUxnA"}, {"name": "Hex Advertising", "formatted_address": "Cairo, Cairo Governorate 11757, Egypt", "lat": 31.3438043, "types": ["point_of_interest", "establishment"], "place_id": "ChIJeZyDI1M_WBQR0uRSvjPywB0"}, {"name": "اتيليه جميل السورى محل ملابس", "formatted_address": "10 عمارات الشريف ش اسوان متفرح من محكمة مصر الجدبدة، El-Bostan, Heliopolis, Cairo Governorate, Egypt", "lat": 31.3438507, "types": ["clothing_store", "point_of_interest", "store", "establishment"], "place_id": "ChIJ7xKIC-cVWBQR2u2Dq2C5agk"}, {"name": "Dr Helmy Soliman Clinic", "formatted_address": "105 al Nozha street, Al Matar, El Nozha, Cairo Governorate 11341, Egypt", "lat": 31.3438507, "types": ["point_of_interest", "establishment"], "place_id": "ChIJDwhI9cAVWBQRtSY0xJgrw6Y"}, {"name": "سمك سمك 🐟", "formatted_address": "مصر الجديدة، المطار، قسم النزهة،، Cairo Governorate, Egypt", "lat": 31.3438507, "types": ["point_of_interest", "establishment"], "place_id": "ChIJJdOw7pwVWBQRoA6qs239lpg"}, {"name": "ماستر كلين", "formatted_address": "11ش الاندلس خلف ميرلاند روكسى مصر الجديده، 11341, Egypt", "lat": 31.3438507, "types": ["laundry", "point_of_interest", "establishment"], "place_id": "ChIJNTYlSL0VWBQRHyde7leAM7I"}, {"name": "international consultant bureau", "formatted_address": "3 mohamed kamal eldin st, Al Matar, El Nozha, Cairo Governorate, Egypt", "lat": 31.3438507, "types": ["lawyer", "point_of_interest", "establishment"], "place_id": "ChIJ6--YtSEVWBQRQvC0-UUTb_s"}, {"name": "Dr. Tamer Abu Arab cardiology clinic", "formatted_address": "25 Othman Ibn Affan, Salah El Din Square, El Nozha, Cairo Governorate, Egypt", "lat": 31.3438507, "types": ["doctor", "health", "point_of_interest", "establishment"], "place_id": "ChIJmfnNgNUVWBQRqGJu6yG2XiY"}, {"name": "كريم ماركت", "formatted_address": "مصر الجديدة، المطار، قسم النزهة،، Cairo Governorate, Egypt", "lat": 31.3438507, "types": ["shopping_mall", "point_of_interest", "establishment"], "place_id": "ChIJu3GsBjMVWBQRgV_jNi2P-t4"}, {"name": "معاز السقا", "formatted_address": "14 عبد الحي فتحي، المطار، قسم النزهة،، Cairo Governorate, Egypt", "lat": 31.3438292, "types": ["point_of_interest", "establishment"], "place_id": "ChIJv5bKAj8VWBQRkEBXT4OP3sE"}, {"name": "Egypt market", "formatted_address": "Al Matar, El Nozha, Cairo Governorate 11517, Egypt", "lat": 31.3443193, "types": ["store", "point_of_interest", "establishment"], "place_id": "ChIJ907IPMZAWBQRUW2PVJlXHQM"}, {"name": "توكيل صيانة وايت وستنجهاوس اتصل 19817", "formatted_address": "ورشه البلاط، 4شاررع، Cairo Governorate 11725, Egypt", "lat": 31.3438507, "types": ["point_of_interest", "establishment"], "place_id": "ChIJ5Yl7XjUVWBQR7gzt5FGjn9U"}, {"name": "International Bowling Center", "formatted_address": "Passage Inside Stadium, Al Estad, Nasr City, Cairo Governorate, Egypt", "lat": 31.3083181, "types": ["bowling_alley", "point_of_interest", "establishment"], "place_id": "ChIJCf6VzLQ_WBQRzZIeycb18m4"}, {"name": "شركة تسويق وتصميم مواقع شركات | Marketing Flag", "formatted_address": "9 ب السلحدار روكسي, مصر الجديدة, cairo, Cairo Governorate 11757, Egypt", "lat": 31.343851, "types": ["point_of_interest", "establishment"], "place_id": "ChIJceXkw9wVWBQRgMShehzR7kI"}, {"name": "Gad", "formatted_address": "63 ش Fareed Semeika, Al Matar, القاهرة‬، Cairo Governorate, Egypt", "lat": 31.3446338, "types": ["restaurant", "food", "point_of_interest", "establishment"], "place_id": "ChIJAeBmGKEVWBQREvaHRA4NJB8"}, {"name": "ألبان زاهر", "formatted_address": "Fareed Semeika, ،، El Nozha, Cairo Governorate, Egypt", "lat": 31.344667, "types": ["supermarket", "grocery_or_supermarket", "food", "point_of_interest", "store", "establishment"], "place_id": "ChIJ0XHk7NwVWBQR4O6VPslx94c"}, {"name": "Sport Cafe", "formatted_address": "المطار، قسم النزهة،، Cairo Governorate, Egypt", "lat": 31.3438507, "types": ["cafe", "food", "point_of_interest", "establishment"], "place_id": "ChIJzbjQwS4VWBQRNN8fpA2hwBY"}, {"name": "novartis", "formatted_address": "7 El-Khalily St., Hesny building - Area 1147 Heliopolis Sheraton، Egypt", "lat": 31.3438507, "types": ["point_of_interest", "establishment"], "place_id": "ChIJmeXkw9wVWBQRPh1MOJ0nxOg"}, {"name": "عماد", "formatted_address": "مصر الجديدة، المطار، قسم النزهة،، Cairo Governorate, Egypt", "lat": 31.3438507, "types": ["restaurant", "food", "point_of_interest", "establishment"], "place_id": "ChIJ7_hwCNwVWBQRI3LeecOunC8"}, {"name": "English Home Club", "formatted_address": "60 St. Haroun, Heliopolis, Cairo Governorate 11545, Egypt", "lat": 31.3438507, "types": ["point_of_interest", "establishment"], "place_id": "ChIJK1ZIUY4VWBQRcigafOCQujE"}, {"name": "OQ Originals", "formatted_address": "7 Sekhawy st, Computer Mall 1, Cairo Governorate, Egypt", "lat": 31.3438507, "types": ["electronics_store", "point_of_interest", "store", "establishment"], "place_id": "ChIJmXmEw50VWBQRyMR2iqc0Uzw"}, {"name": "Misr El Dawleya", "formatted_address": "96 ش محمد فريد، وسط البلد، Abdeen, Cairo Governorate, Egypt", "lat": 31.2442814, "types": ["point_of_interest", "establishment"], "place_id": "ChIJYaZ29JVAWBQRfDHDvqzkKAg"}, {"name": "بتاع تسويق", "formatted_address": "Al Matar, El Nozha, Cairo Governorate, Egypt", "lat": 31.3438507, "types": ["point_of_interest", "establishment"], "place_id": "ChIJdUWUtpYVWBQRRSM1Kk_WU9g"}, {"name": "Egyptian Businesses Solution", "formatted_address": "Al Matar, El Nozha, Cairo Governorate, Egypt", "lat": 31.3438507, "types": ["point_of_interest", "establishment"], "place_id": "ChIJfa4BlKgVWBQRaT_fnbejn4k"}]