[{"name": "6th October Bridge", "formatted_address": "كوبرى 6 أكتوبر، Cairo Governorate, Egypt", "lat": 31.2294952, "types": ["tourist_attraction", "point_of_interest", "establishment"], "place_id": "ChIJY4QCycRAWBQR7pfvnLFLbUw"}, {"name": "كوبرى المرغنى الجديد - السبع عمارات", "formatted_address": "السيد الميرغني، الماظة، مصر الجديدة،، الماظة، قسم مصر الجديدة، محافظة القاهرة‬،، Egypt", "lat": 31.3412794, "types": ["point_of_interest", "establishment"], "place_id": "ChIJrzLwoIUVWBQRHaRF2_WvT0s"}, {"name": "Imbaba Bridge", "formatted_address": "Embaba Bridge, Rod El Farag, Cairo Governorate, Egypt", "lat": 31.2255035, "types": ["tourist_attraction", "point_of_interest", "establishment"], "place_id": "ChIJBy1grPlAWBQRRqWNPIHVl8c"}, {"name": "Ittihadia Palace", "formatted_address": "Al Nadi، El-Montaza, Heliopolis, Cairo Governorate, Egypt", "lat": 31.3193929, "types": ["tourist_attraction", "premise", "point_of_interest", "establishment"], "place_id": "ChIJuftqUS8-WBQRtM7fDk0QcPk"}, {"name": "Baron Empain Palace", "formatted_address": "El-Orouba, El-Montaza, Heliopolis, Cairo Governorate 11757, Egypt", "lat": 31.3303332, "types": ["point_of_interest", "establishment"], "place_id": "ChIJ1_GM8iE-WBQRLNVi-RT7vDA"}, {"name": "El Merghany Bridge El Nozha intersection - كوبري الميرغني تقاطع النزهة", "formatted_address": "El Marghany Street, Almazah, Heliopolis, Cairo Governorate, Egypt", "lat": 31.3408161, "types": ["point_of_interest", "establishment"], "place_id": "ChIJY2K3cKUVWBQROcfqr7nuY0Y"}, {"name": "Misr El Dawleya", "formatted_address": "96 ش محمد فريد، وسط البلد، Abdeen, Cairo Governorate, Egypt", "lat": 31.2442814, "types": ["point_of_interest", "establishment"], "place_id": "ChIJYaZ29JVAWBQRfDHDvqzkKAg"}, {"name": "Our Lady of Heliopolis Co-Cathedral", "formatted_address": "Nazih Khalifa crossroad، Al Ahram, Heliopolis, Cairo Governorate, Egypt", "lat": 31.3251828, "types": ["church", "place_of_worship", "point_of_interest", "establishment"], "place_id": "ChIJJdgh-okVWBQR5TqTmKuQ0IM"}, {"name": "Enviro Egypt", "formatted_address": "34 ش عدلى، وسط البلد، Abdeen, Cairo Governorate, Egypt", "lat": 31.2438927, "types": ["point_of_interest", "establishment"], "place_id": "ChIJtZcaApZAWBQR8B1wlb7EUNU"}, {"name": "New Society Service Association", "formatted_address": "18 Adly St.، DOWNTOWN، Abdeen, Cairo Governorate, Egypt", "lat": 31.2438927, "types": ["point_of_interest", "establishment"], "place_id": "ChIJtZcaApZAWBQRXp74iGF8f3E"}, {"name": "Dr. Mohamed Ahmed Heshmat", "formatted_address": "28 adly st.، DOWNTOWN، Abdeen, Cairo Governorate, Egypt", "lat": 31.2438927, "types": ["point_of_interest", "establishment"], "place_id": "ChIJP1BdIL5AWBQRjresW9Lvqfs"}, {"name": "Sha'ar Hashamayim Synagogue", "formatted_address": "18 شارع عدلي، الفوالة، عابدين، محافظة القاهرة‬،، Egypt", "lat": 31.2436791, "types": ["synagogue", "place_of_worship", "point_of_interest", "establishment"], "place_id": "ChIJDVLmR6hBWBQR6vKEPq4Bl6M"}, {"name": "Tourist Information", "formatted_address": "Al Fawalah, Abdeen, Cairo Governorate, Egypt", "lat": 31.2450233, "types": ["travel_agency", "point_of_interest", "establishment"], "place_id": "ChIJ410GPb5AWBQRe549_LKuZ9Y"}, {"name": "صيدلية السبع عمارات", "formatted_address": "Almazah, Heliopolis, Cairo Governorate, Egypt", "lat": 31.3421078, "types": ["pharmacy", "health", "point_of_interest", "store", "establishment"], "place_id": "ChIJGbIM7fcVWBQRQ3Jp36l_DOk"}, {"name": "Master", "formatted_address": "كوبرى المرغنى الجديد - السبع عمارات، السيد الميرغني، الماظة، مصر الجديدة،، الماظة، قسم مصر الجديدة، محافظة القاهرة‬،، الماظة، قسم مصر الجديدة، محافظة القاهرة‬،، Egypt", "lat": 31.341157, "types": ["cafe", "food", "point_of_interest", "store", "establishment"], "place_id": "ChIJz3x6xKkVWBQRv_-UXoD33z4"}, {"name": "المؤسسه الهندسيه دورنات الالومتيال", "formatted_address": "شارع الخمسين مسجد فصيل النزهه الجديده برج الجزيره 3، Egypt", "lat": 31.3416, "types": ["church", "place_of_worship", "point_of_interest", "establishment"], "place_id": "ChIJOcjcuDUVWBQR0bZG-O-j6Fo"}, {"name": "مركز تسوق التوحيد والنور، السبع عمارات", "formatted_address": "El-Sayed El-Marghany, Almazah, Heliopolis, Cairo Governorate, Egypt", "lat": 31.34064, "types": ["home_goods_store", "point_of_interest", "store", "establishment"], "place_id": "ChIJn7_7uPcVWBQRFx0LUwWyiUc"}, {"name": "Nasr AlIslam Mosque", "formatted_address": "El-Sayed El-Merghany, Almazah, Heliopolis, Cairo Governorate, Egypt", "lat": 31.3424793, "types": ["mosque", "place_of_worship", "point_of_interest", "establishment"], "place_id": "ChIJC7BOgfcVWBQRFBIirnriBWg"}, {"name": "C & Co", "formatted_address": "ش El-Sayed El-Merghany, Mansheya El-Bakry, Heliopolis, Cairo Governorate, Egypt", "lat": 31.316849, "types": ["point_of_interest", "establishment"], "place_id": "ChIJTUAo2C4-WBQRxX_4hyzbFbE"}, {"name": "Citystars Heliopolis", "formatted_address": "Citystars, Cairo Governorate 11771, Egypt", "lat": 31.3458082, "types": ["shopping_mall", "point_of_interest", "establishment"], "place_id": "ChIJo0ecE_gVWBQRGGrouhZFdME"}, {"name": "Tahia Misr Bridge", "formatted_address": "Unnamed Road، Giza Governorate, Egypt", "lat": 31.2348108, "types": ["point_of_interest", "establishment"], "place_id": "ChIJm9lK5xBBWBQRvBwMTefvbbY"}, {"name": "AAW - Alliance For Arab Women", "formatted_address": "28 Adly St.، DOWNTOWN، Abdeen, Cairo Governorate, Egypt", "lat": 31.2438927, "types": ["point_of_interest", "establishment"], "place_id": "ChIJ410GPb5AWBQRJdwVCJBfV0s"}, {"name": "Golden Carven Hotel", "formatted_address": "11 Mohammed Ebeid, Almazah, Heliopolis, Cairo Governorate, Egypt", "lat": 31.3390012, "types": ["lodging", "point_of_interest", "establishment"], "place_id": "ChIJR7L38R0-WBQRDEHe3x6nb1A"}, {"name": "Hamedo", "formatted_address": "Almazah, Heliopolis, Cairo Governorate, Egypt", "lat": 31.3421061, "types": ["point_of_interest", "establishment"], "place_id": "ChIJCT6T8fcVWBQRkmI_K_a2En8"}, {"name": "Cairo international hostel Downtown", "formatted_address": "9 Adly, Al Fawalah, Abdeen, Cairo Governorate, Egypt", "lat": 31.2448464, "types": ["lodging", "point_of_interest", "establishment"], "place_id": "ChIJu3w6ga5BWBQRwqorHLdNWNE"}, {"name": "Milano Hostel", "formatted_address": "16 Adly, Al Fawalah, Abdeen, Cairo Governorate, Egypt", "lat": 31.244482, "types": ["lodging", "point_of_interest", "establishment"], "place_id": "ChIJIeX9Pb5AWBQRVecz770yGr8"}, {"name": "Massala", "formatted_address": "11 متفرع من ش النزهة - ميدان السبع عمارات، Almazah, Heliopolis, Cairo Governorate, Egypt", "lat": 31.3413028, "types": ["lodging", "point_of_interest", "establishment"], "place_id": "ChIJydrGlR0-WBQRe3ziS9SAjEc"}, {"name": "Steigenberger Hotel El Tahrir Cairo", "formatted_address": "2 كوبري, Ismailia, Qasr El Nil, Cairo Governorate, Egypt", "lat": 31.2355805, "types": ["lodging", "point_of_interest", "establishment"], "place_id": "ChIJFwK058ZAWBQRPaVPy7dwbqU"}, {"name": "Post Office - El Horreya Heliopolis", "formatted_address": "Intersection Of Salah Salem rd، El-Nozha, Heliopolis, Cairo Governorate 11736, Egypt", "lat": 31.3428047, "types": ["post_office", "finance", "point_of_interest", "establishment"], "place_id": "ChIJbYuIf_AVWBQRLjDEKpIcTg0"}, {"name": "Free Art", "formatted_address": "31 ش د. احمد زكى، النزهة الجديدة، Heliopolis, Cairo Governorate, Egypt", "lat": 31.3413028, "types": ["point_of_interest", "establishment"], "place_id": "ChIJs68qeIkWWBQRRMxfxDZVr_E"}, {"name": "Heliopolis Company For Housing & Development", "formatted_address": "28 Ibrahim Al Lakani, El-Montaza, Heliopolis, Cairo Governorate, Egypt", "lat": 31.32091599999999, "types": ["general_contractor", "point_of_interest", "establishment"], "place_id": "ChIJeUp1DiY-WBQRkHRQbiaGSrA"}, {"name": "Family palace hotel Cairo", "formatted_address": "169 Mohammed Farid street, Al Fawalah, Abdeen, Cairo Governorate 11511, Egypt", "lat": 31.244631, "types": ["lodging", "point_of_interest", "establishment"], "place_id": "ChIJ1XcjHL5AWBQRLJ_SZwKk7Hk"}, {"name": "Jawda Engineering Consultants Co.", "formatted_address": "73 Omar Ibn El-Khattab, Al Matar, El Nozha, Cairo Governorate, Egypt", "lat": 31.34196669999999, "types": ["point_of_interest", "establishment"], "place_id": "ChIJq6oakvcVWBQRA16jjHL0E9Q"}, {"name": "دوار", "formatted_address": "16 Adly, Al Fawalah, Abdeen, Cairo Governorate, Egypt", "lat": 31.2444909, "types": ["point_of_interest", "establishment"], "place_id": "ChIJRby8EL5AWBQRcZTnGq2qbu4"}, {"name": "Development Projects Co.", "formatted_address": "129 Al Merghani, Almazah, Heliopolis, Cairo Governorate, Egypt", "lat": 31.3409145, "types": ["point_of_interest", "establishment"], "place_id": "ChIJ5XpOx_cVWBQRswTBZZSQlmI"}, {"name": "El Zahabeya", "formatted_address": "8a 26 July St, Al Fawalah, Abdeen, Cairo Governorate, Egypt", "lat": 31.2440813, "types": ["clothing_store", "point_of_interest", "store", "establishment"], "place_id": "ChIJ2TNfGL5AWBQRWzcxcdfHVOI"}, {"name": "columbia sky city hotel", "formatted_address": "13 Adly 13 عابدين، 11613, Egypt", "lat": 31.2443958, "types": ["lodging", "point_of_interest", "establishment"], "place_id": "ChIJAQBAAJZAWBQRW-Y5EoJ82L0"}, {"name": "Heliopolis Sporting Club (HSC)", "formatted_address": "17 El-Sayed El-Marghany, Mansheya El-Bakry, Heliopolis, Cairo Governorate, Egypt", "lat": 31.3164398, "types": ["point_of_interest", "establishment"], "place_id": "ChIJB9zy8B4-WBQRz_zRpJte8sA"}, {"name": "TOLIP El Galaa - Heliopolis", "formatted_address": "El Orouba St, Sheraton Al Matar, El Nozha, Cairo Governorate, Egypt", "lat": 31.3490226, "types": ["lodging", "point_of_interest", "establishment"], "place_id": "ChIJvyeGu-QVWBQRkPqc2rg6IsE"}, {"name": "Pensione Roma", "formatted_address": "169 Mohammed Farid, Al Fawalah, Abdeen, Cairo Governorate, Egypt", "lat": 31.2445612, "types": ["lodging", "point_of_interest", "establishment"], "place_id": "ChIJYaZ29JVAWBQRbhDqrKO2si8"}, {"name": "Cinema Syndicate", "formatted_address": "20 Adly, Al Fawalah, Abdeen, Cairo Governorate, Egypt", "lat": 31.2438222, "types": ["point_of_interest", "establishment"], "place_id": "ChIJFbiJOb5AWBQR3xOz6WPZnAE"}, {"name": "مركز هليوبوليس للتخاطب وتنمية المهارات", "formatted_address": "28 شارع محمد عبيد من شارع النزهة، ميدان السبع عمارات، Heliopolis, Cairo Governorate 11341, Egypt", "lat": 31.3405147, "types": ["health", "point_of_interest", "establishment"], "place_id": "ChIJw6dPReEVWBQR_MDzZUGV44Q"}, {"name": "Dent Inn ( Dr ahmed roshdy )", "formatted_address": "Almazah, Heliopolis, Cairo Governorate, Egypt", "lat": 31.3419905, "types": ["point_of_interest", "establishment"], "place_id": "ChIJ1YSxv-UVWBQRqOdFs74g1no"}, {"name": "Rivoli", "formatted_address": "8a 26 July St, Al Fawalah, Abdeen, Cairo Governorate, Egypt", "lat": 31.2440813, "types": ["store", "point_of_interest", "establishment"], "place_id": "ChIJpa_GGL5AWBQRMN1D_MKU1g0"}, {"name": "Misr Oil & Soap", "formatted_address": "6 Adly St, DOWNTOWN، Abdeen, Cairo Governorate, Egypt", "lat": 31.2438927, "types": ["point_of_interest", "establishment"], "place_id": "ChIJ410GPb5AWBQRy9_IatEKEWo"}, {"name": "Sonesta Hotel Tower & Casino Cairo", "formatted_address": "3 El Tayaran St, Ash Sharekat, Nasr City, Cairo Governorate, Egypt", "lat": 31.3175599, "types": ["casino", "lodging", "point_of_interest", "establishment"], "place_id": "ChIJKYApCUc-WBQROTn4JL8ozhI"}, {"name": "Layet Karam", "formatted_address": "8 Mohammed Rasheed Reda, Almazah, Heliopolis, Cairo Governorate, Egypt", "lat": 31.3424805, "types": ["point_of_interest", "establishment"], "place_id": "ChIJj3249vcVWBQRfyay8L_Ppto"}, {"name": "Baron Hotel Heliopolis", "formatted_address": "14 Al Baroon, El-Montaza, Heliopolis, Cairo Governorate, Egypt", "lat": 31.3314609, "types": ["lodging", "point_of_interest", "establishment"], "place_id": "ChIJUbVOACI-WBQRWsi5B7gYfxs"}, {"name": "Giza Zoo", "formatted_address": "Oula, Giza District, Giza Governorate, Egypt", "lat": 31.2159686, "types": ["zoo", "point_of_interest", "establishment"], "place_id": "ChIJRWVP7s1HWBQRTn8tKhXDBI4"}, {"name": "Cairo University", "formatted_address": "1 شارع الجامعة الجيزة، 12613, Egypt", "lat": 31.2086854, "types": ["university", "point_of_interest", "establishment"], "place_id": "ChIJUQhSAdtGWBQRXVwRQL-Bl70"}, {"name": "Ghanem", "formatted_address": "8a 26 July St, Al Fawalah, Abdeen, Cairo Governorate, Egypt", "lat": 31.2440482, "types": ["clothing_store", "point_of_interest", "store", "establishment"], "place_id": "ChIJCywT9ZVAWBQR-QqMAqz7_nE"}, {"name": "Nour El Iman", "formatted_address": "36 ش الازهر، Al Fawalah, Abdeen, Cairo Governorate, Egypt", "lat": 31.2440813, "types": ["clothing_store", "point_of_interest", "store", "establishment"], "place_id": "ChIJ64EQi5VAWBQRUZj6SsuYAQg"}, {"name": "Heliopolis Towers Hotel", "formatted_address": "El Shaheed Sayed Zakaria, Sheraton Al Matar, El Nozha, Cairo Governorate 11736, Egypt", "lat": 31.3661798, "types": ["lodging", "point_of_interest", "establishment"], "place_id": "ChIJZ9p3820WWBQRmZh2M_MSzOQ"}, {"name": "Elsaba Automotive", "formatted_address": "11736 Heliopolis, 18 El-Horeya, Almazah, Heliopolis, Cairo Governorate 11736, Egypt", "lat": 31.340142, "types": ["car_dealer", "point_of_interest", "store", "establishment"], "place_id": "ChIJA-64dB0-WBQRt4PF7e4OzgE"}, {"name": "ELARABY Group", "formatted_address": "9 شارع عدلى، Sherif Basha, Egypt", "lat": 31.2451544, "types": ["home_goods_store", "point_of_interest", "store", "establishment"], "place_id": "ChIJDVvpPMZAWBQRyHZHN6qZaNg"}, {"name": "Egyptian Arab Land Bank", "formatted_address": "106 Mohammed Farid, Bab Al Louq, Abdeen, Cairo Governorate, Egypt", "lat": 31.2440814, "types": ["bank", "finance", "point_of_interest", "establishment"], "place_id": "ChIJ3W4rGb5AWBQR73M0i1Gr6A8"}, {"name": "القاهرة للمبيعات - Cairo Sales", "formatted_address": "86 Shehab Street, Mohandeseen (Wadi Alnil side), Giza, Egypt", "lat": 31.19921309999999, "types": ["electronics_store", "home_goods_store", "point_of_interest", "store", "establishment"], "place_id": "ChIJ6yMVUzlBWBQRWv0whXWulYQ"}, {"name": "Lc", "formatted_address": "169 Mohammed Farid, Al Fawalah, Abdeen, Cairo Governorate 11511, Egypt", "lat": 31.2444514, "types": ["clothing_store", "point_of_interest", "store", "establishment"], "place_id": "ChIJn23VldJBWBQRT5395NTZudc"}, {"name": "Nour Moda", "formatted_address": "19 شارع ميرت باشا، Al Fawalah, Abdeen, Cairo Governorate 11111, Egypt", "lat": 31.2440813, "types": ["clothing_store", "point_of_interest", "store", "establishment"], "place_id": "ChIJr_Ru9ZVAWBQRSwmaOVShASQ"}, {"name": "Eveil", "formatted_address": "167 Mohammed Farid, Al Fawalah, Abdeen, Cairo Governorate, Egypt", "lat": 31.24460079999999, "types": ["clothing_store", "point_of_interest", "store", "establishment"], "place_id": "ChIJRX6lQb5AWBQRpLCYF3vKnVc"}]