[{"name": "Maison Thomas - Heliopolis", "formatted_address": "2 شارع الشيخ حسونة النواوي،مصر الجديدة،قسم، El-Nozha, Cairo Governorate, Egypt", "lat": 31.3398927, "types": ["restaurant", "food", "point_of_interest", "establishment"], "place_id": "ChIJ70H0UvAVWBQR13TSLgW-vCs"}, {"name": "Every Day", "formatted_address": "شارع الشيخ حسونة النواوي،مصر الجديدة،قسم النزهة القاهرة‬، Cairo Governorate, Egypt", "lat": 31.3400372, "types": ["cafe", "food", "point_of_interest", "establishment"], "place_id": "ChIJ58Q3SfAVWBQRqYallnBYzwg"}, {"name": "ElNawawy", "formatted_address": "50 El Hegaz St, El-Nozha, El Nozha, Cairo Governorate, Egypt", "lat": 31.3338718, "types": ["pharmacy", "health", "point_of_interest", "store", "establishment"], "place_id": "ChIJkWosfOsVWBQR61hSkCwTwl4"}, {"name": "bob Store", "formatted_address": "12 Al Sheikh Hassouna Al Nawawi, El-Nozha, El Nozha, Cairo Governorate, Egypt", "lat": 31.3407829, "types": ["point_of_interest", "establishment"], "place_id": "ChIJAeZXYYkVWBQRjToR1HEtf3E"}, {"name": "ABC Research", "formatted_address": "7 Al Sheikh Hassouna Al Nawawi, El-Nozha, El Nozha, Cairo Governorate, Egypt", "lat": 31.3407827, "types": ["point_of_interest", "establishment"], "place_id": "ChIJOapTptkVWBQRp9n9wmsUzIU"}, {"name": "Mac International", "formatted_address": "14 ش حسونة النواوى، El-Nozha, El Nozha, Cairo Governorate, Egypt", "lat": 31.3403145, "types": ["store", "point_of_interest", "establishment"], "place_id": "ChIJO3w_SfAVWBQR9vVDCbuXtik"}, {"name": "مجموعة عتمان 70 ابو بكر", "formatted_address": "2 الشيخ حسونة النواوي، النزهة، قسم النزهة،، Cairo Governorate, Egypt", "lat": 31.33956349999999, "types": ["lodging", "point_of_interest", "establishment"], "place_id": "ChIJb9lEBf4VWBQRUF7coniRvuo"}, {"name": "Nawfez", "formatted_address": "13 Mahmoud El Nawawy St.، AIN SHAMS EL SHARKEYA، El Nozha, Cairo Governorate, Egypt", "lat": 31.3403145, "types": ["point_of_interest", "establishment"], "place_id": "ChIJe9c1Np0VWBQRMSPVFGwVIi4"}, {"name": "النحاس كوول - El Nahaas Cool", "formatted_address": "14-8 الشيخ حسونة النواوي، النزهة، قسم النزهة،، Cairo Governorate, Egypt", "lat": 31.3408539, "types": ["point_of_interest", "establishment"], "place_id": "ChIJ35moeQUVWBQREj5L0EdhqCg"}, {"name": "Nawawy Pharmacies-صيدليات النواوى", "formatted_address": "24 Omar Ibn El-Khattab, El-Zawya El-Hamraa, Cairo Governorate, Egypt", "lat": 31.3346143, "types": ["pharmacy", "health", "point_of_interest", "store", "establishment"], "place_id": "ChIJC7zIo_MVWBQRbKwNdWROGYg"}, {"name": "HSBC Safir Branch", "formatted_address": "1 Elsheikh Hassouna El Nawawy Street, Safir Square, Egypt", "lat": 31.3400376, "types": ["bank", "finance", "point_of_interest", "establishment"], "place_id": "ChIJbyjXaJkVWBQRspM2ZWCr_4Y"}, {"name": "Sanabel - Egyptian International Co. For Nutritional Agencies", "formatted_address": "9 Hassouna El Nawawy St.، El-Nozha, Heliopolis, Cairo Governorate, Egypt", "lat": 31.3403145, "types": ["store", "point_of_interest", "establishment"], "place_id": "ChIJO3w_SfAVWBQRYe1LTbwjP-Q"}, {"name": "Alaa Tailor", "formatted_address": "16 el sheikh hassan el attar st.، El-Nozha, Heliopolis, Cairo Governorate, Egypt", "lat": 31.340748, "types": ["clothing_store", "point_of_interest", "store", "establishment"], "place_id": "ChIJhckLFvAVWBQRIpfVfs4Jf94"}, {"name": "سفير", "formatted_address": "An Nuzhah, Qesm an Nuzhah, Cairo Governorate, Egypt", "lat": 31.3397472, "types": ["point_of_interest", "establishment"], "place_id": "ChIJQ6YTzfEVWBQRxGjNc14Tbbg"}, {"name": "Al Farouk Co. For Imprt and Export", "formatted_address": "76 Abou Bakr El-Sedeek, El-Zawya El-Hamraa, Cairo Governorate, Egypt", "lat": 31.3401377, "types": ["point_of_interest", "establishment"], "place_id": "ChIJyZmRZEIVWBQRhA0tg2zBpTg"}, {"name": "Al-Azhar Mosque", "formatted_address": "El-Darb El-Ahmar, Cairo Governorate, Egypt", "lat": 31.2626851, "types": ["mosque", "tourist_attraction", "place_of_worship", "point_of_interest", "establishment"], "place_id": "ChIJ9SH986JAWBQR6FIeS8dSZ2c"}, {"name": "كافية لابوم المعز", "formatted_address": "18 إسماعيل رافت، النزهة، قسم النزهة، محافظة القاهرة‬،، Egypt", "lat": 31.34008679999999, "types": ["cafe", "food", "point_of_interest", "store", "establishment"], "place_id": "ChIJ-3-jMAcVWBQRwBz4H6oZ8uA"}, {"name": "Safeer Car Care", "formatted_address": "18 Ismail Rafat, El-Nozha, El Nozha, Cairo Governorate, Egypt", "lat": 31.3401071, "types": ["shopping_mall", "point_of_interest", "establishment"], "place_id": "ChIJJfq-S_AVWBQRwWYRc1L9l0Q"}, {"name": "Beauty Center Nabil Bishay", "formatted_address": "An Nuzhah, Qesm an Nuzhah, Cairo Governorate, Egypt", "lat": 31.3401284, "types": ["beauty_salon", "point_of_interest", "establishment"], "place_id": "ChIJa2NVUvAVWBQR8UrwcOVFfjc"}, {"name": "Cafeshop Elsalam", "formatted_address": "شارع عثمان بن عفان،مصر الجديدة،قسم النزهة، Cairo Governorate, Egypt", "lat": 31.3399932, "types": ["cafe", "food", "point_of_interest", "establishment"], "place_id": "ChIJcUh3M_AVWBQRPqi3X1LhphY"}, {"name": "Status.printing.house", "formatted_address": "11 Ismail Rafat, El-Nozha, El Nozha, Cairo Governorate, Egypt", "lat": 31.34090459999999, "types": ["point_of_interest", "store", "establishment"], "place_id": "ChIJIaDUzaUVWBQRcAFgjK9aP1o"}, {"name": "دكتورة مني مختار", "formatted_address": "٣ عبد العظيم عوض الله من شارع الحجاز - الدور الارضى - متفرع من شارع الحجاز 74 EG, Egypt", "lat": 31.3402927, "types": ["doctor", "health", "point_of_interest", "establishment"], "place_id": "ChIJa-xcMBoVWBQREIJB1fTkWB4"}, {"name": "XTouch Egypt", "formatted_address": "El-Nozha, El Nozha, Cairo Governorate, Egypt", "lat": 31.340216, "types": ["point_of_interest", "establishment"], "place_id": "ChIJlUOwmFMVWBQRZ5B7NF0qhnU"}, {"name": "حضانة ماما لولو", "formatted_address": "21 Ismail Rafat, El-Nozha, El Nozha, Cairo Governorate, Egypt", "lat": 31.3400227, "types": ["school", "point_of_interest", "establishment"], "place_id": "ChIJxyuDSvAVWBQRjBSDXlhH07Y"}, {"name": "Dokan daPicture", "formatted_address": "76 Abou Bakr El-Sedeek, Almazah, El Nozha, Cairo Governorate, Egypt", "lat": 31.3402806, "types": ["home_goods_store", "point_of_interest", "store", "establishment"], "place_id": "ChIJ5f9jcPIVWBQRbZCXbz1O4HU"}, {"name": "عيادة د/ إيهاب مكين", "formatted_address": "73 ش عثمان بن عفان الدور ٢ شقة ٦, مصر الجديدة - ميدان سفير, Cairo Governorate 11351, Egypt", "lat": 31.340067, "types": ["doctor", "health", "point_of_interest", "establishment"], "place_id": "ChIJzUuMOu4VWBQRvPvS-tRi3rs"}, {"name": "Nawawy Pharmacies-صيدليات النواوى", "formatted_address": "1 Mostafa Refaat, St, El Nozha, Cairo Governorate, Egypt", "lat": 31.3758497, "types": ["pharmacy", "health", "point_of_interest", "store", "establishment"], "place_id": "ChIJk4j0t2oWWBQRbpUv_ezx_cI"}, {"name": "Cut hair salon", "formatted_address": "103 النزهة، قسم النزهة،، Cairo Governorate, Egypt", "lat": 31.3404974, "types": ["beauty_salon", "point_of_interest", "establishment"], "place_id": "ChIJl3omDJ8VWBQRSmQ6h1e0izM"}, {"name": "HSBC", "formatted_address": "76 Abou Bakr El-Sedeek, Almazah, Heliopolis, Cairo Governorate, Egypt", "lat": 31.3403066, "types": ["bank", "finance", "point_of_interest", "establishment"], "place_id": "ChIJ6Xu-VPAVWBQRMTvmUGCo-T0"}, {"name": "بروتين العائلات", "formatted_address": "75 Othman Ibn Affan, El-Nozha, El Nozha, Cairo Governorate, Egypt", "lat": 31.3400901, "types": ["restaurant", "food", "point_of_interest", "establishment"], "place_id": "ChIJg_NotvEVWBQRzMfDovE3kyI"}, {"name": "تويلف بيج سايز", "formatted_address": "21 إسماعيل رافت، النزهة، قسم النزهة،، Cairo Governorate, Egypt", "lat": 31.3400232, "types": ["shopping_mall", "point_of_interest", "clothing_store", "store", "establishment"], "place_id": "ChIJ__97NfAVWBQR6kKDPKAFvmQ"}, {"name": "AL'IMAGE Pharmacies", "formatted_address": "Safeer, 66 Abou Bakr El-Sedeek, El-Nozha, El Nozha, Cairo Governorate, Egypt", "lat": 31.3395318, "types": ["pharmacy", "health", "point_of_interest", "store", "establishment"], "place_id": "ChIJiy-juvEVWBQRibsW_NwPJFg"}, {"name": "Mini Man", "formatted_address": "Othman Ibn Affan, El-Nozha, El Nozha, Cairo Governorate, Egypt", "lat": 31.33991219999999, "types": ["shopping_mall", "point_of_interest", "establishment"], "place_id": "ChIJKYimzPEVWBQRDBKQnfTjj_8"}, {"name": "Mobile care", "formatted_address": "ميدان سفير القاهرة، 11221, Egypt", "lat": 31.3394071, "types": ["point_of_interest", "establishment"], "place_id": "ChIJ-8lXXDoVWBQRJa-PFG5Xc2U"}, {"name": "Wind Design", "formatted_address": "El-Nozha, El Nozha, Cairo Governorate, Egypt", "lat": 31.3403144, "types": ["home_goods_store", "point_of_interest", "store", "establishment"], "place_id": "ChIJqWtrUfAVWBQRAj2YViVeFv4"}, {"name": "HSBC", "formatted_address": "ش Omar Ibn El-Khattab, El-Nozha, El Nozha, Cairo Governorate, Egypt", "lat": 31.3400902, "types": ["atm", "finance", "point_of_interest", "establishment"], "place_id": "ChIJCQaAVPAVWBQRw3kAsmzadE8"}, {"name": "العالمية للإستيراد و التصدير و الخدمات", "formatted_address": "26 El-Nozha, El Nozha, Cairo Governorate, Egypt", "lat": 31.33999559999999, "types": ["point_of_interest", "establishment"], "place_id": "ChIJsXxuTPAVWBQRH0B96R9Z2OY"}, {"name": "Shoppingooo", "formatted_address": "سفير, رقم 78, Abou Bakr El-Sedeek, El-Nozha, Heliopolis, Cairo Governorate, Egypt", "lat": 31.340393, "types": ["shoe_store", "point_of_interest", "store", "establishment"], "place_id": "ChIJ4yYZY8QVWBQRiPm_V74k8I0"}, {"name": "Kamal Farid", "formatted_address": "75 Othman Ibn Affan, El-Nozha, El Nozha, Cairo Governorate, Egypt", "lat": 31.3400902, "types": ["point_of_interest", "establishment"], "place_id": "ChIJ1Xq3M_AVWBQRkWNd6k1W4-0"}, {"name": "IMTENAN", "formatted_address": "76 Othman Ibn Affan, El-Nozha, El Nozha, Cairo Governorate 11736, Egypt", "lat": 31.3400973, "types": ["point_of_interest", "store", "establishment"], "place_id": "ChIJ0TEkLPAVWBQRewMA7ztfixY"}, {"name": "د. شريف حنفى حسين", "formatted_address": "77 Othman Ibn Affan, El-Nozha, El Nozha, Cairo Governorate, Egypt", "lat": 31.3401169, "types": ["doctor", "health", "point_of_interest", "establishment"], "place_id": "ChIJzUuMOu4VWBQRJR19yOroCZU"}, {"name": "Ganet El Maraah", "formatted_address": "94 القصر العيني، El-Nozha, El Nozha, Cairo Governorate, Egypt", "lat": 31.3402466, "types": ["clothing_store", "point_of_interest", "store", "establishment"], "place_id": "ChIJob8tMvAVWBQRnHp_yDmdtZk"}, {"name": "Abu Gihad Bakery", "formatted_address": "75 Othman Ibn Affan, El-Nozha, El Nozha, Cairo Governorate, Egypt", "lat": 31.3402303, "types": ["bakery", "food", "point_of_interest", "store", "establishment"], "place_id": "ChIJ1ZfLM_AVWBQRl9Ppx79RtMM"}, {"name": "La Bouchee, bakery and dairy product", "formatted_address": "67 Othman Ibn Affan, Al Matar, El Nozha, Cairo Governorate, Egypt", "lat": 31.3397804, "types": ["bakery", "food", "point_of_interest", "store", "establishment"], "place_id": "ChIJT2W2WswVWBQRJSJVU0P-_cc"}, {"name": "New Born", "formatted_address": "77 Othman Ibn Affan St.، El-Nozha, Heliopolis, Cairo Governorate, Egypt", "lat": 31.3403691, "types": ["point_of_interest", "clothing_store", "store", "establishment"], "place_id": "ChIJzUuMOu4VWBQRoD3aenscLyY"}, {"name": "Swissra", "formatted_address": "81 Othman Ibn Affan, El-Nozha, El Nozha, Cairo Governorate, Egypt", "lat": 31.3403436, "types": ["grocery_or_supermarket", "food", "point_of_interest", "store", "establishment"], "place_id": "ChIJVfHXMfAVWBQRMbue_WSE4EY"}, {"name": "Walker", "formatted_address": "77 Othman Ibn Affan, El-Nozha, El Nozha, Cairo Governorate, Egypt", "lat": 31.3404313, "types": ["clothing_store", "point_of_interest", "store", "establishment"], "place_id": "ChIJvRR6-5QVWBQRRpCAks43reY"}, {"name": "Bon Voyage", "formatted_address": "16 Adly, Al Fawalah, Abdeen, Cairo Governorate, Egypt", "lat": 31.244439, "types": ["tourist_attraction", "point_of_interest", "establishment"], "place_id": "ChIJJZ3TEL5AWBQRc-PhG_sO-S0"}, {"name": "Nawawy Pharmacies:: صيدليات النواوى", "formatted_address": "At Taseah, Nasr City, Cairo Governorate, Egypt", "lat": 31.3796446, "types": ["pharmacy", "health", "point_of_interest", "store", "establishment"], "place_id": "ChIJgyIzlNU9WBQRXwbx7Mw48lA"}, {"name": "Misr El Dawleya", "formatted_address": "96 ش محمد فريد، وسط البلد، Abdeen, Cairo Governorate, Egypt", "lat": 31.2442814, "types": ["point_of_interest", "establishment"], "place_id": "ChIJYaZ29JVAWBQRfDHDvqzkKAg"}, {"name": "الهيئة العامة للرعاية الصحية", "formatted_address": "El Forsan Towers 1, El-Nasr Rd, Masaken Al Mohandesin, Nasr City, Cairo Governorate, Egypt", "lat": 31.353359, "types": ["point_of_interest", "establishment"], "place_id": "ChIJ09ogvQg_WBQRO_O_SDar214"}, {"name": "Lloyd's Register Egypt LLC", "formatted_address": "Omar Ibn El-Khattab, Masaken Al Mohandesin, Nasr City, Cairo Governorate, Egypt", "lat": 31.348783, "types": ["point_of_interest", "establishment"], "place_id": "ChIJQxtU-Qs-WBQRnHmEhmV8pYs"}, {"name": "New Society Service Association", "formatted_address": "18 Adly St.، DOWNTOWN، Abdeen, Cairo Governorate, Egypt", "lat": 31.2438927, "types": ["point_of_interest", "establishment"], "place_id": "ChIJtZcaApZAWBQRXp74iGF8f3E"}, {"name": "El Nawawy Pharmacies", "formatted_address": "182شبرا مصر امام شركه اتصالات وي بجوار كريب، دور، Cairo Governorate, Egypt", "lat": 31.2449922, "types": ["pharmacy", "health", "point_of_interest", "store", "establishment"], "place_id": "ChIJ_Sab9jtBWBQR7UEhtl9hNOg"}, {"name": "Enviro Egypt", "formatted_address": "34 ش عدلى، وسط البلد، Abdeen, Cairo Governorate, Egypt", "lat": 31.2438927, "types": ["point_of_interest", "establishment"], "place_id": "ChIJtZcaApZAWBQR8B1wlb7EUNU"}, {"name": "cairo house hotel", "formatted_address": "20 Adly, Al Fawalah, Abdeen, Cairo Governorate 11511, Egypt", "lat": 31.2437258, "types": ["lodging", "point_of_interest", "establishment"], "place_id": "ChIJV4QCP75AWBQRJH77IiDQSTk"}, {"name": "Lloyd's Register - EMEA", "formatted_address": "10 ش الرياض، بور توفيق، Heliopolis, Suez Governorate, Egypt", "lat": 31.3298211, "types": ["point_of_interest", "establishment"], "place_id": "ChIJZ2_bF40VWBQR6UTs-FDtm1c"}, {"name": "Cooper For Aluminum", "formatted_address": "54 ش محمد فريد، Al Fawalah, Abdeen, Cairo Governorate, Egypt", "lat": 31.2442814, "types": ["point_of_interest", "establishment"], "place_id": "ChIJYaZ29JVAWBQRAE2cOU0iLTg"}, {"name": "Al Azhar University Darrasah Campus", "formatted_address": "15 Mohammed Abdou, El-Darb El-Ahmar, Cairo Governorate, Egypt", "lat": 31.2640348, "types": ["university", "point_of_interest", "establishment"], "place_id": "ChIJ-RDbv18_WBQRQygRltk-o18"}, {"name": "Sha'ar Hashamayim Synagogue", "formatted_address": "18 شارع عدلي، الفوالة، عابدين، محافظة القاهرة‬،، Egypt", "lat": 31.2436791, "types": ["synagogue", "place_of_worship", "point_of_interest", "establishment"], "place_id": "ChIJDVLmR6hBWBQR6vKEPq4Bl6M"}]