[{"name": "Ittihadia Palace", "formatted_address": "Al Nadi، El-Montaza, Heliopolis, Cairo Governorate, Egypt", "lat": 31.3193929, "types": ["tourist_attraction", "premise", "point_of_interest", "establishment"], "place_id": "ChIJuftqUS8-WBQRtM7fDk0QcPk"}, {"name": "Baron Empain Palace", "formatted_address": "El-Orouba, El-Montaza, Heliopolis, Cairo Governorate 11757, Egypt", "lat": 31.3303332, "types": ["point_of_interest", "establishment"], "place_id": "ChIJ1_GM8iE-WBQRLNVi-RT7vDA"}, {"name": "Bon Voyage", "formatted_address": "16 Adly, Al Fawalah, Abdeen, Cairo Governorate, Egypt", "lat": 31.244439, "types": ["tourist_attraction", "point_of_interest", "establishment"], "place_id": "ChIJJZ3TEL5AWBQRc-PhG_sO-S0"}, {"name": "El Suesy", "formatted_address": "21 ش دمنهور، El-Bostan, Heliopolis, Cairo Governorate, Egypt", "lat": 31.3295194, "types": ["point_of_interest", "establishment"], "place_id": "ChIJSTPMlowVWBQR6HxzRBMokfA"}, {"name": "Our Lady of Heliopolis Co-Cathedral", "formatted_address": "Nazih Khalifa crossroad، Al Ahram, Heliopolis, Cairo Governorate, Egypt", "lat": 31.3251828, "types": ["church", "place_of_worship", "point_of_interest", "establishment"], "place_id": "ChIJJdgh-okVWBQR5TqTmKuQ0IM"}, {"name": "مسجد الرحمه", "formatted_address": "18 Damanhour, El-Bostan, Heliopolis, Cairo Governorate, Egypt", "lat": 31.32892, "types": ["mosque", "place_of_worship", "point_of_interest", "establishment"], "place_id": "ChIJSUrTWiIVWBQRqZD7are0Eqc"}, {"name": "Damanhour", "formatted_address": "21 Damanhour, El-Bostan, Heliopolis, Cairo Governorate, Egypt", "lat": 31.328703, "types": ["hardware_store", "point_of_interest", "store", "establishment"], "place_id": "ChIJSTPMlowVWBQR6M_NMIcK6eI"}, {"name": "El Mansour", "formatted_address": "Al Bustan, Heliopolis, Cairo Governorate, Egypt", "lat": 31.3280457, "types": ["point_of_interest", "establishment"], "place_id": "ChIJT5dWeYwVWBQRKKIbvfQugdQ"}, {"name": "Eman Yehia Zaki", "formatted_address": "Al Bustan, Heliopolis, Cairo Governorate, Egypt", "lat": 31.3287218, "types": ["point_of_interest", "establishment"], "place_id": "ChIJp9pYiYwVWBQR9bAKOIN2Ne4"}, {"name": "المصطفى للاخشاب", "formatted_address": "21 شارع دمنهور، البستان، قسم مصر الجديدة،، Cairo Governorate, Egypt", "lat": 31.328719, "types": ["point_of_interest", "store", "establishment"], "place_id": "ChIJdy9pT7UVWBQRsvcC3Ntx6Nc"}, {"name": "Reda", "formatted_address": "Al Bustan, Heliopolis, Cairo Governorate, Egypt", "lat": 31.3282275, "types": ["point_of_interest", "establishment"], "place_id": "ChIJZTQrX4wVWBQRD7VmrCk5e7U"}, {"name": "حزب الحرية المصري - امانة مصر الجديدة", "formatted_address": "20 شارع دمنهور، البستان، مصر الجديدة،،, Damanhour, El-Bostan, Heliopolis, Cairo Governorate, Egypt", "lat": 31.3286569, "types": ["point_of_interest", "establishment"], "place_id": "ChIJ-XMa7L4VWBQRCIxFOwewmnE"}, {"name": "العزازي للطباعة", "formatted_address": "20 Damanhour, El-Bostan, Heliopolis, Cairo Governorate, Egypt", "lat": 31.3294301, "types": ["point_of_interest", "establishment"], "place_id": "ChIJN7vok4wVWBQRWDTYod0D160"}, {"name": "Original light", "formatted_address": "20 Damanhour, El-Bostan, Heliopolis, Cairo Governorate, Egypt", "lat": 31.3294701, "types": ["shopping_mall", "point_of_interest", "establishment"], "place_id": "ChIJ5U7TlowVWBQRqMPZLok2_5I"}, {"name": "قسم شرطة مصر الجديدة", "formatted_address": "6 Damanhour, El-Bostan, Heliopolis, Cairo Governorate, Egypt", "lat": 31.3287634, "types": ["police", "point_of_interest", "establishment"], "place_id": "ChIJV3XkYA4VWBQRhg0_J_4Vr3w"}, {"name": "قصر النيل للديكور", "formatted_address": "18 Damanhour, ميدان الجامع, Heliopolis, Cairo Governorate, Egypt", "lat": 31.329378, "types": ["point_of_interest", "store", "establishment"], "place_id": "ChIJR6QUlIwVWBQR-GyEp8H0fn8"}, {"name": "فول الشيخ", "formatted_address": "20-19 شارع دمنهور، البستان، قسم مصر الجديدة،، Cairo Governorate, Egypt", "lat": 31.3293919, "types": ["restaurant", "food", "point_of_interest", "establishment"], "place_id": "ChIJM48urSoVWBQRC9qUfBQrgOo"}, {"name": "كايرو جلاس", "formatted_address": "20 Damanhour, El-Bostan, Heliopolis, Cairo Governorate, Egypt", "lat": 31.329499, "types": ["point_of_interest", "establishment"], "place_id": "ChIJAenRC5MVWBQRHGzzcXNYVf4"}, {"name": "El Loualoaa Showroom", "formatted_address": "18th Damanhour, El-Bostan, Heliopolis, Cairo Governorate, Egypt", "lat": 31.3295029, "types": ["point_of_interest", "establishment"], "place_id": "ChIJTaubi4wVWBQRIH98ez4lWDE"}, {"name": "شركة هيلثي واتر لتكنولوجيا المياه ..مهندس اشرف العجيل", "formatted_address": "11 شارع دمنهور، البستان، قسم مصر الجديدة،، Cairo Governorate, Egypt", "lat": 31.3287992, "types": ["point_of_interest", "establishment"], "place_id": "ChIJnz7lmIYVWBQRCLYKoYjoiKk"}, {"name": "قصر النيل للديكور", "formatted_address": "18 Damanhour, El-Bostan, Heliopolis, Cairo Governorate, Egypt", "lat": 31.329237, "types": ["general_contractor", "point_of_interest", "establishment"], "place_id": "ChIJe5hMzRUVWBQRvsp94pRX8nY"}, {"name": "Sipes - El Mohamadeya Center", "formatted_address": "18 Damanhour, El-Bostan, Heliopolis, Cairo Governorate, Egypt", "lat": 31.329218, "types": ["home_goods_store", "point_of_interest", "store", "establishment"], "place_id": "ChIJSTPMlowVWBQRnUEoXk0ZFio"}, {"name": "Lailaty", "formatted_address": "Al، Damanhour, El-Bostan, Heliopolis, Cairo Governorate, Egypt", "lat": 31.3277463, "types": ["restaurant", "food", "point_of_interest", "establishment"], "place_id": "ChIJ5bxfW4wVWBQRr3mYQWM97dE"}, {"name": "سلطان", "formatted_address": "15 Damanhour, El-Bostan, Heliopolis, Cairo Governorate, Egypt", "lat": 31.3296654, "types": ["furniture_store", "home_goods_store", "point_of_interest", "store", "establishment"], "place_id": "ChIJBSjklowVWBQR8KvcHHg__dg"}, {"name": "Maadi Island", "formatted_address": "Dar Al Salam, Giza Governorate, Egypt", "lat": 31.239237, "types": ["restaurant", "tourist_attraction", "park", "food", "point_of_interest", "establishment"], "place_id": "ChIJwY7d5MFHWBQRl1nMXlW_tUY"}, {"name": "Saber", "formatted_address": "18 Damanhour, El-Bostan, Heliopolis, Cairo Governorate, Egypt", "lat": 31.329635, "types": ["point_of_interest", "establishment"], "place_id": "ChIJAcL8lIwVWBQRG7oAX9vi-Q8"}, {"name": "Labor Bureau - Heliopolis", "formatted_address": "3 Haroun El-Rashid, El-Bostan, Heliopolis, Cairo Governorate, Egypt", "lat": 31.32925089999999, "types": ["point_of_interest", "establishment"], "place_id": "ChIJMbYPyfIVWBQRwRHg80Z7Y64"}, {"name": "نوح للعدد اليدوية Noah tool store", "formatted_address": "21 Damanhour, El-Bostan, Heliopolis, Cairo Governorate, Egypt", "lat": 31.328719, "types": ["point_of_interest", "store", "establishment"], "place_id": "ChIJofJhelsVWBQR_m62HKwGNj0"}, {"name": "Tyser hotel", "formatted_address": "شارع دمنهور، البستان، مصر الجديدة،، Cairo Governorate, Egypt", "lat": 31.3295029, "types": ["lodging", "point_of_interest", "establishment"], "place_id": "ChIJMb70ryEVWBQRqyPwlPCBc-M"}, {"name": "ميمى للادوات الصحية", "formatted_address": "21 Damanhour, El-Bostan, Heliopolis, Cairo Governorate, Egypt", "lat": 31.328722, "types": ["point_of_interest", "store", "establishment"], "place_id": "ChIJvx98ZC0VWBQRnnSeYS3Xic4"}, {"name": "Morgan For Hardware & Paints", "formatted_address": "19 Damanhour, El-Bostan, Heliopolis, Cairo Governorate, Egypt", "lat": 31.329212, "types": ["hardware_store", "home_goods_store", "point_of_interest", "store", "establishment"], "place_id": "ChIJSTPMlowVWBQRkr5tuJ0OhXg"}, {"name": "St. Mark Coptic Orthodox Church Cleopatra", "formatted_address": "35 كيلوباترا، الماظة، قسم مصر الجديدة،، Cairo Governorate, Egypt", "lat": 31.3296246, "types": ["church", "place_of_worship", "point_of_interest", "establishment"], "place_id": "ChIJH3kNmooVWBQRfL4z5mf-KXU"}, {"name": "Heliopolis Police Dpt. قسم شرطة مصر الجديدة", "formatted_address": "Mansoura, El-Bostan, Heliopolis, Cairo Governorate, Egypt", "lat": 31.328273, "types": ["police", "point_of_interest", "establishment"], "place_id": "ChIJ4x5afowVWBQRQSp0jsrUPyk"}, {"name": "امام عثمان الرملى", "formatted_address": "Al Bustan, Heliopolis, Cairo Governorate, Egypt", "lat": 31.327937, "types": ["point_of_interest", "establishment"], "place_id": "ChIJXwA5eowVWBQR3YmtrPVzaXY"}, {"name": "شركه الكمال للدهانات", "formatted_address": "Damanhour, El-Bostan, Heliopolis, Cairo Governorate, Egypt", "lat": 31.3289047, "types": ["home_goods_store", "point_of_interest", "store", "establishment"], "place_id": "ChIJPWPPm0IVWBQRnoIpF-t5gcQ"}, {"name": "Cairo glass", "formatted_address": "El-Bostan, Heliopolis, Cairo Governorate, Egypt", "lat": 31.3286117, "types": ["home_goods_store", "point_of_interest", "store", "establishment"], "place_id": "ChIJw4oghcIVWBQRhowHOAQpN_o"}, {"name": "Mohammed Khaled law office/ مكتب الاستاذ محمد خالد المحامي", "formatted_address": "2nd Abo Qir street, Heliopolis, Cairo Governorate, Egypt", "lat": 31.3287944, "types": ["lawyer", "point_of_interest", "establishment"], "place_id": "ChIJg61bJPkVWBQR1DJ0XVTsUvE"}, {"name": "Radwan", "formatted_address": "18 Damanhour, El-Bostan, Heliopolis, Cairo Governorate, Egypt", "lat": 31.329635, "types": ["hair_care", "health", "point_of_interest", "establishment"], "place_id": "ChIJ5_QdlYwVWBQRMJ94cN1FbCI"}, {"name": "Radisson Blu Hotel, Cairo Heliopolis", "formatted_address": "Abdel Hamid Badawi St Heliopolis, Cairo Governorate 11787, Egypt", "lat": 31.3753121, "types": ["lodging", "point_of_interest", "establishment"], "place_id": "ChIJQZJ8fWUWWBQRAUPO9I6SxPg"}, {"name": "Porto Heliopolis", "formatted_address": "Almazah, Heliopolis, Cairo Governorate, Egypt", "lat": 31.348709, "types": ["lodging", "point_of_interest", "establishment"], "place_id": "ChIJR5FCXgE-WBQR471eyuZuvGw"}, {"name": "TiE HOUSE", "formatted_address": "Merryland Park, 26 El Hegaz St, El-Bostan, Heliopolis, Cairo Governorate, Egypt", "lat": 31.3231775, "types": ["shoe_store", "point_of_interest", "clothing_store", "store", "establishment"], "place_id": "ChIJi86qod5GWBQRcozRUEuCJp0"}, {"name": "سوبر ماركة الرملى", "formatted_address": "محمود منصور، Damanhour, El-Bostan, Heliopolis, Cairo Governorate, Egypt", "lat": 31.3295029, "types": ["supermarket", "grocery_or_supermarket", "food", "point_of_interest", "store", "establishment"], "place_id": "ChIJHY68KFAVWBQRy7ozWLOaC3E"}, {"name": "مجدى العطار", "formatted_address": "18 Damanhour, El-Bostan, Heliopolis, Cairo Governorate, Egypt", "lat": 31.329635, "types": ["food", "point_of_interest", "store", "establishment"], "place_id": "ChIJ_zYilYwVWBQR4D2TqHa4n5g"}, {"name": "Heliopolis Towers Hotel", "formatted_address": "El Shaheed Sayed Zakaria, Sheraton Al Matar, El Nozha, Cairo Governorate 11736, Egypt", "lat": 31.3661798, "types": ["lodging", "point_of_interest", "establishment"], "place_id": "ChIJZ9p3820WWBQRmZh2M_MSzOQ"}, {"name": "El Masry For Hardware & Paints", "formatted_address": "18 ش دمنهور، El-Bostan, Heliopolis, Cairo Governorate, Egypt", "lat": 31.3295194, "types": ["home_goods_store", "point_of_interest", "store", "establishment"], "place_id": "ChIJSTPMlowVWBQRw7BzujC9DKo"}, {"name": "مركز محمد ممدوح", "formatted_address": "Al Bustan, Heliopolis, Cairo Governorate, Egypt", "lat": 31.3288977, "types": ["home_goods_store", "point_of_interest", "store", "establishment"], "place_id": "ChIJazS2jIwVWBQRAqFr8ikTJkE"}, {"name": "Lasting Exhibitation for Producer Families", "formatted_address": "18 Damanhour, El-Bostan, Heliopolis, Cairo Governorate, Egypt", "lat": 31.3287248, "types": ["point_of_interest", "establishment"], "place_id": "ChIJpQxb94wVWBQR8qtgmihgAPk"}, {"name": "El Tawheid", "formatted_address": "Al Bustan, Heliopolis, Cairo Governorate, Egypt", "lat": 31.3282061, "types": ["electronics_store", "point_of_interest", "store", "establishment"], "place_id": "ChIJxQmtfowVWBQRo55zluLHvZM"}, {"name": "Baron Hotel Heliopolis", "formatted_address": "14 Al Baroon, El-Montaza, Heliopolis, Cairo Governorate, Egypt", "lat": 31.3314609, "types": ["lodging", "point_of_interest", "establishment"], "place_id": "ChIJUbVOACI-WBQRWsi5B7gYfxs"}, {"name": "Jotun Multicolor Centre - MOHAMED MAMDOUH FOR PAINTS", "formatted_address": "Damanhour, El-Bostan, Heliopolis, Cairo Governorate, Egypt", "lat": 31.3295029, "types": ["home_goods_store", "point_of_interest", "store", "establishment"], "place_id": "ChIJ70OjSB8VWBQRbAJQ1kMGb2A"}, {"name": "Citystars Heliopolis", "formatted_address": "Citystars, Cairo Governorate 11771, Egypt", "lat": 31.3458082, "types": ["shopping_mall", "point_of_interest", "establishment"], "place_id": "ChIJo0ecE_gVWBQRGGrouhZFdME"}, {"name": "Gony", "formatted_address": "18 Damanhour, El-Bostan, Heliopolis, Cairo Governorate, Egypt", "lat": 31.3298934, "types": ["jewelry_store", "point_of_interest", "store", "establishment"], "place_id": "ChIJx7KelYwVWBQR24-iNDKGaws"}, {"name": "صالون عبدالعزيز [ على و مصطفى ]", "formatted_address": "8 سكة الروضة، البستان، قسم مصر الجديدة،، Cairo Governorate, Egypt", "lat": 31.3282268, "types": ["hair_care", "point_of_interest", "establishment"], "place_id": "ChIJsfudpSwVWBQRDS9Gl5VDVTc"}, {"name": "Il Pennello Ceramic Café & Restaurant", "formatted_address": "Omar Ibn El-Khattab, El-Bostan, Heliopolis, Cairo Governorate, Egypt", "lat": 31.33329, "types": ["cafe", "restaurant", "food", "point_of_interest", "establishment"], "place_id": "ChIJA9aGkfIVWBQR6C-ilXdzmvM"}, {"name": "The Great Pyramid of Giza", "formatted_address": "Al Haram, Nazlet El-Semman, Al Giza Desert, Giza Governorate, Egypt", "lat": 31.1342019, "types": ["tourist_attraction", "premise", "point_of_interest", "establishment"], "place_id": "ChIJGymPrIdFWBQRJCSloj8vDIE"}, {"name": "Daoud Sayed", "formatted_address": "Al Bustan, Heliopolis, Cairo Governorate, Egypt", "lat": 31.328719, "types": ["health", "point_of_interest", "establishment"], "place_id": "ChIJEc3A9IwVWBQRqme6IU2STQI"}, {"name": "Negmet Heliopolis", "formatted_address": "5 ش الرملة متفرع من اسماعيل رمزى, Al Gamea Sq., Heliopolis, Cairo Governorate, Egypt", "lat": 31.3288131, "types": ["supermarket", "grocery_or_supermarket", "food", "point_of_interest", "store", "establishment"], "place_id": "ChIJ4fyiDosVWBQR_9nQVlRtOVQ"}, {"name": "Al Reda", "formatted_address": "Al Bustan, Heliopolis, Cairo Governorate, Egypt", "lat": 31.3299031, "types": ["hardware_store", "home_goods_store", "point_of_interest", "store", "establishment"], "place_id": "ChIJ0Z64lYwVWBQRuDtv3i5LUHM"}, {"name": "جزارة النصر", "formatted_address": "El-Bostan, Heliopolis, Cairo Governorate, Egypt", "lat": 31.3286547, "types": ["grocery_or_supermarket", "food", "point_of_interest", "store", "establishment"], "place_id": "ChIJjax2zBwVWBQRrEVU6AcmRZw"}, {"name": "Khattab Paper Point", "formatted_address": "4 ش صلاح الدين، Almazah, Heliopolis, Cairo Governorate, Egypt", "lat": 31.3341, "types": ["point_of_interest", "establishment"], "place_id": "ChIJx9lCdfUVWBQRkBpdq15VFcs"}]