[{"name": "Ittihadia Palace", "formatted_address": "Al Nadi، El-Montaza, Heliopolis, Cairo Governorate, Egypt", "lat": 31.3193929, "types": ["tourist_attraction", "premise", "point_of_interest", "establishment"], "place_id": "ChIJuftqUS8-WBQRtM7fDk0QcPk"}, {"name": "Baron Empain Palace", "formatted_address": "El-Orouba, El-Montaza, Heliopolis, Cairo Governorate 11757, Egypt", "lat": 31.3303332, "types": ["point_of_interest", "establishment"], "place_id": "ChIJ1_GM8iE-WBQRLNVi-RT7vDA"}, {"name": "Hala El Lathy", "formatted_address": "Al Bustan, Heliopolis, Cairo Governorate, Egypt", "lat": 31.3308526, "types": ["point_of_interest", "establishment"], "place_id": "ChIJ2TZnSY0VWBQRAQGta1zq0zA"}, {"name": "Bon Voyage", "formatted_address": "16 Adly, Al Fawalah, Abdeen, Cairo Governorate, Egypt", "lat": 31.244439, "types": ["tourist_attraction", "point_of_interest", "establishment"], "place_id": "ChIJJZ3TEL5AWBQRc-PhG_sO-S0"}, {"name": "Our Lady of Heliopolis Co-Cathedral", "formatted_address": "Nazih Khalifa crossroad، Al Ahram, Heliopolis, Cairo Governorate, Egypt", "lat": 31.3251828, "types": ["church", "place_of_worship", "point_of_interest", "establishment"], "place_id": "ChIJJdgh-okVWBQR5TqTmKuQ0IM"}, {"name": "El Bostan", "formatted_address": "Al Bustan, Heliopolis, Cairo Governorate, Egypt", "lat": 31.3308302, "types": ["point_of_interest", "establishment"], "place_id": "ChIJp4AiLo0VWBQRV9hMD5eKzR0"}, {"name": "El Ekhwa", "formatted_address": "29 Damanhour, El-Bostan, Heliopolis, Cairo Governorate, Egypt", "lat": 31.3310425, "types": ["point_of_interest", "establishment"], "place_id": "ChIJj_XaS40VWBQRpyTZlViXwtw"}, {"name": "Flora Market co.", "formatted_address": "ميدان المحكمة، مصر الجديدة، القاهرة، Cairo Governorate, Egypt", "lat": 31.329389, "types": ["point_of_interest", "establishment"], "place_id": "ChIJ732RZY0VWBQRvtCm7c_v7gQ"}, {"name": "El Amal", "formatted_address": "Al Bustan, Heliopolis, Cairo Governorate, Egypt", "lat": 31.3312922, "types": ["point_of_interest", "establishment"], "place_id": "ChIJj6RUtfIVWBQRU0moj6r3cCo"}, {"name": "Shrek El Hayah", "formatted_address": "37 ش هارون الرشيد، El-Bostan, Heliopolis, Cairo Governorate, Egypt", "lat": 31.3317705, "types": ["point_of_interest", "establishment"], "place_id": "ChIJ_QWWbhIVWBQRP0h-BDc1YO4"}, {"name": "مسجد النور", "formatted_address": "Sohag, El-Bostan, Heliopolis, Cairo Governorate, Egypt", "lat": 31.3313626, "types": ["mosque", "place_of_worship", "point_of_interest", "establishment"], "place_id": "ChIJwexAy_IVWBQRjYuWEg46kpM"}, {"name": "El Almaneya Co.", "formatted_address": "30 off haroun el rashid st.، El-Bostan, Heliopolis, Cairo Governorate, Egypt", "lat": 31.3317705, "types": ["point_of_interest", "establishment"], "place_id": "ChIJSTPMlowVWBQRMfWgtZAmV8c"}, {"name": "Shafiq Ahmed & Co.", "formatted_address": "20 ش هارون الرشيد، El-Bostan, Heliopolis, Cairo Governorate, Egypt", "lat": 31.3317705, "types": ["point_of_interest", "establishment"], "place_id": "ChIJMbYPyfIVWBQRPtb5K2cYQqk"}, {"name": "Mostafa Habib", "formatted_address": "46 off haroun el rashid st.، El-Bostan, Heliopolis, Cairo Governorate, Egypt", "lat": 31.3317705, "types": ["point_of_interest", "establishment"], "place_id": "ChIJNQgnOY0VWBQRHK9Csg6EtzI"}, {"name": "Balcon Heliopolis", "formatted_address": "26 Sohag, El-Bostan, Heliopolis, Cairo Governorate, Egypt", "lat": 31.3324821, "types": ["point_of_interest", "establishment"], "place_id": "ChIJVQnP3PIVWBQR-BFcoaXdkc0"}, {"name": "Yeheya Zakarey", "formatted_address": "54 Haroun El-Rashid, El-Bostan, Heliopolis, Cairo Governorate, Egypt", "lat": 31.3315786, "types": ["point_of_interest", "establishment"], "place_id": "ChIJdwPHzfIVWBQRQaZc4YEhJI4"}, {"name": "Threads World", "formatted_address": "50 Haroun El Rashid St.، El-Bostan, Heliopolis, Cairo Governorate, Egypt", "lat": 31.331832, "types": ["point_of_interest", "establishment"], "place_id": "ChIJMbYPyfIVWBQR1metGCkqKBU"}, {"name": "Bonne Nuit", "formatted_address": "60 ش هارون الرشيد، El-Bostan, Heliopolis, Cairo Governorate, Egypt", "lat": 31.3318914, "types": ["point_of_interest", "establishment"], "place_id": "ChIJEcPER-wVWBQRh4eeVgZ8Kjc"}, {"name": "Roma Jewelry", "formatted_address": "12 Haroun El Rashid St.، El-Bostan, Heliopolis, Cairo Governorate, Egypt", "lat": 31.3317705, "types": ["point_of_interest", "establishment"], "place_id": "ChIJ_QWWbhIVWBQRL1M0A0eIoZY"}, {"name": "مسجد النور", "formatted_address": "Al Akaba, El-Bostan, Heliopolis, Cairo Governorate, Egypt", "lat": 31.33123, "types": ["mosque", "place_of_worship", "point_of_interest", "establishment"], "place_id": "ChIJr0o4M40VWBQRRl16_T5TW7g"}, {"name": "Nice Shadow", "formatted_address": "5 El Aqaba St.، El-Bostan, Heliopolis, Cairo Governorate, Egypt", "lat": 31.3309531, "types": ["point_of_interest", "establishment"], "place_id": "ChIJ81otMY0VWBQRbWry8b0zAMU"}, {"name": "Sohag Governorate", "formatted_address": "مدينة ناصر، حى شرق، سوهاج، Cairo Governorate, Egypt", "lat": 31.2916856, "types": ["point_of_interest", "establishment"], "place_id": "ChIJdeV0Mcc_WBQRo0dctSjcFZc"}, {"name": "El Masria For Computers & Trading - Compu Hard", "formatted_address": "50 Haroun El Rashid St.، El-Bostan, Heliopolis, Cairo Governorate, Egypt", "lat": 31.331832, "types": ["point_of_interest", "establishment"], "place_id": "ChIJMbYPyfIVWBQRn0BbKotStbk"}, {"name": "Sadeq Silver", "formatted_address": "4 haroun el rashid st.، El-Bostan, Heliopolis, Cairo Governorate, Egypt", "lat": 31.3317705, "types": ["point_of_interest", "establishment"], "place_id": "ChIJ_QWWbhIVWBQR1Uwte9huXew"}, {"name": "دكتور مصطفى شوقى", "formatted_address": "شارع سوهاج مصر الجديدة - قسم مصر الجديدة بجوار مدرسة نوتردام، Egypt", "lat": 31.3329762, "types": ["health", "point_of_interest", "establishment"], "place_id": "ChIJ2y0i5vIVWBQRu_WoUUGdLZc"}, {"name": "El Qoswaa Optics", "formatted_address": "17 متفرع من ش هارون الرشيد، El-Bostan, Heliopolis, Cairo Governorate, Egypt", "lat": 31.3317705, "types": ["point_of_interest", "establishment"], "place_id": "ChIJ_QWWbhIVWBQR5x6kVCicoMc"}, {"name": "دكتور رينالدو يوسف", "formatted_address": "١٢ شارع سوهاج - هارون الرشيد - الدور الثاني - متفرع من هارون الرشيد EG, Egypt", "lat": 31.330914, "types": ["doctor", "health", "point_of_interest", "establishment"], "place_id": "ChIJG9BdvBEVWBQRrnA25-fv0Cc"}, {"name": "Post Office - West Heliopolis", "formatted_address": "El-Nozha, El Nozha, Cairo Governorate, Egypt", "lat": 31.33018539999999, "types": ["post_office", "finance", "point_of_interest", "establishment"], "place_id": "ChIJ-1tRxpIVWBQR8pyCMmqAgXM"}, {"name": "Karas Market", "formatted_address": "11 Sohag, El-Bostan, Heliopolis, Cairo Governorate, Egypt", "lat": 31.33079159999999, "types": ["grocery_or_supermarket", "food", "point_of_interest", "store", "establishment"], "place_id": "ChIJD7nRSY0VWBQRTw_Y6YqUWDU"}, {"name": "سوق سوهاج", "formatted_address": "40 ش هارون الرشيد، El-Bostan, Heliopolis, Cairo Governorate, Egypt", "lat": 31.3314705, "types": ["food", "point_of_interest", "store", "establishment"], "place_id": "ChIJ_QWWbhIVWBQR6WZMg-tOVcs"}, {"name": "سنتر محمد ممدوح للديكور", "formatted_address": "Haroun El-Rashid, El-Bostan, Heliopolis, Cairo Governorate, Egypt", "lat": 31.3322477, "types": ["point_of_interest", "store", "establishment"], "place_id": "ChIJJYkTufIVWBQREx3cUdPswgA"}, {"name": "الملوك", "formatted_address": "50 haroun el rashid st.، El-Bostan, Heliopolis, Cairo Governorate, Egypt", "lat": 31.331601, "types": ["jewelry_store", "point_of_interest", "store", "establishment"], "place_id": "ChIJMbYPyfIVWBQR-GGMci1utjY"}, {"name": "Porto Heliopolis", "formatted_address": "Almazah, Heliopolis, Cairo Governorate, Egypt", "lat": 31.348709, "types": ["lodging", "point_of_interest", "establishment"], "place_id": "ChIJR5FCXgE-WBQR471eyuZuvGw"}, {"name": "Heliopolis Family Court", "formatted_address": "58 El Hegaz St, El-Nozha, Heliopolis, Cairo Governorate, Egypt", "lat": 31.3297672, "types": ["courthouse", "local_government_office", "point_of_interest", "establishment"], "place_id": "ChIJNxzB6pIVWBQRQx6kT15XA74"}, {"name": "Saint Mary Church - Ard El-Golf", "formatted_address": "Shams Al Din Al Zahabi, Al Golf, Nasr City, Cairo Governorate, Egypt", "lat": 31.33328239999999, "types": ["church", "place_of_worship", "point_of_interest", "establishment"], "place_id": "ChIJz961RBg-WBQR2HK25harflQ"}, {"name": "Yabalash", "formatted_address": "Al Bustan, Heliopolis, Cairo Governorate, Egypt", "lat": 31.3319159, "types": ["book_store", "point_of_interest", "store", "establishment"], "place_id": "ChIJxRJDyPIVWBQRv9I9CPuTuXk"}, {"name": "المركز العالمى للاضاءة والادوات الكهربائية‎", "formatted_address": "65, شارع Haroun El-Rashid, El-Bostan, Heliopolis, Cairo Governorate, Egypt", "lat": 31.331845, "types": ["home_goods_store", "point_of_interest", "store", "establishment"], "place_id": "ChIJjZHcx_IVWBQRhCmWTqtfwmw"}, {"name": "Islamic Library", "formatted_address": "12 Haroun El Rashid St.، El-Bostan, Heliopolis, Cairo Governorate, Egypt", "lat": 31.3317705, "types": ["library", "point_of_interest", "establishment"], "place_id": "ChIJMbYPyfIVWBQRtWBiU8venBY"}, {"name": "Notre Dame Des Apotres School Heliopolis", "formatted_address": "Al Matar, El Nozha, Cairo Governorate, Egypt", "lat": 31.3327399, "types": ["point_of_interest", "establishment"], "place_id": "ChIJ3cu1H_MVWBQR3Jd2ZO2_XgE"}, {"name": "Labor Bureau - Heliopolis", "formatted_address": "3 Haroun El-Rashid, El-Bostan, Heliopolis, Cairo Governorate, Egypt", "lat": 31.32925089999999, "types": ["point_of_interest", "establishment"], "place_id": "ChIJMbYPyfIVWBQRwRHg80Z7Y64"}, {"name": "International Travel Center & Construction Co.", "formatted_address": "79 Haroun El Rashid st.، El-Bostan, Heliopolis, Cairo Governorate, Egypt", "lat": 31.3317705, "types": ["point_of_interest", "establishment"], "place_id": "ChIJ_QWWbhIVWBQRLiyESAqAYvw"}, {"name": "El Walid Tires", "formatted_address": "43 Haroun El-Rashid, El-Bostan, Heliopolis, Cairo Governorate, Egypt", "lat": 31.33191549999999, "types": ["point_of_interest", "establishment"], "place_id": "ChIJ_QWWbhIVWBQRF9dXPrKeB0o"}, {"name": "مودرن", "formatted_address": "Sohag, El-Bostan, Heliopolis, Cairo Governorate, Egypt", "lat": 31.3314813, "types": ["home_goods_store", "point_of_interest", "store", "establishment"], "place_id": "ChIJH5uey_IVWBQRb4B4uoGixgc"}, {"name": "Golden Tiba", "formatted_address": "50 شارع هارون الرشيد، ميدان الجامع،، Heliopolis, Cairo Governorate, Egypt", "lat": 31.3318135, "types": ["general_contractor", "point_of_interest", "establishment"], "place_id": "ChIJNQg1tvIVWBQR1Q5dXKlOdhE"}, {"name": "شارع هارون مصر الجديدة - Haroun Street Heliopolis", "formatted_address": "43-45 Abou Bakr El-Sedeek, El-Bostan, Heliopolis, Cairo Governorate, Egypt", "lat": 31.3322984, "types": ["shopping_mall", "point_of_interest", "establishment"], "place_id": "ChIJf4zEpvIVWBQRSSrLyqFS-NI"}, {"name": "Abd el fata", "formatted_address": "17 Sohag, El-Bostan, Heliopolis, Cairo Governorate, Egypt", "lat": 31.3313635, "types": ["home_goods_store", "point_of_interest", "store", "establishment"], "place_id": "ChIJ53eia1kVWBQRnPNLLUKA53o"}, {"name": "Ahmed Hassen Nada", "formatted_address": "Al Bustan, Heliopolis, Cairo Governorate, Egypt", "lat": 31.3310648, "types": ["finance", "point_of_interest", "establishment"], "place_id": "ChIJpdObNY0VWBQRbJY5E7CRvr8"}, {"name": "عيادة ا.د. صلاح حمادة", "formatted_address": "30 Sohag, El-Bostan, Heliopolis, Cairo Governorate, Egypt", "lat": 31.3329056, "types": ["health", "point_of_interest", "establishment"], "place_id": "ChIJ363_5vIVWBQR9ZGDyx4bESY"}, {"name": "مصوغات ماجد ميلاد", "formatted_address": "18 سوهاج - تقاطع هارون الرشيد - الدور الأرضي - أمام صيدلية شادي EG, Egypt", "lat": 31.3316976, "types": ["jewelry_store", "point_of_interest", "store", "establishment"], "place_id": "ChIJIaKNTsUVWBQR5B70AALJqbw"}, {"name": "دكتور / جابر الشربينى", "formatted_address": "امام مدرسه راهبات نوتردام, ٣٢ ش سوهاج متفرع من هارون الرشيد, Al Gamea Sq., Egypt", "lat": 31.3317624, "types": ["health", "point_of_interest", "establishment"], "place_id": "ChIJQdIsb3cVWBQRlBRg-cUxHYI"}, {"name": "ماجد ميلاد العدوي", "formatted_address": "Haroun El-Rashid, El-Bostan, Heliopolis, Cairo Governorate, Egypt", "lat": 31.3316673, "types": ["jewelry_store", "point_of_interest", "store", "establishment"], "place_id": "ChIJp9WIyfIVWBQRfzTvHAOcIKE"}, {"name": "El Adawy Jewelry", "formatted_address": "40 Haroun El-Rashid, El-Bostan, Heliopolis, Cairo Governorate, Egypt", "lat": 31.33191549999999, "types": ["store", "point_of_interest", "establishment"], "place_id": "ChIJ_QWWbhIVWBQRgLoDHCsZppI"}, {"name": "Ahmed Abdel Aziz Hafez", "formatted_address": "12 Sohag, El-Bostan, Heliopolis, Cairo Governorate, Egypt", "lat": 31.3310425, "types": ["store", "point_of_interest", "establishment"], "place_id": "ChIJZ-NhSY0VWBQRz_LgsU01zFQ"}, {"name": "الناغى", "formatted_address": "أبو بكر الصديق، مصر الجديدة،، Heliopolis, Cairo Governorate, Egypt", "lat": 31.3311936, "types": ["car_repair", "point_of_interest", "store", "establishment"], "place_id": "ChIJQxUWM40VWBQR8bngPH_vgVs"}, {"name": "البدراوى للملابس", "formatted_address": "28 Haroun El-Rashid, El-Bostan, Heliopolis, Cairo Governorate, Egypt", "lat": 31.3316653, "types": ["clothing_store", "point_of_interest", "store", "establishment"], "place_id": "ChIJrUkRyfIVWBQRd9vOPkwrpbY"}, {"name": "Adel Nabeih", "formatted_address": "27 ش هارون الرشيد، El-Bostan, Heliopolis, Cairo Governorate, Egypt", "lat": 31.3317705, "types": ["doctor", "health", "point_of_interest", "establishment"], "place_id": "ChIJMbYPyfIVWBQRDWgLifHsn_Q"}, {"name": "Baron Hotel Heliopolis", "formatted_address": "14 Al Baroon, El-Montaza, Heliopolis, Cairo Governorate, Egypt", "lat": 31.3314609, "types": ["lodging", "point_of_interest", "establishment"], "place_id": "ChIJUbVOACI-WBQRWsi5B7gYfxs"}, {"name": "نور للاضاءة الحديثة", "formatted_address": "63 Haroun El-Rashid, El-Bostan, Heliopolis, Cairo Governorate, Egypt", "lat": 31.331677, "types": ["home_goods_store", "point_of_interest", "store", "establishment"], "place_id": "ChIJvRZqOacVWBQReYW1rwFWjRE"}, {"name": "شركة سانشي فرع مصر الجديدة", "formatted_address": "هارون الرشيد، البستان، قسم مصر الجديدة،، Heliopolis, Cairo Governorate, Egypt", "lat": 31.3315409, "types": ["point_of_interest", "store", "establishment"], "place_id": "ChIJMVNJjXoVWBQRKY59G0LYHUc"}, {"name": "Nabil Sabry", "formatted_address": "83 Haroun El-Rashid, El-Bostan, Heliopolis, Cairo Governorate, Egypt", "lat": 31.331601, "types": ["jewelry_store", "point_of_interest", "store", "establishment"], "place_id": "ChIJWaayy_IVWBQRgxKBMYcfvlY"}]