[{"name": "Ittihadia Palace", "formatted_address": "Al Nadi، El-Montaza, Heliopolis, Cairo Governorate, Egypt", "lat": 30.0888643, "lng": 31.3193929, "types": ["tourist_attraction", "premise", "point_of_interest", "establishment"], "place_id": "ChIJuftqUS8-WBQRtM7fDk0QcPk"}, {"name": "Our Lady of Heliopolis Co-Cathedral", "formatted_address": "Nazih Khalifa crossroad، Al Ahram, Heliopolis, Cairo Governorate, Egypt", "lat": 30.0935707, "lng": 31.3251828, "types": ["church", "place_of_worship", "point_of_interest", "establishment"], "place_id": "ChIJJdgh-okVWBQR5TqTmKuQ0IM"}, {"name": "El Korba Square - الكوربة مصر الجديدة", "formatted_address": "7 Abo Al Houl ST., Korba Square, المنتزه، قسم مصر الجديدة، محافظة القاهرة‬،, المنتزه، قسم مصر الجديدة، محافظة, القاهرة‬،, Egypt", "lat": 30.0910293, "lng": 31.324302, "types": ["point_of_interest", "establishment"], "place_id": "ChIJUduKY5k_WBQRwgxGmYZDrhU"}, {"name": "Baron Empain Palace", "formatted_address": "El-Orouba, El-Montaza, Heliopolis, Cairo Governorate 11757, Egypt", "lat": 30.0866701, "lng": 31.3303332, "types": ["point_of_interest", "establishment"], "place_id": "ChIJ1_GM8iE-WBQRLNVi-RT7vDA"}, {"name": "Tabarak Fish", "formatted_address": "15 شارع الصومال، الكوربة،، Heliopolis, Cairo Governorate 11757, Egypt", "lat": 30.0913205, "lng": 31.3234226, "types": ["restaurant", "food", "point_of_interest", "establishment"], "place_id": "ChIJMYqgWiY-WBQRniJRYj2HPmM"}, {"name": "El Dawleya Cars", "formatted_address": "61 Farid Semeika St.، Al Matar, Heliopolis, Cairo Governorate, Egypt", "lat": 30.112639, "lng": 31.344487, "types": ["point_of_interest", "establishment"], "place_id": "ChIJAeBmGKEVWBQRQZIutCFDKuU"}, {"name": "مريم عتمان", "formatted_address": "مصر الجديدة، المطار، قسم النزهة،، Cairo Governorate, Egypt", "lat": 30.112315, "lng": 31.3438507, "types": ["point_of_interest", "establishment"], "place_id": "ChIJgxrFUogVWBQRS1UPh4qIBp0"}, {"name": "Lont Group", "formatted_address": "4A Kamal EL Shafie، Ismailia Square، Heliopolis, Cairo Governorate, Egypt", "lat": 30.112315, "lng": 31.3438507, "types": ["travel_agency", "point_of_interest", "establishment"], "place_id": "ChIJ2_pLw4Q_WBQR5wCWEEgCfSw"}, {"name": "Zazy Collection", "formatted_address": "111 ش فريد سميكة، Al Matar, El Nozha, Cairo Governorate, Egypt", "lat": 30.1122619, "lng": 31.345483, "types": ["point_of_interest", "establishment"], "place_id": "ChIJ3wzJitwVWBQR3wtC0gMctEE"}, {"name": "Media Rack", "formatted_address": "15 Abdel Azim Awadallah St.، Al Matar, Heliopolis, Cairo Governorate, Egypt", "lat": 30.112068, "lng": 31.342883, "types": ["point_of_interest", "establishment"], "place_id": "ChIJFbMI09wVWBQRc68dm8ldfsc"}, {"name": "حجز فنادق مصر الجديدة", "formatted_address": "مصر الجديدة، Cairo Governorate, Egypt", "lat": 30.112315, "lng": 31.3438507, "types": ["travel_agency", "point_of_interest", "establishment"], "place_id": "ChIJI1h83OMVWBQRtdlkKJjuHuw"}, {"name": "Disruptive Management Solutions - DMS", "formatted_address": "Military College, 03 General Abdulaziz Ali St, Al Matar, El Nozha, Cairo Governorate, Egypt", "lat": 30.112315, "lng": 31.3438507, "types": ["point_of_interest", "establishment"], "place_id": "ChIJxbKCrkoVWBQRRg1tITQb_BQ"}, {"name": "Golden Park Hotel", "formatted_address": "شارع الحجاز ، مصر الجديده، 221 شارع الحجاز ، هيليوبوليس ،، El Nozha, Cairo Governorate, Egypt", "lat": 30.1153686, "lng": 31.3525102, "types": ["lodging", "point_of_interest", "establishment"], "place_id": "ChIJsQQdRNgVWBQRss6fVxNFk_8"}, {"name": "Bromo Motors", "formatted_address": "160 ميدان الحجاز، Al Matar, El Nozha, Cairo Governorate, Egypt", "lat": 30.1120211, "lng": 31.34491539999999, "types": ["point_of_interest", "establishment"], "place_id": "ChIJQSuK8dwVWBQRTcpR4vGXlyw"}, {"name": "كيميت توريدات معدات مطارات ومقاولات", "formatted_address": "16 محمد غنيم، Al Matar, El Nozha, Cairo Governorate, Egypt", "lat": 30.11251459999999, "lng": 31.342972, "types": ["point_of_interest", "establishment"], "place_id": "ChIJVVXlqyQ-WBQRnCPy1bxzWSs"}, {"name": "El Dawleya For Contracting & Real Estate Investment", "formatted_address": "10 متفرع من ش فريد سميكة، Al Matar, El Nozha, Cairo Governorate, Egypt", "lat": 30.1122619, "lng": 31.345483, "types": ["point_of_interest", "establishment"], "place_id": "ChIJxb7NmcQVWBQRrHWB2iy156w"}, {"name": "Radisson Blu Hotel, Cairo Heliopolis", "formatted_address": "Abdel Hamid Badawi St Heliopolis, Cairo Governorate 11787, Egypt", "lat": 30.1065093, "lng": 31.3753121, "types": ["lodging", "point_of_interest", "establishment"], "place_id": "ChIJQZJ8fWUWWBQRAUPO9I6SxPg"}, {"name": "هيلتون هيليوبلس", "formatted_address": "Al Matar, El Nozha, Cairo Governorate, Egypt", "lat": 30.112315, "lng": 31.3438507, "types": ["lodging", "point_of_interest", "establishment"], "place_id": "ChIJocT4HcUVWBQRgIk90yuylWM"}, {"name": "Mar Guirguis church", "formatted_address": "Al Matar, El Nozha, Cairo Governorate, Egypt", "lat": 30.112315, "lng": 31.3438507, "types": ["church", "place_of_worship", "point_of_interest", "establishment"], "place_id": "ChIJo7ZMU40VWBQRyM0cS-gcbeM"}, {"name": "Maadi Island", "formatted_address": "Dar Al Salam, Giza Governorate, Egypt", "lat": 29.965527, "lng": 31.239237, "types": ["restaurant", "tourist_attraction", "park", "food", "point_of_interest", "establishment"], "place_id": "ChIJwY7d5MFHWBQRl1nMXlW_tUY"}]