[{"name": "Ittihadia Palace", "formatted_address": "Al Nadi، El-Montaza, Heliopolis, Cairo Governorate, Egypt", "lat": 31.3193929, "types": ["tourist_attraction", "premise", "point_of_interest", "establishment"], "place_id": "ChIJuftqUS8-WBQRtM7fDk0QcPk"}, {"name": "Bon Voyage", "formatted_address": "16 Adly, Al Fawalah, Abdeen, Cairo Governorate, Egypt", "lat": 31.244439, "types": ["tourist_attraction", "point_of_interest", "establishment"], "place_id": "ChIJJZ3TEL5AWBQRc-PhG_sO-S0"}, {"name": "Banque du Caire", "formatted_address": "53 Ali El-Rouby, El-Montaza, Heliopolis, Cairo Governorate, Egypt", "lat": 31.3156693, "types": ["bank", "finance", "point_of_interest", "establishment"], "place_id": "ChIJr-NIcyk-WBQR_xIqlkQiFBo"}, {"name": "Baron Empain Palace", "formatted_address": "El-Orouba, El-Montaza, Heliopolis, Cairo Governorate 11757, Egypt", "lat": 31.3303332, "types": ["point_of_interest", "establishment"], "place_id": "ChIJ1_GM8iE-WBQRLNVi-RT7vDA"}, {"name": "Topuz", "formatted_address": "Al Montazah, Heliopolis, Cairo Governorate, Egypt", "lat": 31.31578249999999, "types": ["point_of_interest", "establishment"], "place_id": "ChIJFXzDNyk-WBQRpDh12RCd-8U"}, {"name": "El Abhar", "formatted_address": "Al Montazah, Heliopolis, Cairo Governorate, Egypt", "lat": 31.3156197, "types": ["point_of_interest", "establishment"], "place_id": "ChIJUTzuNyk-WBQR0S_9yxhuAh4"}, {"name": "Belak Tiger", "formatted_address": "Al Montazah, Heliopolis, Cairo Governorate, Egypt", "lat": 31.3147988, "types": ["point_of_interest", "establishment"], "place_id": "ChIJZSi4XCk-WBQRRIf4YcXBEEA"}, {"name": "Our Lady of Heliopolis Co-Cathedral", "formatted_address": "Nazih Khalifa crossroad، Al Ahram, Heliopolis, Cairo Governorate, Egypt", "lat": 31.3251828, "types": ["church", "place_of_worship", "point_of_interest", "establishment"], "place_id": "ChIJJdgh-okVWBQR5TqTmKuQ0IM"}, {"name": "Misr El Gadida For Building & Tourism Development", "formatted_address": "4 Aly El Rouby st.، El-Montaza, Heliopolis, Cairo Governorate, Egypt", "lat": 31.3153682, "types": ["point_of_interest", "establishment"], "place_id": "ChIJr6J6QCk-WBQR-GGbFtWNJLo"}, {"name": "Omega Co. For Engineering & Trading", "formatted_address": "3 Aly El Rouby St.، El-Montaza, Heliopolis, Cairo Governorate, Egypt", "lat": 31.3157, "types": ["point_of_interest", "establishment"], "place_id": "ChIJpbxPOCk-WBQRFqZy2io5hr8"}, {"name": "El Asmaele", "formatted_address": "Al Montazah, Heliopolis, Cairo Governorate, Egypt", "lat": 31.314873, "types": ["point_of_interest", "establishment"], "place_id": "ChIJS3-6XCk-WBQRXjcisCV8rqQ"}, {"name": "kettan egypt", "formatted_address": "4 Ali El-Rouby, El-Montaza, Heliopolis, Cairo Governorate, Egypt", "lat": 31.3152686, "types": ["local_government_office", "point_of_interest", "establishment"], "place_id": "ChIJK91UyI8_WBQRxxENlBJnfWY"}, {"name": "Baby Land", "formatted_address": "55 Ali El-Rouby, El-Montaza, Heliopolis, Cairo Governorate, Egypt", "lat": 31.3156022, "types": ["point_of_interest", "clothing_store", "store", "establishment"], "place_id": "ChIJS1KsDCk-WBQRdu_GzXmjuwU"}, {"name": "Mohamed Reda Law Firm - مكتب محمد رضا المحامي بالنقض", "formatted_address": "8 علي الروبي ميدان روكسي قسم مصر الجديدة, 11864, Egypt", "lat": 31.3152463, "types": ["point_of_interest", "establishment"], "place_id": "ChIJWxuybCk-WBQRU71T5vX4DD0"}, {"name": "Scib Chemical", "formatted_address": "10 Ali El-Rouby, El-Montaza, Heliopolis, Cairo Governorate, Egypt", "lat": 31.3152463, "types": ["point_of_interest", "establishment"], "place_id": "ChIJdXuqbSk-WBQRi_0LiA-CYkI"}, {"name": "Morshedy official", "formatted_address": "53 علي الروبي، المنتزه، قسم مصر الجديدة، محافظة القاهرة‬،، Egypt", "lat": 31.3152677, "types": ["shopping_mall", "point_of_interest", "establishment"], "place_id": "ChIJu_xN_tY_WBQR7bwFe26Bqss"}, {"name": "CPS", "formatted_address": "3 Ali El Rouby St.، El-Montaza, Heliopolis, Cairo Governorate, Egypt", "lat": 31.3154858, "types": ["point_of_interest", "establishment"], "place_id": "ChIJr6J6QCk-WBQRu_Pf6K50u_s"}, {"name": "Sakr Home", "formatted_address": "Ali El-Rouby, El-Montaza, Heliopolis, Cairo Governorate, Egypt", "lat": 31.3155503, "types": ["point_of_interest", "establishment"], "place_id": "ChIJXU4e-AQ_WBQRFFwXwmXH5GE"}, {"name": "دكتور عمرو جودة شفيق", "formatted_address": "4 Ali El-Rouby, El-Montaza, Heliopolis, Cairo Governorate, Egypt", "lat": 31.3153665, "types": ["doctor", "health", "point_of_interest", "establishment"], "place_id": "ChIJQXqMaik-WBQRLlJ5_sf8kdo"}, {"name": "Dr. Khaled El Husseiny", "formatted_address": "Al Montazah, Heliopolis, Cairo Governorate, Egypt", "lat": 31.3154043, "types": ["health", "point_of_interest", "establishment"], "place_id": "ChIJ0fmFaik-WBQRgCj3nVCv9K8"}, {"name": "دكتور محمد قابيل", "formatted_address": "Ali El-Rouby, Al Montazah, Heliopolis, Cairo Governorate, Egypt", "lat": 31.3153759, "types": ["doctor", "health", "point_of_interest", "establishment"], "place_id": "ChIJ9QKMaik-WBQRqdpo2t4AJdc"}, {"name": "Laser Technology Co.", "formatted_address": "3 Ali El-Rouby, st, Heliopolis, Cairo Governorate, Egypt", "lat": 31.3157219, "types": ["art_gallery", "point_of_interest", "establishment"], "place_id": "ChIJFSeUY8Y_WBQRbjoCveoAwIQ"}, {"name": "Jothen Clinic - Roxy", "formatted_address": "55 Ali El-Rouby, El-Montaza, Heliopolis, Cairo Governorate, Egypt", "lat": 31.3156528, "types": ["beauty_salon", "hair_care", "doctor", "health", "point_of_interest", "establishment"], "place_id": "ChIJ1RKbDCk-WBQRuaG_1PzwtLo"}, {"name": "مسجد عثمان بن عفان", "formatted_address": "Al Selhdar, El-Montaza, Heliopolis, Cairo Governorate, Egypt", "lat": 31.3153735, "types": ["mosque", "place_of_worship", "point_of_interest", "establishment"], "place_id": "ChIJWZIeQSk-WBQR39yiTY7Va1M"}, {"name": "Dr. Ahmed Rashed Mohamed Rashed", "formatted_address": "ش Ali El-Rouby, El-Montaza, Heliopolis, Cairo Governorate, Egypt", "lat": 31.3153639, "types": ["doctor", "health", "point_of_interest", "establishment"], "place_id": "ChIJYcSDaik-WBQRXjbbhpFz_gw"}, {"name": "Roxi square", "formatted_address": "46 El-Khalifa El-Maamoun, El-Montaza, Heliopolis, Cairo Governorate, Egypt", "lat": 31.3154457, "types": ["point_of_interest", "establishment"], "place_id": "ChIJbXzCcSk-WBQR1aMXiBFNNj4"}, {"name": "مكتب كومبليت للملابس الجاهزه", "formatted_address": "10 علي الروبي، المنتزه، قسم مصر الجديدة، محافظة القاهرة‬،، Egypt", "lat": 31.3152563, "types": ["point_of_interest", "clothing_store", "store", "establishment"], "place_id": "ChIJp4F4n5Q_WBQRG20hELh6yZw"}, {"name": "Heliopolis Sporting Club (HSC)", "formatted_address": "17 El-Sayed El-Marghany, Mansheya El-Bakry, Heliopolis, Cairo Governorate, Egypt", "lat": 31.3164398, "types": ["point_of_interest", "establishment"], "place_id": "ChIJB9zy8B4-WBQRz_zRpJte8sA"}, {"name": "مركز د.شاهين للأسنان", "formatted_address": "Ali El-Rouby, El-Montaza, Heliopolis, Cairo Governorate, Egypt", "lat": 31.3153515, "types": ["dentist", "health", "point_of_interest", "establishment"], "place_id": "ChIJAV1_aik-WBQR8F526jDryJY"}, {"name": "المستشار محمد سعد عبدالفتاح بسيونى", "formatted_address": "Al Montazah, Heliopolis, Cairo Governorate, Egypt", "lat": 31.3152686, "types": ["point_of_interest", "establishment"], "place_id": "ChIJHw6Caik-WBQR2bhPAhyfxoU"}, {"name": "Heliolido Club", "formatted_address": "ش Al Maahad Eshtraki, El-Montaza, Heliopolis, Cairo Governorate, Egypt", "lat": 31.314453, "types": ["point_of_interest", "establishment"], "place_id": "ChIJT-7Tk4cVWBQRsVhVdJCc9WM"}, {"name": "Go Heliopolis - Khozam The First Compound In Heliopolis", "formatted_address": "شارع النزهة، مصر الجديدة،، Egypt", "lat": 31.3397646, "types": ["lodging", "point_of_interest", "establishment"], "place_id": "ChIJZ7ZHBKs_WBQRJD3Ntp2Q_ww"}, {"name": "Loranzo", "formatted_address": "55 Ali El-Rouby, El-Montaza, Heliopolis, Cairo Governorate, Egypt", "lat": 31.3156849, "types": ["clothing_store", "point_of_interest", "store", "establishment"], "place_id": "ChIJmRJjDSk-WBQRtBIOeqaQ1Ac"}, {"name": "نيو ستايل", "formatted_address": "8 علي الروبي، المنتزه، قسم مصر الجديدة،، Heliopolis, Egypt", "lat": 31.3152463, "types": ["clothing_store", "point_of_interest", "store", "establishment"], "place_id": "ChIJ3643uiI_WBQR0uG6O_96dRg"}, {"name": "Ex", "formatted_address": "Al Montazah, Heliopolis, Cairo Governorate, Egypt", "lat": 31.3154049, "types": ["point_of_interest", "establishment"], "place_id": "ChIJybeOaik-WBQRPSlEDUi_bJc"}, {"name": "Maadi Island", "formatted_address": "Dar Al Salam, Giza Governorate, Egypt", "lat": 31.239237, "types": ["restaurant", "tourist_attraction", "park", "food", "point_of_interest", "establishment"], "place_id": "ChIJwY7d5MFHWBQRl1nMXlW_tUY"}, {"name": "Korba Posta Office", "formatted_address": "البوسطة، المنتزه، مصر الجديدة،، Cairo Governorate, Egypt", "lat": 31.3216349, "types": ["post_office", "finance", "point_of_interest", "establishment"], "place_id": "ChIJX8nHbSY-WBQRDrUhlxkHb-M"}, {"name": "Whites Dental Clinics - WDC", "formatted_address": "4 Ali El-Rouby, El-Montaza, Heliopolis, Cairo Governorate, Egypt", "lat": 31.3153764, "types": ["dentist", "health", "point_of_interest", "establishment"], "place_id": "ChIJaZkIoa8_WBQRUgaYN2tcdA8"}, {"name": "Lazer Printed T - Shirts", "formatted_address": "elrouby, roxy square, 3 علي باشا، El-Montaza, Heliopolis, Cairo Governorate, Egypt", "lat": 31.31569009999999, "types": ["point_of_interest", "clothing_store", "store", "establishment"], "place_id": "ChIJ38TuNyk-WBQR26unJ2DfK4A"}, {"name": "Banque Du Caire", "formatted_address": "10 Ibrahim Al Lakani, El-Montaza, Heliopolis, Cairo Governorate, Egypt", "lat": 31.3186703, "types": ["bank", "finance", "point_of_interest", "establishment"], "place_id": "ChIJp-gDECY-WBQRXKwdNUh0O-A"}, {"name": "Heliopolis Branch", "formatted_address": "17 Al Maahad Eshtraki, El-Montaza, Heliopolis, Cairo Governorate, Egypt", "lat": 31.3198715, "types": ["bank", "finance", "point_of_interest", "establishment"], "place_id": "ChIJc6xhYogVWBQR3_OlRb2RY-I"}, {"name": "Costa Coffee", "formatted_address": "Al Montazah, Heliopolis, Cairo Governorate, Egypt", "lat": 31.3156662, "types": ["cafe", "food", "point_of_interest", "store", "establishment"], "place_id": "ChIJqcrdNSk-WBQR4Gav5oAMKXM"}, {"name": "Heliopolis Branch", "formatted_address": "El-Khalifa El-Maamoun, El-Montaza, Heliopolis, Cairo Governorate, Egypt", "lat": 31.3147862, "types": ["atm", "finance", "point_of_interest", "establishment"], "place_id": "ChIJ7-U2ZSk-WBQRwOCVOfBZhac"}, {"name": "جيم بويز game boys", "formatted_address": "رقم ١١ شارع السيد الميرغي ، روكسي ، مصر الجديده ، امام كوستا كافيه Cairo القاهرة، 11311, Egypt", "lat": 31.3148148, "types": ["point_of_interest", "establishment"], "place_id": "ChIJlbJxVFs_WBQRrtAWFIaUmX8"}, {"name": "Coffeeshop Company", "formatted_address": "شارع السيد المرغني،مصر الجديدة،قسم قسم، Cairo Governorate, Egypt", "lat": 31.31514929999999, "types": ["cafe", "food", "point_of_interest", "store", "establishment"], "place_id": "ChIJ0YvOSik-WBQRP_yI63Q3jXk"}, {"name": "Bronto", "formatted_address": "Al Montazah, Heliopolis, Cairo Governorate, Egypt", "lat": 31.3156874, "types": ["point_of_interest", "establishment"], "place_id": "ChIJbSPpNyk-WBQRwpttRyMDWKw"}, {"name": "Porto Heliopolis", "formatted_address": "Almazah, Heliopolis, Cairo Governorate, Egypt", "lat": 31.348709, "types": ["lodging", "point_of_interest", "establishment"], "place_id": "ChIJR5FCXgE-WBQR471eyuZuvGw"}, {"name": "صوت الفن", "formatted_address": "16 Adly, Bab Al Louq, Abdeen, Cairo Governorate, Egypt", "lat": 31.244439, "types": ["point_of_interest", "establishment"], "place_id": "ChIJ__8vEb5AWBQRqaCYbvGsNWU"}, {"name": "The Great Pyramid of Giza", "formatted_address": "Al Haram, Nazlet El-Semman, Al Giza Desert, Giza Governorate, Egypt", "lat": 31.1342019, "types": ["tourist_attraction", "premise", "point_of_interest", "establishment"], "place_id": "ChIJGymPrIdFWBQRJCSloj8vDIE"}, {"name": "مكتب بريد هليوبوليس", "formatted_address": "Al Bostah, El-Montaza, Heliopolis, Cairo Governorate, Egypt", "lat": 31.32145289999999, "types": ["post_office", "finance", "point_of_interest", "establishment"], "place_id": "ChIJUxT4bCY-WBQReH-iJrJAbDM"}, {"name": "ELROUBY CLINIC - الروبي كلينيك لجراحات التجميل", "formatted_address": "107 El Hegaz St, El-Nozha, El Nozha, Cairo Governorate 11351, Egypt", "lat": 31.33437, "types": ["beauty_salon", "hair_care", "doctor", "health", "point_of_interest", "establishment"], "place_id": "ChIJXePxfuwVWBQR5czQKAVdUxI"}, {"name": "Al Wadi Restaurant", "formatted_address": "Al Montazah, Heliopolis, Cairo Governorate, Egypt", "lat": 31.3153722, "types": ["restaurant", "food", "point_of_interest", "establishment"], "place_id": "ChIJozyEaik-WBQRCEiHhbFCrzg"}, {"name": "Mobnil", "formatted_address": "Al Montazah, Heliopolis, Cairo Governorate, Egypt", "lat": 31.3159836, "types": ["point_of_interest", "establishment"], "place_id": "ChIJZxHtESk-WBQR7phK2SErYMk"}, {"name": "St Michael's Church الكنيسة الأسقفية بالكوربة", "formatted_address": "Baghdad St, El-Montaza, Heliopolis, Cairo Governorate, Egypt", "lat": 31.3229984, "types": ["church", "place_of_worship", "point_of_interest", "establishment"], "place_id": "ChIJfaLreiY-WBQRlouIfsEe-o8"}, {"name": "بازار روكسى", "formatted_address": "Al Montazah, Heliopolis, Cairo Governorate, Egypt", "lat": 31.3162294, "types": ["home_goods_store", "point_of_interest", "store", "establishment"], "place_id": "ChIJeeeFCCk-WBQR1SRXYDC_6Ms"}, {"name": "Baron Hotel Heliopolis", "formatted_address": "14 Al Baroon, El-Montaza, Heliopolis, Cairo Governorate, Egypt", "lat": 31.3314609, "types": ["lodging", "point_of_interest", "establishment"], "place_id": "ChIJUbVOACI-WBQRWsi5B7gYfxs"}, {"name": "عيادة الدكتور محمد الروبي للتجميل و زراعة الشعر و الليزر", "formatted_address": "El Hegaz St, El-Nozha, El Nozha, Cairo Governorate 11351, Egypt", "lat": 31.3336263, "types": ["doctor", "health", "point_of_interest", "establishment"], "place_id": "ChIJV1sCnzYVWBQRZWeW-kaTb_s"}, {"name": "Mohamad Bsheer", "formatted_address": "Al Montazah, Heliopolis, Cairo Governorate, Egypt", "lat": 31.3152686, "types": ["health", "point_of_interest", "establishment"], "place_id": "ChIJj0iPaik-WBQRAJ1ISQNouTk"}, {"name": "Radisson Blu Hotel, Cairo Heliopolis", "formatted_address": "Abdel Hamid Badawi St Heliopolis, Cairo Governorate 11787, Egypt", "lat": 31.3753121, "types": ["lodging", "point_of_interest", "establishment"], "place_id": "ChIJQZJ8fWUWWBQRAUPO9I6SxPg"}, {"name": "مركز القاهرة للعمود الفقري", "formatted_address": "El-Sayed El-Merghany, El-Montaza, Cairo القاهرة، Cairo Governorate, Egypt", "lat": 31.3153511, "types": ["doctor", "health", "point_of_interest", "establishment"], "place_id": "ChIJ6Yo0QCk-WBQRnD9Pqa7yZR4"}]