[{"name": "Masreya", "formatted_address": "138 El Hegaz St, El-Bostan, Heliopolis, Cairo Governorate, Egypt", "lat": 31.3267752, "types": ["point_of_interest", "establishment"], "place_id": "ChIJUZSGCpIVWBQRTgHtrw5lz_c"}, {"name": "Diadora", "formatted_address": "138 El Hegaz St, Al Matar, El Nozha, Cairo Governorate, Egypt", "lat": 31.3444724, "types": ["bicycle_store", "point_of_interest", "store", "establishment"], "place_id": "ChIJ___b4dwVWBQRELFuKq4fnOA"}, {"name": "د. محمد مغازى محجوب", "formatted_address": "138 El Hegaz St, Al Matar, Heliopolis, Cairo Governorate, Egypt", "lat": 31.344264, "types": ["health", "point_of_interest", "establishment"], "place_id": "ChIJ367h6esVWBQRfQrUlzQwrSs"}, {"name": "Meramar", "formatted_address": "138 El Hegaz St, El-Bostan, Heliopolis, Cairo Governorate, Egypt", "lat": 31.32570279999999, "types": ["book_store", "point_of_interest", "store", "establishment"], "place_id": "ChIJ6ZQD4Y0VWBQR2xEuPS22fT4"}, {"name": "El Ghounimi Center", "formatted_address": "138 El Hegaz St, El-Bostan, Heliopolis, Cairo Governorate, Egypt", "lat": 31.3270433, "types": ["point_of_interest", "establishment"], "place_id": "ChIJTd-fc5IVWBQRdIV9jghyJ8U"}, {"name": "Abd El Aziz Seif", "formatted_address": "138 El Hegaz St, El-Bostan, Heliopolis, Cairo Governorate, Egypt", "lat": 31.3270433, "types": ["point_of_interest", "establishment"], "place_id": "ChIJVc9wc5IVWBQRhHGfrWth3b0"}, {"name": "Café Marshillo", "formatted_address": "138 شارع الحجاز، البستان، قسم مصر الجديدة، محافظة القاهرة‬،، Egypt", "lat": 31.3265814, "types": ["restaurant", "food", "point_of_interest", "establishment"], "place_id": "ChIJAYjQpaQVWBQR39VumjozWkM"}, {"name": "Anwar", "formatted_address": "138 El Hegaz St, El-Bostan, Heliopolis, Cairo Governorate, Egypt", "lat": 31.3267752, "types": ["point_of_interest", "establishment"], "place_id": "ChIJNSSOCpIVWBQRxALpvcLQIPg"}, {"name": "Cairo Lab", "formatted_address": "138 El-Nozha, El Nozha, Cairo Governorate, Egypt", "lat": 31.3429496, "types": ["health", "point_of_interest", "establishment"], "place_id": "ChIJX6-CGxIVWBQRUDdkjhF036o"}, {"name": "Samer Abd Elazez Atya", "formatted_address": "138 El Hegaz St, El-Bostan, Heliopolis, Cairo Governorate, Egypt", "lat": 31.3270433, "types": ["point_of_interest", "establishment"], "place_id": "ChIJe62YdJIVWBQR39GU9cp3y7Q"}, {"name": "Radisson Blu Hotel, Cairo Heliopolis", "formatted_address": "Abdel Hamid Badawi St Heliopolis, Cairo Governorate 11787, Egypt", "lat": 31.3753121, "types": ["lodging", "point_of_interest", "establishment"], "place_id": "ChIJQZJ8fWUWWBQRAUPO9I6SxPg"}, {"name": "Dawi Clinics Hegaz Heliopolis", "formatted_address": "138 El Hegaz St, El-Bostan, Heliopolis, Cairo Governorate, Egypt", "lat": 31.3265276, "types": ["health", "point_of_interest", "establishment"], "place_id": "ChIJsRMsbk8VWBQR9mtDlZjkKN0"}, {"name": "138 Nile Street", "formatted_address": "Oula, Giza District, Giza Governorate, Egypt", "lat": 31.2182966, "types": ["restaurant", "food", "point_of_interest", "establishment"], "place_id": "ChIJl7Hv03VHWBQRH_-4ic7V-08"}, {"name": "Falkon", "formatted_address": "138 El Hegaz St, El-Bostan, Heliopolis, Cairo Governorate, Egypt", "lat": 31.3270433, "types": ["post_office", "finance", "point_of_interest", "establishment"], "place_id": "ChIJgQljc5IVWBQR6gTRHZELjaU"}, {"name": "Get Together Arabic", "formatted_address": "138 El-Mansour Mohammed, Al Gabalayah, Zamalek, Giza Governorate, Egypt", "lat": 31.2176293, "types": ["point_of_interest", "establishment"], "place_id": "ChIJVVVxzeFAWBQRggbLY4jTctw"}, {"name": "كا فلوكا", "formatted_address": "138 Nile St, Ad Doqi A, قسم العمرانية، Giza Governorate, Egypt", "lat": 31.2181327, "types": ["point_of_interest", "establishment"], "place_id": "ChIJm515yNdAWBQRJy5pgmq7PPw"}]