[{"name": "Bon Voyage", "formatted_address": "16 Adly, Al Fawalah, Abdeen, Cairo Governorate, Egypt", "lat": 31.244439, "types": ["tourist_attraction", "point_of_interest", "establishment"], "place_id": "ChIJJZ3TEL5AWBQRc-PhG_sO-S0"}, {"name": "Ittihadia Palace", "formatted_address": "Al Nadi، El-Montaza, Heliopolis, Cairo Governorate, Egypt", "lat": 31.3193929, "types": ["tourist_attraction", "premise", "point_of_interest", "establishment"], "place_id": "ChIJuftqUS8-WBQRtM7fDk0QcPk"}, {"name": "مسجد سليمان أغا السلحدار", "formatted_address": "Haret Beregwan, El-Gamaleya, El Gamaliya, Cairo Governorate, Egypt", "lat": 31.2618766, "types": ["mosque", "tourist_attraction", "place_of_worship", "point_of_interest", "establishment"], "place_id": "ChIJQbWk4p1AWBQRTenwSdcACTk"}, {"name": "Al Motaheda Co. For Water & Fuel Tanks", "formatted_address": "8a 26 July St, Al Fawalah, Abdeen, Cairo Governorate, Egypt", "lat": 31.2452439, "types": ["point_of_interest", "establishment"], "place_id": "ChIJTV9i4pVAWBQR23lh1U3GQuI"}, {"name": "صوت الفن", "formatted_address": "16 Adly, Bab Al Louq, Abdeen, Cairo Governorate, Egypt", "lat": 31.244439, "types": ["point_of_interest", "establishment"], "place_id": "ChIJ__8vEb5AWBQRqaCYbvGsNWU"}, {"name": "El Hoda", "formatted_address": "24 Kasr Al Nile, Al Fawalah, Abdeen, Cairo Governorate, Egypt", "lat": 31.2452942, "types": ["point_of_interest", "establishment"], "place_id": "ChIJFZPhA5ZAWBQRP4koznlYeUU"}, {"name": "Our Lady of Heliopolis Co-Cathedral", "formatted_address": "Nazih Khalifa crossroad، Al Ahram, Heliopolis, Cairo Governorate, Egypt", "lat": 31.3251828, "types": ["church", "place_of_worship", "point_of_interest", "establishment"], "place_id": "ChIJJdgh-okVWBQR5TqTmKuQ0IM"}, {"name": "Moonlight Trade", "formatted_address": "Al Bustan, Heliopolis, Cairo Governorate, Egypt", "lat": 31.32030979999999, "types": ["point_of_interest", "establishment"], "place_id": "ChIJGQYjZI8VWBQRlQwm2LmYWZ4"}, {"name": "New Society Service Association", "formatted_address": "18 Adly St.، DOWNTOWN، Abdeen, Cairo Governorate, Egypt", "lat": 31.2438927, "types": ["point_of_interest", "establishment"], "place_id": "ChIJtZcaApZAWBQRXp74iGF8f3E"}, {"name": "Sha'ar Hashamayim Synagogue", "formatted_address": "18 شارع عدلي، الفوالة، عابدين، محافظة القاهرة‬،، Egypt", "lat": 31.2436791, "types": ["synagogue", "place_of_worship", "point_of_interest", "establishment"], "place_id": "ChIJDVLmR6hBWBQR6vKEPq4Bl6M"}, {"name": "Gold Watch", "formatted_address": "23 Adly St.، DOWNTOWN، Abdeen, Cairo Governorate, Egypt", "lat": 31.2438927, "types": ["point_of_interest", "establishment"], "place_id": "ChIJ410GPb5AWBQRbuArHVt4z0s"}, {"name": "Tlemisr-Home Tools", "formatted_address": "Al Bustan, Heliopolis, Cairo Governorate, Egypt", "lat": 31.3212112, "types": ["point_of_interest", "establishment"], "place_id": "ChIJgwCKmI8VWBQR1de9LEDZTss"}, {"name": "Baron Empain Palace", "formatted_address": "El-Orouba, El-Montaza, Heliopolis, Cairo Governorate 11757, Egypt", "lat": 31.3303332, "types": ["point_of_interest", "establishment"], "place_id": "ChIJ1_GM8iE-WBQRLNVi-RT7vDA"}, {"name": "Islam We Mahmoud", "formatted_address": "Al Bustan, Heliopolis, Cairo Governorate, Egypt", "lat": 31.3203406, "types": ["point_of_interest", "establishment"], "place_id": "ChIJEVHae48VWBQRgJQWlV7VhxQ"}, {"name": "Tourist Information", "formatted_address": "Al Fawalah, Abdeen, Cairo Governorate, Egypt", "lat": 31.2450233, "types": ["travel_agency", "point_of_interest", "establishment"], "place_id": "ChIJ410GPb5AWBQRe549_LKuZ9Y"}, {"name": "Green Way", "formatted_address": "18 Adly St.، DOWNTOWN، Abdeen, Cairo Governorate, Egypt", "lat": 31.2438927, "types": ["travel_agency", "point_of_interest", "establishment"], "place_id": "ChIJtZcaApZAWBQRHiiiwz5STk0"}, {"name": "Moghamarat", "formatted_address": "شارع Galal Al Din Al Desouky, Almazah, Heliopolis, Cairo Governorate, Egypt", "lat": 31.3481234, "types": ["campground", "lodging", "travel_agency", "park", "point_of_interest", "establishment"], "place_id": "ChIJC2VovbY_WBQRByBXM0Ho-tw"}, {"name": "Egyptian Swiss Travel Co.", "formatted_address": "ش Galal Al Din Al Desouky, Almazah, Heliopolis, Cairo Governorate, Egypt", "lat": 31.3481, "types": ["point_of_interest", "establishment"], "place_id": "ChIJHXrXrfgVWBQRx5S8FS7Ob08"}, {"name": "Masrawy Travel Cairo", "formatted_address": "04 Saharig Al Miaah, El-Bostan, Heliopolis, Cairo Governorate, Egypt", "lat": 31.3210468, "types": ["travel_agency", "point_of_interest", "establishment"], "place_id": "ChIJJSAgieUVWBQRqPF-5CtizHU"}, {"name": "Al Horia Clean", "formatted_address": "37 Galal Al Din Al Deswqi, Almazah, Heliopolis, Cairo Governorate, Egypt", "lat": 31.34805679999999, "types": ["point_of_interest", "establishment"], "place_id": "ChIJc7JdyfgVWBQRgQmR43cNeRg"}, {"name": "Granada Printing House", "formatted_address": "35 Galal El Din El Desouky St، Almazah, Heliopolis, Cairo Governorate, Egypt", "lat": 31.348, "types": ["point_of_interest", "establishment"], "place_id": "ChIJKSzosfgVWBQRJM82nB9S5Mw"}, {"name": "Heliopolis Towers Hotel", "formatted_address": "El Shaheed Sayed Zakaria, Sheraton Al Matar, El Nozha, Cairo Governorate 11736, Egypt", "lat": 31.3661798, "types": ["lodging", "point_of_interest", "establishment"], "place_id": "ChIJZ9p3820WWBQRmZh2M_MSzOQ"}, {"name": "Cinema Syndicate", "formatted_address": "20 Adly, Al Fawalah, Abdeen, Cairo Governorate, Egypt", "lat": 31.2438222, "types": ["point_of_interest", "establishment"], "place_id": "ChIJFbiJOb5AWBQR3xOz6WPZnAE"}, {"name": "دوار", "formatted_address": "16 Adly, Al Fawalah, Abdeen, Cairo Governorate, Egypt", "lat": 31.2444909, "types": ["point_of_interest", "establishment"], "place_id": "ChIJRby8EL5AWBQRcZTnGq2qbu4"}, {"name": "Azar hotel", "formatted_address": "9 Adly, Al Fawalah, Abdeen, Cairo Governorate 11211, Egypt", "lat": 31.2451544, "types": ["lodging", "point_of_interest", "establishment"], "place_id": "ChIJJcU4A75AWBQRV-dT4O6jKJI"}, {"name": "Pensione Roma", "formatted_address": "169 Mohammed Farid, Al Fawalah, Abdeen, Cairo Governorate, Egypt", "lat": 31.2445612, "types": ["lodging", "point_of_interest", "establishment"], "place_id": "ChIJYaZ29JVAWBQRbhDqrKO2si8"}, {"name": "Milano Hostel", "formatted_address": "16 Adly, Al Fawalah, Abdeen, Cairo Governorate, Egypt", "lat": 31.244482, "types": ["lodging", "point_of_interest", "establishment"], "place_id": "ChIJIeX9Pb5AWBQRVecz770yGr8"}, {"name": "Elomara", "formatted_address": "Al Bustan, Heliopolis, Cairo Governorate, Egypt", "lat": 31.3195731, "types": ["mosque", "place_of_worship", "point_of_interest", "establishment"], "place_id": "ChIJU7g9f4UVWBQRRwDpG61Z39Q"}, {"name": "Alexander", "formatted_address": "165 Mohammed Farid, St, Abdeen, Cairo Governorate 11111, Egypt", "lat": 31.2444644, "types": ["lodging", "point_of_interest", "establishment"], "place_id": "ChIJi-trFL5AWBQR613uzPmX5DE"}, {"name": "شركة مياه الشرب بالقاهرة الكبرى", "formatted_address": "29 شارع الجلاء، الجيارة، الأزبكية،، Egypt", "lat": 31.2452482, "types": ["point_of_interest", "establishment"], "place_id": "ChIJ-wyUFY9AWBQRUK0HIC-AZiA"}, {"name": "Family palace hotel Cairo", "formatted_address": "169 Mohammed Farid street, Al Fawalah, Abdeen, Cairo Governorate 11511, Egypt", "lat": 31.244631, "types": ["lodging", "point_of_interest", "establishment"], "place_id": "ChIJ1XcjHL5AWBQRLJ_SZwKk7Hk"}, {"name": "columbia sky city hotel", "formatted_address": "13 Adly 13 عابدين، 11613, Egypt", "lat": 31.2443958, "types": ["lodging", "point_of_interest", "establishment"], "place_id": "ChIJAQBAAJZAWBQRW-Y5EoJ82L0"}, {"name": "Egyptian Arab Land Bank", "formatted_address": "106 Mohammed Farid, Bab Al Louq, Abdeen, Cairo Governorate, Egypt", "lat": 31.2440814, "types": ["bank", "finance", "point_of_interest", "establishment"], "place_id": "ChIJ3W4rGb5AWBQR73M0i1Gr6A8"}, {"name": "Citystars Heliopolis", "formatted_address": "Citystars, Cairo Governorate 11771, Egypt", "lat": 31.3458082, "types": ["shopping_mall", "point_of_interest", "establishment"], "place_id": "ChIJo0ecE_gVWBQRGGrouhZFdME"}, {"name": "Cairo international hostel Downtown", "formatted_address": "9 Adly, Al Fawalah, Abdeen, Cairo Governorate, Egypt", "lat": 31.2448464, "types": ["lodging", "point_of_interest", "establishment"], "place_id": "ChIJu3w6ga5BWBQRwqorHLdNWNE"}, {"name": "St. Mark Coptic Orthodox Church Cleopatra", "formatted_address": "35 كيلوباترا، الماظة، قسم مصر الجديدة،، Cairo Governorate, Egypt", "lat": 31.3296246, "types": ["church", "place_of_worship", "point_of_interest", "establishment"], "place_id": "ChIJH3kNmooVWBQRfL4z5mf-KXU"}, {"name": "Samar Palace Hotel", "formatted_address": "19 Meret Basha, Al Fawalah, Abdeen, Cairo Governorate 11111, Egypt", "lat": 31.2438555, "types": ["lodging", "point_of_interest", "establishment"], "place_id": "ChIJo9ZhipVAWBQRTa_sn27rtnM"}, {"name": "9 شارع عدلي", "formatted_address": "9 Adly, Al Fawalah, Abdeen, Cairo Governorate 11211, Egypt", "lat": 31.2451544, "types": ["restaurant", "food", "point_of_interest", "establishment"], "place_id": "ChIJhzILcmJBWBQRe2Ocu7nhavc"}, {"name": "Heliopolis Sporting Club (HSC)", "formatted_address": "17 El-Sayed El-Marghany, Mansheya El-Bakry, Heliopolis, Cairo Governorate, Egypt", "lat": 31.3164398, "types": ["point_of_interest", "establishment"], "place_id": "ChIJB9zy8B4-WBQRz_zRpJte8sA"}, {"name": "The Anglo Egyptian Bookshop", "formatted_address": "165 Mohammed Farid, Al Fawalah, Abdeen, Cairo Governorate, Egypt", "lat": 31.2443439, "types": ["book_store", "point_of_interest", "store", "establishment"], "place_id": "ChIJYaZ29JVAWBQRnMAS_AVxFIs"}, {"name": "قصر المجوهرات", "formatted_address": "7 ش عدلى، وسط البلد، Abdeen, Cairo Governorate, Egypt", "lat": 31.2438525, "types": ["jewelry_store", "point_of_interest", "store", "establishment"], "place_id": "ChIJ410GPb5AWBQRsP0GUBEy9Dk"}, {"name": "Misr Oil & Soap", "formatted_address": "6 Adly St, DOWNTOWN، Abdeen, Cairo Governorate, Egypt", "lat": 31.2438927, "types": ["point_of_interest", "establishment"], "place_id": "ChIJ410GPb5AWBQRy9_IatEKEWo"}, {"name": "InterContinental Citystars Cairo, an IHG Hotel", "formatted_address": "Omar Ibn El Khattab، Street، Cairo Governorate 11737, Egypt", "lat": 31.3478955, "types": ["lodging", "point_of_interest", "establishment"], "place_id": "ChIJJYCniw4-WBQRDaNySSZ_iuI"}, {"name": "St Michael's Church الكنيسة الأسقفية بالكوربة", "formatted_address": "Baghdad St, El-Montaza, Heliopolis, Cairo Governorate, Egypt", "lat": 31.3229984, "types": ["church", "place_of_worship", "point_of_interest", "establishment"], "place_id": "ChIJfaLreiY-WBQRlouIfsEe-o8"}, {"name": "شركة الصرف الصحى للقاهرة الكبرى", "formatted_address": "Ramses, Al Gayarah, Al Azbakeya, Cairo Governorate, Egypt", "lat": 31.24310149999999, "types": ["point_of_interest", "establishment"], "place_id": "ChIJLZ8QkZNAWBQRRoGpAEXjzPo"}, {"name": "بقالة نجمة السباق", "formatted_address": "٤ ش صهاريج المياة خلف حديقة الميرلاند، Al Sebaq, من، Egypt", "lat": 31.3209375, "types": ["grocery_or_supermarket", "food", "point_of_interest", "store", "establishment"], "place_id": "ChIJX4Ummo8VWBQR_OQJh0tRHfU"}, {"name": "CIB Bank", "formatted_address": "4 Saharig Al Miaah, El-Bostan, Heliopolis, Cairo Governorate, Egypt", "lat": 31.3210175, "types": ["bank", "finance", "point_of_interest", "establishment"], "place_id": "ChIJTbFpmI8VWBQR5d39GVJp_Yc"}, {"name": "Zahraa ElShark For Publication", "formatted_address": "الشرق للنشر، 116 شارع محمد فريد، الفوالة، عابدين، محافظة القاهرة‬، دار زهراء، Egypt", "lat": 31.2441194, "types": ["book_store", "point_of_interest", "store", "establishment"], "place_id": "ChIJ0RLsorlAWBQRQyz8mlnOoBw"}, {"name": "The Integrated Environment Technologies - IETOS", "formatted_address": "Sheraton Bldgs.، Sheraton Al Matar, Heliopolis, Cairo Governorate, Egypt", "lat": 31.369513, "types": ["point_of_interest", "establishment"], "place_id": "ChIJAeqAzGwWWBQR1ZkYB3ATmoA"}, {"name": "Eish + Malh", "formatted_address": "20 Adly, Al Fawalah, Downtown، Cairo Governorate 11121, Egypt", "lat": 31.2436736, "types": ["cafe", "restaurant", "food", "point_of_interest", "store", "establishment"], "place_id": "ChIJ3f5aOb5AWBQRc-X8mjJVRBQ"}, {"name": "مكتبه النهضه المصرية", "formatted_address": "9 Adly, Bab Al Louq, Abdeen, Cairo Governorate, Egypt", "lat": 31.2451544, "types": ["library", "point_of_interest", "establishment"], "place_id": "ChIJM1OFAb5AWBQRZ_HNk2m7O-c"}, {"name": "Bayet", "formatted_address": "24 Kasr Al Nile, Al Fawalah, Abdeen, Cairo Governorate, Egypt", "lat": 31.24399189999999, "types": ["clothing_store", "point_of_interest", "store", "establishment"], "place_id": "ChIJvywRFr5AWBQRpryMBgQHGLo"}, {"name": "Porto Heliopolis", "formatted_address": "Almazah, Heliopolis, Cairo Governorate, Egypt", "lat": 31.348709, "types": ["lodging", "point_of_interest", "establishment"], "place_id": "ChIJR5FCXgE-WBQR471eyuZuvGw"}, {"name": "Welad El Balad", "formatted_address": "16 Adly, Al Fawalah, Abdeen, Cairo Governorate, Egypt", "lat": 31.244439, "types": ["point_of_interest", "establishment"], "place_id": "ChIJoY4JHVtXWBQR3DsONy0cXOA"}, {"name": "Al Ismaelia for Real Estate Investment", "formatted_address": "20 Adly, Al Fawalah, Abdeen, Cairo Governorate, Egypt", "lat": 31.2438221, "types": ["point_of_interest", "establishment"], "place_id": "ChIJV4QCP75AWBQRn0OsVWLaIXQ"}, {"name": "ELARABY Group", "formatted_address": "9 شارع عدلى، Sherif Basha, Egypt", "lat": 31.2451544, "types": ["home_goods_store", "point_of_interest", "store", "establishment"], "place_id": "ChIJDVvpPMZAWBQRyHZHN6qZaNg"}, {"name": "Oldish ( Restaurant & Cafe )", "formatted_address": "خلف الجريك كامبس، 20 Mohammed Mahmoud, Ad Dawawin, Abdeen, Cairo Governorate, Egypt", "lat": 31.2385642, "types": ["restaurant", "cafe", "food", "point_of_interest", "establishment"], "place_id": "ChIJ8wKg4MdAWBQRYW3aFRDiVaE"}, {"name": "Baron Hotel Heliopolis", "formatted_address": "14 Al Baroon, El-Montaza, Heliopolis, Cairo Governorate, Egypt", "lat": 31.3314609, "types": ["lodging", "point_of_interest", "establishment"], "place_id": "ChIJUbVOACI-WBQRWsi5B7gYfxs"}, {"name": "Eveil", "formatted_address": "167 Mohammed Farid, Al Fawalah, Abdeen, Cairo Governorate, Egypt", "lat": 31.24460079999999, "types": ["clothing_store", "point_of_interest", "store", "establishment"], "place_id": "ChIJRX6lQb5AWBQRpLCYF3vKnVc"}, {"name": "Church of the Great Martyr Saint George and Anba Ebram - كنيسة الشهيد العظيم مارجرجس و الأنبا ابرآم", "formatted_address": "54 Abd El-Aziz Fahmy, Al Matar, El Nozha, Cairo Governorate, Egypt", "lat": 31.3392792, "types": ["church", "place_of_worship", "point_of_interest", "establishment"], "place_id": "ChIJvzrXsekVWBQRye4OpOsJnNM"}]