[{"name": "IT Evolution", "formatted_address": "8 ش مخازن الشركة، El-Bostan, Heliopolis, Cairo Governorate, Egypt", "lat": 30.101697, "lng": 31.3284132, "types": ["point_of_interest", "establishment"], "place_id": "ChIJJzxjnY0VWBQR1sh97wT_Dms"}, {"name": "Ittihadia Palace", "formatted_address": "Al Nadi، El-Montaza, Heliopolis, Cairo Governorate, Egypt", "lat": 30.0888643, "lng": 31.3193929, "types": ["tourist_attraction", "premise", "point_of_interest", "establishment"], "place_id": "ChIJuftqUS8-WBQRtM7fDk0QcPk"}, {"name": "El Sherok", "formatted_address": "Al Bustan, Heliopolis, Cairo Governorate, Egypt", "lat": 30.1009981, "lng": 31.3278088, "types": ["point_of_interest", "establishment"], "place_id": "ChIJb92fpI0VWBQRDYu58s7Xw8A"}, {"name": "مركز خدمة هوفر الشريف", "formatted_address": "Al Bustan, Heliopolis, Cairo Governorate, Egypt", "lat": 30.100565, "lng": 31.3279619, "types": ["point_of_interest", "establishment"], "place_id": "ChIJlQ8Xr40VWBQRN573xWQwS_0"}, {"name": "El Etehad", "formatted_address": "Al Bustan, Heliopolis, Cairo Governorate, Egypt", "lat": 30.1024053, "lng": 31.3281157, "types": ["point_of_interest", "establishment"], "place_id": "ChIJB6DQgI0VWBQRnLOiEmWTFyo"}, {"name": "Mahmoued Hasan Mesbah", "formatted_address": "Al Bustan, Heliopolis, Cairo Governorate, Egypt", "lat": 30.1017311, "lng": 31.329989, "types": ["point_of_interest", "establishment"], "place_id": "ChIJ-Zp3Xo0VWBQR3FfV5JZHnzc"}, {"name": "Flora Market co.", "formatted_address": "ميدان المحكمة، مصر الجديدة، القاهرة، Cairo Governorate, Egypt", "lat": 30.101609, "lng": 31.329389, "types": ["point_of_interest", "establishment"], "place_id": "ChIJ732RZY0VWBQRvtCm7c_v7gQ"}, {"name": "Technology Center", "formatted_address": "63 El Hegaz St, El-Bostan, Heliopolis, Cairo Governorate, Egypt", "lat": 30.102242, "lng": 31.327055, "types": ["point_of_interest", "establishment"], "place_id": "ChIJ06TYwusVWBQRHtIjmXu3624"}, {"name": "El Shorouk", "formatted_address": "24 Abou Simbel St.، El-Bostan, Heliopolis, Cairo Governorate, Egypt", "lat": 30.1004521, "lng": 31.3275795, "types": ["point_of_interest", "establishment"], "place_id": "ChIJn8t3MowVWBQR8tsL0oqTlj4"}, {"name": "Our Lady of Heliopolis Co-Cathedral", "formatted_address": "Nazih Khalifa crossroad، Al Ahram, Heliopolis, Cairo Governorate, Egypt", "lat": 30.0935707, "lng": 31.3251828, "types": ["church", "place_of_worship", "point_of_interest", "establishment"], "place_id": "ChIJJdgh-okVWBQR5TqTmKuQ0IM"}, {"name": "Mohamed Ali Omran", "formatted_address": "Al Bustan, Heliopolis, Cairo Governorate, Egypt", "lat": 30.1006002, "lng": 31.3272553, "types": ["point_of_interest", "establishment"], "place_id": "ChIJlXjpto0VWBQR2BI8vUSKGno"}, {"name": "مخازن الشركه المتحده لانشاء عنابر الدواجن", "formatted_address": "المتحده لانشاء عنابر الدواجن، Makhazen Al Sherka, El-Bostan, Heliopolis, Cairo Governorate, Egypt", "lat": 30.1019193, "lng": 31.328646, "types": ["lodging", "point_of_interest", "establishment"], "place_id": "ChIJjemzI5MVWBQRreQfIi_hgIU"}, {"name": "Abou El Naby6", "formatted_address": "Al Bustan, Heliopolis, Cairo Governorate, Egypt", "lat": 30.1007756, "lng": 31.3282516, "types": ["point_of_interest", "establishment"], "place_id": "ChIJI4wdp40VWBQRS-z2tLrAPSc"}, {"name": "Hansaton Egypt", "formatted_address": "55 El Hegaz St, Al Matar, El Nozha, Cairo Governorate, Egypt", "lat": 30.1025278, "lng": 31.3275817, "types": ["point_of_interest", "establishment"], "place_id": "ChIJ9SRYiI0VWBQRbbzoqfUMMvY"}, {"name": "El Gezira", "formatted_address": "Al Bustan, Heliopolis, Cairo Governorate, Egypt", "lat": 30.1004521, "lng": 31.3275795, "types": ["point_of_interest", "establishment"], "place_id": "ChIJR22ws40VWBQRrCb0CaRVnC4"}, {"name": "هانزاتون ايجيبت", "formatted_address": "55 El Hegaz St, Al Matar, El Nozha, Cairo Governorate, Egypt", "lat": 30.1025278, "lng": 31.3275817, "types": ["point_of_interest", "establishment"], "place_id": "ChIJ9SRYiI0VWBQRfBCsWduRINA"}, {"name": "National Company for Improvment-Store", "formatted_address": "Al Bustan, Heliopolis, Cairo Governorate, Egypt", "lat": 30.1012414, "lng": 31.3275364, "types": ["home_goods_store", "point_of_interest", "store", "establishment"], "place_id": "ChIJZZYzvI0VWBQRPMEEOHoxHaM"}, {"name": "Om Ali We Saber", "formatted_address": "Al Bustan, Heliopolis, Cairo Governorate, Egypt", "lat": 30.1025622, "lng": 31.3275795, "types": ["point_of_interest", "establishment"], "place_id": "ChIJJ0oBiY0VWBQRY_frP4pzp3Y"}, {"name": "Tours Around Egypt", "formatted_address": "البستان، قسم مصر الجديدة،، Cairo Governorate, Egypt", "lat": 30.0999315, "lng": 31.3282784, "types": ["travel_agency", "point_of_interest", "establishment"], "place_id": "ChIJ6VQwrcAVWBQRQ7Be9pPD9Rw"}, {"name": "First Advertising", "formatted_address": "2 متفرع من ش هارون الرشيد - ميدان الجامع، مصر الجديدة، القاهرة، Cairo Governorate, Egypt", "lat": 30.100173, "lng": 31.328159, "types": ["point_of_interest", "establishment"], "place_id": "ChIJKVyVq40VWBQRCp2i8DuUIC0"}, {"name": "Tanweer Publishing Mass Media", "formatted_address": "8 ش الوالى، El-Bostan, Heliopolis, Cairo Governorate, Egypt", "lat": 30.1020918, "lng": 31.3278621, "types": ["point_of_interest", "establishment"], "place_id": "ChIJUbLFgo0VWBQR8uyZIkp3fC8"}, {"name": "Ahbab Al El Beit", "formatted_address": "5 El Ashlaa St.، El-Bostan, Heliopolis, Cairo Governorate, Egypt", "lat": 30.1007058, "lng": 31.3293375, "types": ["point_of_interest", "establishment"], "place_id": "ChIJtbCzE40VWBQRTXLsPFWthVI"}, {"name": "The General Association For Aged Care", "formatted_address": "21 ش ابو بكر الصديق، El-Bostan, Heliopolis, Cairo Governorate, Egypt", "lat": 30.1030342, "lng": 31.3289424, "types": ["point_of_interest", "establishment"], "place_id": "ChIJn8sJXJIVWBQRK4e0DuQK_sg"}, {"name": "Salah Al-Din Al-Ayoubi Castle, Salah Salem Street, Cairo", "formatted_address": "Salah Salem St, Al Abageyah, El-Khalifa, Cairo Governorate, Egypt", "lat": 30.0290436, "lng": 31.2594688, "types": ["point_of_interest", "establishment"], "place_id": "ChIJY-3CkKxAWBQRby736eSW2y8"}, {"name": "Abd El Alem Ibrahim", "formatted_address": "94 القصر العيني، El-Bostan, Heliopolis, Cairo Governorate, Egypt", "lat": 30.101594, "lng": 31.3293506, "types": ["point_of_interest", "establishment"], "place_id": "ChIJRUKEZY0VWBQRU0VxJS9eags"}, {"name": "Al-Azhar Mosque", "formatted_address": "El-Darb El-Ahmar, Cairo Governorate, Egypt", "lat": 30.045688, "lng": 31.2626851, "types": ["mosque", "tourist_attraction", "place_of_worship", "point_of_interest", "establishment"], "place_id": "ChIJ9SH986JAWBQR6FIeS8dSZ2c"}, {"name": "Heliopolis Law Firm", "formatted_address": "El-Nozha, القاهرة، Cairo Governorate 11771, Egypt", "lat": 30.1030348, "lng": 31.3305482, "types": ["point_of_interest", "establishment"], "place_id": "ChIJ0ZF2G-kVWBQRerV2aTKGSZ8"}, {"name": "مسجد الشريف", "formatted_address": "Al Bustan, Heliopolis, Cairo Governorate, Egypt", "lat": 30.1012713, "lng": 31.327062, "types": ["mosque", "place_of_worship", "point_of_interest", "establishment"], "place_id": "ChIJSwFCv40VWBQR00LwaNalTPA"}, {"name": "الشركة العامه للتجاره و الاستيراد", "formatted_address": "٢٨ شارع أسوان ميدان المحكمة مصر الجديدة البستان، مصر الجديدة،، Cairo Governorate, Egypt", "lat": 30.102214, "lng": 31.3296584, "types": ["point_of_interest", "establishment"], "place_id": "ChIJ_4UgzlIVWBQRnpJQPdxZmB0"}, {"name": "شركة مياه الشرب - القاهرة الكبرى", "formatted_address": "Aswan, El-Bostan, Heliopolis, Cairo Governorate, Egypt", "lat": 30.1012335, "lng": 31.3284799, "types": ["local_government_office", "point_of_interest", "establishment"], "place_id": "ChIJOZrlpo0VWBQRyQ9v4nI6Uzg"}, {"name": "Post Office - West Heliopolis", "formatted_address": "El-Nozha, El Nozha, Cairo Governorate, Egypt", "lat": 30.1036179, "lng": 31.33018539999999, "types": ["post_office", "finance", "point_of_interest", "establishment"], "place_id": "ChIJ-1tRxpIVWBQR8pyCMmqAgXM"}, {"name": "Heliopolis Company For Housing & Development", "formatted_address": "28 Ibrahim Al Lakani, El-Montaza, Heliopolis, Cairo Governorate, Egypt", "lat": 30.089427, "lng": 31.32091599999999, "types": ["general_contractor", "point_of_interest", "establishment"], "place_id": "ChIJeUp1DiY-WBQRkHRQbiaGSrA"}, {"name": "Heliopolis Towers Hotel", "formatted_address": "El Shaheed Sayed Zakaria, Sheraton Al Matar, El Nozha, Cairo Governorate 11736, Egypt", "lat": 30.1074763, "lng": 31.3661798, "types": ["lodging", "point_of_interest", "establishment"], "place_id": "ChIJZ9p3820WWBQRmZh2M_MSzOQ"}, {"name": "Hassaton egypt", "formatted_address": "55 El Hegaz St, El-Bostan, Heliopolis, Cairo Governorate, Egypt", "lat": 30.1025278, "lng": 31.3275817, "types": ["point_of_interest", "establishment"], "place_id": "ChIJ9zA9C9IVWBQRNxwIE5VqfIg"}, {"name": "Heliopolis Family Court", "formatted_address": "58 El Hegaz St, El-Nozha, Heliopolis, Cairo Governorate, Egypt", "lat": 30.10326, "lng": 31.3297672, "types": ["courthouse", "local_government_office", "point_of_interest", "establishment"], "place_id": "ChIJNxzB6pIVWBQRQx6kT15XA74"}, {"name": "Cairo Real Estate Marketing", "formatted_address": "شارع اسوان المحكمه، Cairo Governorate 11311, Egypt", "lat": 30.1000862, "lng": 31.3277738, "types": ["point_of_interest", "establishment"], "place_id": "ChIJ4bjQGD4UWBQR596yFcvQiFw"}, {"name": "Orient Takaful - Heliopolis", "formatted_address": "138 El Hegaz St, El-Bostan, Heliopolis, Cairo Governorate, Egypt", "lat": 30.1027004, "lng": 31.3266167, "types": ["point_of_interest", "establishment"], "place_id": "ChIJazbUPQMVWBQRmsNw76OMvSM"}, {"name": "Computer & Communication Concept - C & CC", "formatted_address": "6 Aflaton St.، Masaken Al Mohandesin, Heliopolis, Cairo Governorate, Egypt", "lat": 30.079575, "lng": 31.344988, "types": ["point_of_interest", "establishment"], "place_id": "ChIJVznwLfEVWBQR_2KCGtndzME"}, {"name": "هوليداي هوم", "formatted_address": "قسم مصر الجديدة, 63 El Hegaz St, El-Bostan, Heliopolis, Cairo Governorate 11351, Egypt", "lat": 30.1025281, "lng": 31.3275635, "types": ["lodging", "point_of_interest", "establishment"], "place_id": "ChIJD__keZIVWBQRaRwfB2gBVVo"}, {"name": "Porto Heliopolis", "formatted_address": "Almazah, Heliopolis, Cairo Governorate, Egypt", "lat": 30.0827031, "lng": 31.348709, "types": ["lodging", "point_of_interest", "establishment"], "place_id": "ChIJR5FCXgE-WBQR471eyuZuvGw"}, {"name": "أسواق الشريف", "formatted_address": "59 El Hegaz St, El-Bostan, Heliopolis, Cairo Governorate, Egypt", "lat": 30.1015886, "lng": 31.326606, "types": ["home_goods_store", "point_of_interest", "store", "establishment"], "place_id": "ChIJueVl6Y0VWBQRLdVJ87JKADE"}, {"name": "Egyptian Co. For Construction Development - Lift Slab Misr", "formatted_address": "58 El-Thawra St, El-Montaza, Heliopolis, Cairo Governorate, Egypt", "lat": 30.0903305, "lng": 31.327119, "types": ["point_of_interest", "establishment"], "place_id": "ChIJ_we0WBs-WBQR1Q11Z3kS428"}, {"name": "Pretty Travel", "formatted_address": "8 Building, Al Amireyah Ash Shamaleyah, Heliopolis, Cairo Governorate, Egypt", "lat": 30.1004924, "lng": 31.3278405, "types": ["travel_agency", "point_of_interest", "establishment"], "place_id": "ChIJoaNNro0VWBQRyPLIEk8Qef0"}, {"name": "امارات مصر", "formatted_address": "5 عمارات الشريف، شارع اسوان، مصر الجديدة، محافظة القاهرة‬،، Egypt", "lat": 30.1009058, "lng": 31.3280873, "types": ["car_repair", "point_of_interest", "establishment"], "place_id": "ChIJZ5IW-XUVWBQRZVFrixsO79Y"}, {"name": "Eagle Car Rental", "formatted_address": "12 شارع الحجاز،، Al Mahkma, Heliopolis, Cairo Governorate 11737, Egypt", "lat": 30.102781, "lng": 31.326536, "types": ["car_rental", "point_of_interest", "establishment"], "place_id": "ChIJ2fpt8Y0VWBQR-PxLlYqgTKY"}, {"name": "Future For Trade & Supplies", "formatted_address": "8 El Waly St.، El-Bostan, Heliopolis, Cairo Governorate, Egypt", "lat": 30.1019, "lng": 31.3284, "types": ["point_of_interest", "establishment"], "place_id": "ChIJG5-Ygo0VWBQRkb99FVDPXUk"}, {"name": "Radisson Blu Hotel, Cairo Heliopolis", "formatted_address": "Abdel Hamid Badawi St Heliopolis, Cairo Governorate 11787, Egypt", "lat": 30.1065093, "lng": 31.3753121, "types": ["lodging", "point_of_interest", "establishment"], "place_id": "ChIJQZJ8fWUWWBQRAUPO9I6SxPg"}, {"name": "Awel El Ankoud", "formatted_address": "Al Bustan, Heliopolis, Cairo Governorate, Egypt", "lat": 30.10057849999999, "lng": 31.3272839, "types": ["book_store", "point_of_interest", "store", "establishment"], "place_id": "ChIJOd3Ato0VWBQRunzvoNizIys"}, {"name": "El Mahkama Square (The Court Square) - ميدان المحكمة مصر الجديدة", "formatted_address": "Heliopolis Courts Complex, El-Nozha, El Nozha, Cairo Governorate, Egypt", "lat": 30.1038978, "lng": 31.3288561, "types": ["point_of_interest", "establishment"], "place_id": "ChIJE6pBqDgVWBQRj2En3-tEGGU"}, {"name": "الفارس الدولية", "formatted_address": "Aswan, El-Bostan, Heliopolis, Cairo Governorate, Egypt", "lat": 30.1007496, "lng": 31.3275036, "types": ["health", "point_of_interest", "establishment"], "place_id": "ChIJ0b_0hKkVWBQRMqtkfQIcrsk"}, {"name": "Redcon Construction", "formatted_address": "35 Abou Bakr El-Sedeek, El-Bostan, Heliopolis, Cairo Governorate, Egypt", "lat": 30.1017348, "lng": 31.3310042, "types": ["general_contractor", "point_of_interest", "establishment"], "place_id": "ChIJn8sJXJIVWBQRcDbhALjTlbU"}, {"name": "الشركه المصريه لتجارة الجمله", "formatted_address": "Al Ashlaa, El-Bostan, Heliopolis, Cairo Governorate, Egypt", "lat": 30.1006813, "lng": 31.3291378, "types": ["shopping_mall", "point_of_interest", "establishment"], "place_id": "ChIJZWj4DY0VWBQRt3Tm_OIndmU"}, {"name": "DM Construction", "formatted_address": "El Hegaz St, El-Bostan, Heliopolis, Cairo Governorate, Egypt", "lat": 30.1012554, "lng": 31.3271744, "types": ["point_of_interest", "establishment"], "place_id": "ChIJR7A3v40VWBQRJUj6WUPDUOQ"}, {"name": "Real Estate Registration Mission - Heliopolis", "formatted_address": "3 Al Mahkma, El-Nozha, El Nozha, Cairo Governorate, Egypt", "lat": 30.10399, "lng": 31.3300372, "types": ["finance", "local_government_office", "point_of_interest", "establishment"], "place_id": "ChIJF5c73ZIVWBQRdDNAmiyChGA"}, {"name": "Maadi Island", "formatted_address": "Dar Al Salam, Giza Governorate, Egypt", "lat": 29.965527, "lng": 31.239237, "types": ["restaurant", "tourist_attraction", "park", "food", "point_of_interest", "establishment"], "place_id": "ChIJwY7d5MFHWBQRl1nMXlW_tUY"}, {"name": "Nile Company for trade in goods, food", "formatted_address": "El-Bostan, Heliopolis, Cairo Governorate, Egypt", "lat": 30.100682, "lng": 31.329138, "types": ["point_of_interest", "establishment"], "place_id": "ChIJ-2f4DY0VWBQRKV_sUwlgJYo"}, {"name": "El Mostaqbal", "formatted_address": "Al Bustan, Heliopolis, Cairo Governorate, Egypt", "lat": 30.1004802, "lng": 31.3274133, "types": ["book_store", "point_of_interest", "store", "establishment"], "place_id": "ChIJKcpbsY0VWBQRlG7au1TvOxU"}, {"name": "Friends", "formatted_address": "البستان، قسم مصر الجديدة،، Cairo Governorate, Egypt", "lat": 30.1010184, "lng": 31.3280464, "types": ["point_of_interest", "establishment"], "place_id": "ChIJSdRDOM0VWBQRB-t607jAWKk"}, {"name": "IRC contracting company ( Eng.Mohammed samir )", "formatted_address": "Unnamed Road، El-Bostan, Heliopolis, Cairo Governorate, Egypt", "lat": 30.1027711, "lng": 31.3267069, "types": ["point_of_interest", "establishment"], "place_id": "ChIJj4eq9o0VWBQRNo8VZ9-goVs"}, {"name": "شركة المصطفى للماستر بيتش", "formatted_address": "4 Aswan, El-Bostan, Heliopolis, Cairo Governorate, Egypt", "lat": 30.1017139, "lng": 31.3296604, "types": ["point_of_interest", "establishment"], "place_id": "ChIJL0-zm3MVWBQR-ie54VGvJfM"}]