[{"name": "Ittihadia Palace", "formatted_address": "Al Nadi، El-Montaza, Heliopolis, Cairo Governorate, Egypt", "lat": 30.0888643, "lng": 31.3193929, "types": ["tourist_attraction", "premise", "point_of_interest", "establishment"], "place_id": "ChIJuftqUS8-WBQRtM7fDk0QcPk"}, {"name": "Baron Empain Palace", "formatted_address": "El-Orouba, El-Montaza, Heliopolis, Cairo Governorate 11757, Egypt", "lat": 30.0866701, "lng": 31.3303332, "types": ["point_of_interest", "establishment"], "place_id": "ChIJ1_GM8iE-WBQRLNVi-RT7vDA"}, {"name": "International Trading", "formatted_address": "3 Al Tabreezi, Mansheya El-Bakry, Heliopolis, Cairo Governorate, Egypt", "lat": 30.0888731, "lng": 31.3063756, "types": ["point_of_interest", "establishment"], "place_id": "ChIJM9Y97dI_WBQRnAig1OMNRC8"}, {"name": "El Ahraam", "formatted_address": "Mansheyat Al Bakri, Heliopolis, Cairo Governorate, Egypt", "lat": 30.0883842, "lng": 31.307076, "types": ["point_of_interest", "establishment"], "place_id": "ChIJR_BAvtI_WBQRdQiy_N7LXg8"}, {"name": "Mahmoud Donya", "formatted_address": "Mansheyat Al Bakri, Heliopolis, Cairo Governorate, Egypt", "lat": 30.0892141, "lng": 31.3047596, "types": ["point_of_interest", "establishment"], "place_id": "ChIJGfIeaNI_WBQRiRRGKV6ZATU"}, {"name": "Our Lady of Heliopolis Co-Cathedral", "formatted_address": "Nazih Khalifa crossroad، Al Ahram, Heliopolis, Cairo Governorate, Egypt", "lat": 30.0935707, "lng": 31.3251828, "types": ["church", "place_of_worship", "point_of_interest", "establishment"], "place_id": "ChIJJdgh-okVWBQR5TqTmKuQ0IM"}, {"name": "El Salam", "formatted_address": "Mansheyat Al Bakri, Heliopolis, Cairo Governorate, Egypt", "lat": 30.090121, "lng": 31.3049861, "types": ["point_of_interest", "establishment"], "place_id": "ChIJF6eGUdI_WBQRTPRhzCmsOJ8"}, {"name": "Abdeen Palace Museum", "formatted_address": "شارع جمعه عابدين،، El-Gomhoreya Square, Rahbet Abdin, Abdeen, Cairo Governorate, Egypt", "lat": 30.0422696, "lng": 31.248544, "types": ["tourist_attraction", "museum", "point_of_interest", "establishment"], "place_id": "ChIJF_ZR9bpAWBQR_WeDJloU-7o"}, {"name": "El Dar El Ory", "formatted_address": "29 المقريزي، Mansheya El-Bakry, Heliopolis, Cairo Governorate, Egypt", "lat": 30.0887326, "lng": 31.3064724, "types": ["point_of_interest", "establishment"], "place_id": "ChIJ2Y4lk9I_WBQRqtosL7IgENg"}, {"name": "Easy Tech", "formatted_address": "9 Hasan Lotfy, Mansheya El-Bakry, Heliopolis, Cairo Governorate, Egypt", "lat": 30.0878892, "lng": 31.3054104, "types": ["point_of_interest", "establishment"], "place_id": "ChIJUTGuf9I_WBQRyxQ_1ZkXpZU"}, {"name": "Elgohary Car", "formatted_address": "61 Mansheya El-Bakry, Heliopolis, Cairo Governorate, Egypt", "lat": 30.0887361, "lng": 31.3065865, "types": ["point_of_interest", "establishment"], "place_id": "ChIJ2ThEEj4_WBQRRqJ0KcHX3lk"}, {"name": "El Madina For Tourism & Travel", "formatted_address": "3 El Awhady St.، Mansheya El-Bakry, Heliopolis, Cairo Governorate, Egypt", "lat": 30.0896097, "lng": 31.3060799, "types": ["point_of_interest", "establishment"], "place_id": "ChIJ4eBf-tI_WBQRTpzGsUaTaR0"}, {"name": "Sigma Dent", "formatted_address": "9 Ahmed Lotfy El Sayed St.، ABBASSEYA، Heliopolis, Cairo Governorate, Egypt", "lat": 30.0878892, "lng": 31.3054104, "types": ["point_of_interest", "establishment"], "place_id": "ChIJUTGuf9I_WBQR5xrZf94mk9g"}, {"name": "Family", "formatted_address": "30 Mansheya El-Bakry, Heliopolis, Cairo Governorate, Egypt", "lat": 30.0887145, "lng": 31.307149, "types": ["point_of_interest", "establishment"], "place_id": "ChIJnTBYwNI_WBQREJVage0EGss"}, {"name": "El Barka Co. For Stationery Equipment", "formatted_address": "9 Lotfy, Mansheya El-Bakry, Heliopolis, Cairo Governorate, Egypt", "lat": 30.0878892, "lng": 31.3054104, "types": ["point_of_interest", "establishment"], "place_id": "ChIJUTGuf9I_WBQRMqphyAR6yhU"}, {"name": "Wellness Clinic Dr. Wagih Sedky", "formatted_address": "El-Khalifa El-Maamoun, Mansheya El-Bakry, Heliopolis, Cairo Governorate, Egypt", "lat": 30.0870449, "lng": 31.3054627, "types": ["point_of_interest", "establishment"], "place_id": "ChIJiXuJ37o_WBQRZMd4kdKfWyc"}, {"name": "Stodio 19", "formatted_address": "7 المقريزي، Mansheya El-Bakry, Heliopolis, Cairo Governorate, Egypt", "lat": 30.0893379, "lng": 31.3054145, "types": ["point_of_interest", "establishment"], "place_id": "ChIJu3kRX9I_WBQRE-mneNV_-Ec"}, {"name": "Masjed Manshyet Elbakry", "formatted_address": "Mansheya El-Bakry, Mansheyat as Sadr, Heliopolis, Cairo Governorate, Egypt", "lat": 30.0892365, "lng": 31.3059051, "types": ["mosque", "place_of_worship", "point_of_interest", "establishment"], "place_id": "ChIJYU8L8dI_WBQR1dLrLx1DSXE"}, {"name": "El Rahman Mosque", "formatted_address": "Mansheya El-Bakry, Heliopolis, Cairo Governorate, Egypt", "lat": 30.0881408, "lng": 31.3070608, "types": ["mosque", "place_of_worship", "point_of_interest", "establishment"], "place_id": "ChIJrw0mTcY_WBQRMVVTg8sB2Uo"}, {"name": "Triumph Plaza Hotel", "formatted_address": "Intersection Of Ihsan Abdel Kodous St. with, El-Khalifa El-Maamoun, st, Cairo Governorate 11757, Egypt", "lat": 30.0864639, "lng": 31.3060439, "types": ["lodging", "point_of_interest", "establishment"], "place_id": "ChIJdQaFc80_WBQRaTzpSBv1-BQ"}, {"name": "Go Heliopolis - Khozam The First Compound In Heliopolis", "formatted_address": "شارع النزهة، مصر الجديدة،، Egypt", "lat": 30.0732268, "lng": 31.3397646, "types": ["lodging", "point_of_interest", "establishment"], "place_id": "ChIJZ7ZHBKs_WBQRJD3Ntp2Q_ww"}, {"name": "Maadi Island", "formatted_address": "Dar Al Salam, Giza Governorate, Egypt", "lat": 29.965527, "lng": 31.239237, "types": ["restaurant", "tourist_attraction", "park", "food", "point_of_interest", "establishment"], "place_id": "ChIJwY7d5MFHWBQRl1nMXlW_tUY"}, {"name": "شركة شارميست للسياحة", "formatted_address": "Mansheya El-Bakry, حمامات القبة، Heliopolis, Cairo Governorate, Egypt", "lat": 30.0890548, "lng": 31.3057222, "types": ["travel_agency", "point_of_interest", "establishment"], "place_id": "ChIJVbn99NI_WBQRqxNFp1ZUnhY"}, {"name": "Eilfia Law Firm", "formatted_address": "11351، 11 al tayar hassan lotfi street, Heliopolis, Cairo Government، Cairo Governorate 11351, Egypt", "lat": 30.0887267, "lng": 31.3054328, "types": ["lawyer", "point_of_interest", "establishment"], "place_id": "ChIJxUnIHbUVWBQRElOklimvTFk"}, {"name": "St. Mark Coptic Orthodox Church Cleopatra", "formatted_address": "35 كيلوباترا، الماظة، قسم مصر الجديدة،، Cairo Governorate, Egypt", "lat": 30.0924011, "lng": 31.3296246, "types": ["church", "place_of_worship", "point_of_interest", "establishment"], "place_id": "ChIJH3kNmooVWBQRfL4z5mf-KXU"}, {"name": "Heliopolis Sporting Club (HSC)", "formatted_address": "17 El-Sayed El-Marghany, Mansheya El-Bakry, Heliopolis, Cairo Governorate, Egypt", "lat": 30.0883155, "lng": 31.3164398, "types": ["point_of_interest", "establishment"], "place_id": "ChIJB9zy8B4-WBQRz_zRpJte8sA"}, {"name": "محمد صبرى القاضى", "formatted_address": "Hasan Lotfy, حمامات القبة، Heliopolis, Cairo Governorate, Egypt", "lat": 30.0879978, "lng": 31.3053371, "types": ["doctor", "health", "point_of_interest", "establishment"], "place_id": "ChIJ-X7xftI_WBQRU2nmPvhX_XI"}, {"name": "MJM", "formatted_address": "25 شارع منشية البكري امام مسجد منشية البكري, El-Khalifa El-Maamoun, Heliopolis, Cairo Governorate 11851, Egypt", "lat": 30.0890052, "lng": 31.3058615, "types": ["point_of_interest", "establishment"], "place_id": "ChIJgTJm17E_WBQRtGpy8lIl3eQ"}, {"name": "الحاره كافيه", "formatted_address": "التبريزي، منشية البكري، قسم مصر الجديدة،، Cairo Governorate, Egypt", "lat": 30.0884025, "lng": 31.3058657, "types": ["cafe", "food", "point_of_interest", "establishment"], "place_id": "ChIJj5OFmgk_WBQR2iRwGAAgW2U"}, {"name": "Porto Heliopolis", "formatted_address": "Almazah, Heliopolis, Cairo Governorate, Egypt", "lat": 30.0827031, "lng": 31.348709, "types": ["lodging", "point_of_interest", "establishment"], "place_id": "ChIJR5FCXgE-WBQR471eyuZuvGw"}, {"name": "Eagle", "formatted_address": "Al Tabreezi, حمامات القبة، Heliopolis, Cairo Governorate, Egypt", "lat": 30.0886772, "lng": 31.3063181, "types": ["point_of_interest", "clothing_store", "store", "establishment"], "place_id": "ChIJ_SOPktI_WBQRmVUAShe31Aw"}, {"name": "علاء الدين", "formatted_address": "شارع منشية البكرى، حمامات القبة،، Heliopolis, Cairo Governorate, Egypt", "lat": 30.0887654, "lng": 31.3064076, "types": ["car_dealer", "point_of_interest", "store", "establishment"], "place_id": "ChIJXaHRktI_WBQRJNA2mGYq3E0"}, {"name": "Heliopolis Towers Hotel", "formatted_address": "El Shaheed Sayed Zakaria, Sheraton Al Matar, El Nozha, Cairo Governorate 11736, Egypt", "lat": 30.1074763, "lng": 31.3661798, "types": ["lodging", "point_of_interest", "establishment"], "place_id": "ChIJZ9p3820WWBQRmZh2M_MSzOQ"}, {"name": "مدارس بى كرنك للغات", "formatted_address": "25 Lotfy, Mansheya El-Bakry, Heliopolis, Cairo Governorate, Egypt", "lat": 30.0879178, "lng": 31.305802, "types": ["point_of_interest", "establishment"], "place_id": "ChIJUTGuf9I_WBQRIrGYhLAtlIM"}, {"name": "Golden Park Hotel", "formatted_address": "شارع الحجاز ، مصر الجديده، 221 شارع الحجاز ، هيليوبوليس ،، El Nozha, Cairo Governorate, Egypt", "lat": 30.1153686, "lng": 31.3525102, "types": ["lodging", "point_of_interest", "establishment"], "place_id": "ChIJsQQdRNgVWBQRss6fVxNFk_8"}, {"name": "منال أحمد عبد اللطيف", "formatted_address": "شارع El-Khalifa El-Maamoun, حمامات القبة، Heliopolis, Cairo Governorate, Egypt", "lat": 30.0870941, "lng": 31.303934, "types": ["lawyer", "point_of_interest", "establishment"], "place_id": "ChIJtZSf680_WBQRzG7LucY8PxA"}, {"name": "Youth Athletic club of Mansheyet el Bakrey", "formatted_address": "Mansheya El-Bakry, Heliopolis, Cairo Governorate, Egypt", "lat": 30.0892618, "lng": 31.3054404, "types": ["point_of_interest", "establishment"], "place_id": "ChIJbz-2x_s_WBQRkNcHQYmJULI"}, {"name": "The Great Pyramid of Giza", "formatted_address": "Al Haram, Nazlet El-Semman, Al Giza Desert, Giza Governorate, Egypt", "lat": 29.9792345, "lng": 31.1342019, "types": ["tourist_attraction", "premise", "point_of_interest", "establishment"], "place_id": "ChIJGymPrIdFWBQRJCSloj8vDIE"}, {"name": "El Saie Consulting engineering", "formatted_address": "19 Lotfy, Mansheya El-Bakry, Heliopolis, Cairo Governorate, Egypt", "lat": 30.0878623, "lng": 31.3058052, "types": ["point_of_interest", "establishment"], "place_id": "ChIJH1gSgdI_WBQRNaTedlyxUNc"}, {"name": "Radisson Blu Hotel, Cairo Heliopolis", "formatted_address": "Abdel Hamid Badawi St Heliopolis, Cairo Governorate 11787, Egypt", "lat": 30.1065093, "lng": 31.3753121, "types": ["lodging", "point_of_interest", "establishment"], "place_id": "ChIJQZJ8fWUWWBQRAUPO9I6SxPg"}, {"name": "Vota", "formatted_address": "شارع منشية البكرى، الحمام، El-Qobba, Heliopolis, Cairo Governorate, Egypt", "lat": 30.0885144, "lng": 31.3038867, "types": ["point_of_interest", "establishment"], "place_id": "ChIJBVpwDNI_WBQR_qdQzMCypKo"}, {"name": "Citystars Heliopolis", "formatted_address": "Citystars, Cairo Governorate 11771, Egypt", "lat": 30.0728734, "lng": 31.3458082, "types": ["shopping_mall", "point_of_interest", "establishment"], "place_id": "ChIJo0ecE_gVWBQRGGrouhZFdME"}, {"name": "المصرية الدولية للإستشارات القانونية", "formatted_address": "11A Hasan Lotfy, Mansheya El-Bakry, Heliopolis, Cairo Governorate 11351, Egypt", "lat": 30.0889512, "lng": 31.3054415, "types": ["point_of_interest", "establishment"], "place_id": "ChIJJca_XoM_WBQR6cCIipF0W0w"}, {"name": "دار مسنين الإحسان", "formatted_address": "الخليفة المأمون، منشية البكري، قسم مصر الجديدة، محافظة القاهرة‬،، Egypt", "lat": 30.0883241, "lng": 31.3047444, "types": ["lodging", "point_of_interest", "establishment"], "place_id": "ChIJ5R37rc8_WBQRWN5Sk_t1udc"}, {"name": "Baron Hotel Heliopolis", "formatted_address": "14 Al Baroon, El-Montaza, Heliopolis, Cairo Governorate, Egypt", "lat": 30.0860748, "lng": 31.3314609, "types": ["lodging", "point_of_interest", "establishment"], "place_id": "ChIJUbVOACI-WBQRWsi5B7gYfxs"}, {"name": "Housing Fund armed forces", "formatted_address": "Ewais, Mansheya El-Bakry, Heliopolis, Cairo Governorate, Egypt", "lat": 30.0863959, "lng": 31.3045118, "types": ["point_of_interest", "establishment"], "place_id": "ChIJN-33ks0_WBQRIV7bRgReznM"}, {"name": "M2h Group", "formatted_address": "8 Al Tabreezi, Mansheya El-Bakry, Heliopolis, Cairo Governorate, Egypt", "lat": 30.0886122, "lng": 31.3060627, "types": ["electronics_store", "point_of_interest", "store", "establishment"], "place_id": "ChIJp6cpjUo_WBQR7yaDcop8Zls"}, {"name": "Clinic heliopolis", "formatted_address": "18 alkhalifa almamoon street, Mansheya El-Bakry, Heliopolis, Cairo Governorate 11774, Egypt", "lat": 30.0870516, "lng": 31.3032997, "types": ["health", "point_of_interest", "establishment"], "place_id": "ChIJa2IvUS0_WBQRsm9EeNkNT3Q"}, {"name": "Nano Art Space", "formatted_address": "13 Mansheya El-Bakry, Heliopolis, Cairo Governorate, Egypt", "lat": 30.08890349999999, "lng": 31.3072854, "types": ["point_of_interest", "establishment"], "place_id": "ChIJqXTxNZk_WBQRaTCqUopmeiE"}, {"name": "St Michael's Church الكنيسة الأسقفية بالكوربة", "formatted_address": "Baghdad St, El-Montaza, Heliopolis, Cairo Governorate, Egypt", "lat": 30.0884753, "lng": 31.3229984, "types": ["church", "place_of_worship", "point_of_interest", "establishment"], "place_id": "ChIJfaLreiY-WBQRlouIfsEe-o8"}, {"name": "Sonesta Hotel Tower & Casino Cairo", "formatted_address": "3 El Tayaran St, Ash Sharekat, Nasr City, Cairo Governorate, Egypt", "lat": 30.0789591, "lng": 31.3175599, "types": ["casino", "lodging", "point_of_interest", "establishment"], "place_id": "ChIJKYApCUc-WBQROTn4JL8ozhI"}, {"name": "بيت المهندسين", "formatted_address": "Mansheya El-Bakry, Heliopolis, Cairo Governorate, Egypt", "lat": 30.0888643, "lng": 31.3043899, "types": ["point_of_interest", "establishment"], "place_id": "ChIJ_-Os9ZM_WBQRtHxz30ZNViE"}, {"name": "د. مصطفي محمود", "formatted_address": "31 Mansheya El-Bakry, Heliopolis, Cairo Governorate, Egypt", "lat": 30.0887421, "lng": 31.3065774, "types": ["doctor", "health", "point_of_interest", "establishment"], "place_id": "ChIJ0Zieir0_WBQRS586oF1HWv4"}, {"name": "مكتب د.محمود عبد الفتاح", "formatted_address": "Hasan Lotfy, حمامات القبة، Heliopolis, Cairo Governorate, Egypt", "lat": 30.0889562, "lng": 31.3054927, "types": ["lawyer", "point_of_interest", "establishment"], "place_id": "ChIJ0zQWYNI_WBQRW-AeS7DJKv4"}, {"name": "Misr Radiology Center", "formatted_address": "8 El-Khalifa El-Maamoun, Mansheya El-Bakry, Heliopolis, Cairo Governorate, Egypt", "lat": 30.0869168, "lng": 31.3022116, "types": ["doctor", "health", "point_of_interest", "establishment"], "place_id": "ChIJxVvF2c0_WBQRYA4XDa6iHs0"}, {"name": "SPOT DESIGN", "formatted_address": "Al Tabreezi, Mansheya El-Bakry, Heliopolis, Cairo Governorate, Egypt", "lat": 30.0885913, "lng": 31.3060445, "types": ["electronics_store", "point_of_interest", "store", "establishment"], "place_id": "ChIJ5R186No_WBQRNaugCv1Gq6w"}, {"name": "Spiroplastic", "formatted_address": "شارع منشية البكرى، الحمام، El-Qobba, Heliopolis, Cairo Governorate, Egypt", "lat": 30.0886873, "lng": 31.3042957, "types": ["point_of_interest", "store", "establishment"], "place_id": "ChIJh4SActI_WBQRIaPWBmU6UDE"}, {"name": "Smile Fish", "formatted_address": "Mansheyat Al Bakri،, Heliopolis, Cairo Governorate, Egypt", "lat": 30.0893641, "lng": 31.305206, "types": ["pet_store", "point_of_interest", "store", "establishment"], "place_id": "ChIJdz_I-bw_WBQRdEtJqgzS0dU"}, {"name": "Al Imam", "formatted_address": "Mansheyat Al Bakri, Heliopolis, Cairo Governorate, Egypt", "lat": 30.0889175, "lng": 31.3044074, "types": ["point_of_interest", "establishment"], "place_id": "ChIJDaUUbNI_WBQRJ5t72l8j1kA"}, {"name": "Tripartite Group", "formatted_address": "Al Tabreezi, Mansheya El-Bakry, Heliopolis, Cairo Governorate 00202, Egypt", "lat": 30.0886726, "lng": 31.3063977, "types": ["electronics_store", "point_of_interest", "store", "establishment"], "place_id": "ChIJM9Y97dI_WBQRiHlGJDek6tM"}]