[{"name": "Salah Eldin Square", "formatted_address": "Cleopatra, Almazah, Heliopolis, Cairo Governorate, Egypt", "lat": 30.094815, "lng": 31.329797, "types": ["tourist_attraction", "point_of_interest", "establishment"], "place_id": "ChIJy3RkGIsVWBQRa0ALsaVU_l8"}, {"name": "Elwatani", "formatted_address": "14 Tella, Almazah, Heliopolis, Cairo Governorate, Egypt", "lat": 30.09449039999999, "lng": 31.3311765, "types": ["point_of_interest", "establishment"], "place_id": "ChIJPUbT0vQVWBQRVPTlKOe6uNc"}, {"name": "Ittihadia Palace", "formatted_address": "Al Nadi، El-Montaza, Heliopolis, Cairo Governorate, Egypt", "lat": 30.0888643, "lng": 31.3193929, "types": ["tourist_attraction", "premise", "point_of_interest", "establishment"], "place_id": "ChIJuftqUS8-WBQRtM7fDk0QcPk"}, {"name": "Baron Empain Palace", "formatted_address": "El-Orouba, El-Montaza, Heliopolis, Cairo Governorate 11757, Egypt", "lat": 30.0866701, "lng": 31.3303332, "types": ["point_of_interest", "establishment"], "place_id": "ChIJ1_GM8iE-WBQRLNVi-RT7vDA"}, {"name": "Our Lady of Heliopolis Co-Cathedral", "formatted_address": "Nazih Khalifa crossroad، Al Ahram, Heliopolis, Cairo Governorate, Egypt", "lat": 30.0935707, "lng": 31.3251828, "types": ["church", "place_of_worship", "point_of_interest", "establishment"], "place_id": "ChIJJdgh-okVWBQR5TqTmKuQ0IM"}, {"name": "No Love", "formatted_address": "32 Salah El-Din St., Almazah, Heliopolis, Cairo Governorate, Egypt", "lat": 30.09381699999999, "lng": 31.331291, "types": ["point_of_interest", "establishment"], "place_id": "ChIJWTfLKvUVWBQRo3lA_cpIPPs"}, {"name": "حديقة الظلام", "formatted_address": "7 Mohammed Sabri Ali, Almazah, Heliopolis, Cairo Governorate, Egypt", "lat": 30.0939767, "lng": 31.3323183, "types": ["park", "point_of_interest", "establishment"], "place_id": "ChIJ99wbDPkVWBQRgdGW4IqO3gE"}, {"name": "بلدي", "formatted_address": "تلا، الماظة، قسم مصر الجديدة، محافظة القاهرة‬،، Egypt", "lat": 30.0935659, "lng": 31.3305143, "types": ["mosque", "place_of_worship", "point_of_interest", "establishment"], "place_id": "ChIJG-xeoAQVWBQRvnYzIRVEIaQ"}, {"name": "Galerie Gaby", "formatted_address": "2 Tala St.، Almazah, Heliopolis, Cairo Governorate, Egypt", "lat": 30.0935, "lng": 31.3305, "types": ["point_of_interest", "establishment"], "place_id": "ChIJzee22ooVWBQRkfoxUhSVnkc"}, {"name": "St. Mark Church Hall & Theatre", "formatted_address": "Beirut, Almazah, Heliopolis, Cairo Governorate, Egypt", "lat": 30.0920692, "lng": 31.3298072, "types": ["point_of_interest", "establishment"], "place_id": "ChIJW22wmIoVWBQRV8Q8iyJ2CZ0"}, {"name": "Madian", "formatted_address": "43 ش كليوباترا، Almazah, Heliopolis, Cairo Governorate, Egypt", "lat": 30.09327799999999, "lng": 31.329573, "types": ["point_of_interest", "establishment"], "place_id": "ChIJ0SKX64oVWBQRYUHcjcG8PkM"}, {"name": "Farouq For Glass", "formatted_address": "22 ش صلاح الدين، Almazah, Heliopolis, Cairo Governorate, Egypt", "lat": 30.0930646, "lng": 31.332187, "types": ["point_of_interest", "establishment"], "place_id": "ChIJU_52BhMVWBQRyKBqGPtQjvY"}, {"name": "El Sayedat El Moamenat Association", "formatted_address": "27 ش صلاح الدين، Almazah, Heliopolis, Cairo Governorate, Egypt", "lat": 30.094319, "lng": 31.331065, "types": ["point_of_interest", "establishment"], "place_id": "ChIJU_52BhMVWBQRuK3DDlid6aA"}, {"name": "Nagy Anageeb Hakeem", "formatted_address": "Almazah, Heliopolis, Cairo Governorate, Egypt", "lat": 30.0942592, "lng": 31.3308376, "types": ["point_of_interest", "establishment"], "place_id": "ChIJabkUKYsVWBQRa6Ek0niOYk8"}, {"name": "Samir Wahba Mosque", "formatted_address": "30 Street 32, Almazah, Heliopolis, Cairo Governorate, Egypt", "lat": 30.0938748, "lng": 31.3317659, "types": ["mosque", "place_of_worship", "point_of_interest", "establishment"], "place_id": "ChIJD5qA1fQVWBQRKuxGRStI6aA"}, {"name": "Moura Stationery", "formatted_address": "4 ش اشمون، Almazah, Heliopolis, Cairo Governorate, Egypt", "lat": 30.0921762, "lng": 31.3309235, "types": ["point_of_interest", "establishment"], "place_id": "ChIJNUSIsYoVWBQREfQCMNxRzKQ"}, {"name": "Karim Shoes", "formatted_address": "27 salah el din st.، Almazah, Heliopolis, Cairo Governorate, Egypt", "lat": 30.094365, "lng": 31.330821, "types": ["point_of_interest", "establishment"], "place_id": "ChIJU_52BhMVWBQRl4v69De477w"}, {"name": "Elfatah", "formatted_address": "14 Tella, Almazah, Heliopolis, Cairo Governorate, Egypt", "lat": 30.0943516, "lng": 31.3310871, "types": ["point_of_interest", "establishment"], "place_id": "ChIJXc1-K4sVWBQR42zEOfMctME"}, {"name": "Keithara center", "formatted_address": "12 Tella, Almazah, Heliopolis, Cairo Governorate, Egypt", "lat": 30.0938578, "lng": 31.330676, "types": ["point_of_interest", "establishment"], "place_id": "ChIJtdVg1ooVWBQRm7jBg78nycU"}, {"name": "Starlit", "formatted_address": "Salah El-Din St., Almazah, Heliopolis, Cairo Governorate, Egypt", "lat": 30.0933112, "lng": 31.3321152, "types": ["point_of_interest", "establishment"], "place_id": "ChIJtRB-DfUVWBQR6N1WtnvmPUY"}, {"name": "Samir Wahba Park", "formatted_address": "Almazah, Heliopolis, Cairo Governorate, Egypt", "lat": 30.0939397, "lng": 31.3325803, "types": ["park", "point_of_interest", "establishment"], "place_id": "ChIJ6_Y_h74VWBQRX8-dB9KITmY"}, {"name": "Saleh", "formatted_address": "43 ميدان صلاح الدين، مصر الجديدة، القاهرة، Cairo Governorate, Egypt", "lat": 30.0946947, "lng": 31.3302504, "types": ["point_of_interest", "establishment"], "place_id": "ChIJwdWFJIsVWBQRTpf_lr1ir7Y"}, {"name": "El Monfoya Dairy", "formatted_address": "45 ش كليوباترا، Almazah, Heliopolis, Cairo Governorate, Egypt", "lat": 30.093534, "lng": 31.329659, "types": ["point_of_interest", "establishment"], "place_id": "ChIJ7QX-6IoVWBQRK4S6Gue6Rlw"}, {"name": "Ahmed Abdullah Optics", "formatted_address": "27 ش صلاح الدين، Almazah, Heliopolis, Cairo Governorate, Egypt", "lat": 30.094319, "lng": 31.331065, "types": ["point_of_interest", "establishment"], "place_id": "ChIJU_52BhMVWBQRcTbq1pVuTZ8"}, {"name": "Nessma", "formatted_address": "47 ش كليوباترا، Almazah, Heliopolis, Cairo Governorate, Egypt", "lat": 30.094305, "lng": 31.329836, "types": ["point_of_interest", "establishment"], "place_id": "ChIJJ9b9H4sVWBQROZ4QsE4MDAY"}, {"name": "Flowers Flowers", "formatted_address": "12 ش صلاح الدين، Almazah, Heliopolis, Cairo Governorate, Egypt", "lat": 30.0941293, "lng": 31.33107009999999, "types": ["point_of_interest", "establishment"], "place_id": "ChIJt7hSKosVWBQR5TGtwDX19Cw"}, {"name": "Guzal Accessories", "formatted_address": "43 ش كليوباترا، Almazah, Heliopolis, Cairo Governorate, Egypt", "lat": 30.093295, "lng": 31.329593, "types": ["point_of_interest", "establishment"], "place_id": "ChIJYy2-64oVWBQRuF_nb8Hkj-0"}, {"name": "Shgrawee", "formatted_address": "19 Othman Ibn Affan, Almazah, Heliopolis, Cairo Governorate, Egypt", "lat": 30.0949894, "lng": 31.3304393, "types": ["point_of_interest", "establishment"], "place_id": "ChIJ1fUhO4sVWBQRMXaYlNXd--c"}, {"name": "Awlad El Okby", "formatted_address": "14 Tella, Almazah, Heliopolis, Cairo Governorate, Egypt", "lat": 30.0943516, "lng": 31.3310871, "types": ["point_of_interest", "establishment"], "place_id": "ChIJOY5zLIsVWBQRLWjSbhKsFCM"}, {"name": "HELIOPOLIS GROUP - Narcotics Anonymous Fellowshiop Egypt I مجموعة هليوبليس- زمالة المدمنين المجهولين مصر", "formatted_address": "workspace, ٤٤ شارع صلاح الدين، مصر الجديدة، الدور التانى، 404, Cairo Governorate 11737, Egypt", "lat": 30.094678, "lng": 31.3300818, "types": ["point_of_interest", "establishment"], "place_id": "ChIJcX0lhI4VWBQR9LM3DWhj-Os"}, {"name": "Orkeida-Flowers", "formatted_address": "Almazah, Heliopolis, Cairo Governorate, Egypt", "lat": 30.0927167, "lng": 31.3297565, "types": ["point_of_interest", "establishment"], "place_id": "ChIJ3y3clYoVWBQR_vu51Wa6aUY"}, {"name": "Dar El Abeer For Orphans", "formatted_address": "20 Salah El-Din St., Almazah, Heliopolis, Cairo Governorate, Egypt", "lat": 30.0929623, "lng": 31.33227, "types": ["point_of_interest", "establishment"], "place_id": "ChIJY4F6I_UVWBQRS2WThox-L7w"}, {"name": "Supply Bureau - Heliopolis", "formatted_address": "2 Mansoura, El-Bostan, Heliopolis, Cairo Governorate, Egypt", "lat": 30.0960267, "lng": 31.3292775, "types": ["point_of_interest", "establishment"], "place_id": "ChIJ-7jLbYsVWBQRFdYCXarehEY"}, {"name": "نقطة إطفاء صلاح الدين", "formatted_address": "14 Tella, Almazah, Heliopolis, Cairo Governorate, Egypt", "lat": 30.09451499999999, "lng": 31.3308671, "types": ["fire_station", "point_of_interest", "establishment"], "place_id": "ChIJfTpNFtMVWBQR18AKBpm7ClM"}, {"name": "Demco Corporation Import & Export", "formatted_address": "14 Tala St.، Almazah, Heliopolis, Cairo Governorate, Egypt", "lat": 30.0942, "lng": 31.3312, "types": ["point_of_interest", "establishment"], "place_id": "ChIJ2aW82ooVWBQR6KeB_IdYoTE"}, {"name": "St. Mark Coptic Orthodox Church Cleopatra", "formatted_address": "35 كيلوباترا، الماظة، قسم مصر الجديدة،، Cairo Governorate, Egypt", "lat": 30.0924011, "lng": 31.3296246, "types": ["church", "place_of_worship", "point_of_interest", "establishment"], "place_id": "ChIJH3kNmooVWBQRfL4z5mf-KXU"}, {"name": "وائل", "formatted_address": "8 Tella, Almazah, Heliopolis, Cairo Governorate, Egypt", "lat": 30.094678, "lng": 31.3300818, "types": ["point_of_interest", "store", "establishment"], "place_id": "ChIJzVMVI4sVWBQRWT_tSPmRixE"}, {"name": "البان سونستا", "formatted_address": "44 Salah El-Din St., Al Matar, El Nozha, Cairo Governorate, Egypt", "lat": 30.094678, "lng": 31.3300818, "types": ["point_of_interest", "establishment"], "place_id": "ChIJq6q6I4sVWBQRygeNkT7tU6U"}, {"name": "Happy Bady", "formatted_address": "43 Cleopatra, Almazah, Heliopolis, Cairo Governorate, Egypt", "lat": 30.0932879, "lng": 31.3298137, "types": ["point_of_interest", "establishment"], "place_id": "ChIJ0SKX64oVWBQR72faWppg7DA"}, {"name": "Gded * Gded", "formatted_address": "9 Tella, Almazah, Heliopolis, Cairo Governorate, Egypt", "lat": 30.0935508, "lng": 31.3307576, "types": ["clothing_store", "point_of_interest", "store", "establishment"], "place_id": "ChIJO9P6KYsVWBQRid3ZzvZDexk"}, {"name": "KYTHARA INSTITUTE FOR MUSIC", "formatted_address": "8-12 Tella, Almazah, Heliopolis, Cairo Governorate, Egypt", "lat": 30.0938965, "lng": 31.3305941, "types": ["point_of_interest", "establishment"], "place_id": "ChIJwbXP2YoVWBQRDz-MKs5EtF4"}, {"name": "البان قنديل", "formatted_address": "4 Tella, Almazah, Heliopolis, Cairo Governorate, Egypt", "lat": 30.0933056, "lng": 31.3302352, "types": ["supermarket", "grocery_or_supermarket", "food", "point_of_interest", "store", "establishment"], "place_id": "ChIJe1hi1YoVWBQRtV5CZoFOt5w"}, {"name": "نادي جوجانيان الارمن", "formatted_address": "10-12 Menof, Almazah, Heliopolis, Cairo Governorate, Egypt", "lat": 30.09318979999999, "lng": 31.330801, "types": ["point_of_interest", "establishment"], "place_id": "ChIJTVVlzooVWBQRIQFn0R7Y3gA"}, {"name": "Howeedy Engineering Consultations", "formatted_address": "No. 64 Beirut Street, Heliopolis، شارع Beirut, El-Nozha, Cairo Governorate 11341, Egypt", "lat": 30.0924596, "lng": 31.3289364, "types": ["point_of_interest", "establishment"], "place_id": "ChIJmY4WhIoVWBQRgt0p3NqmpxY"}, {"name": "Salah Al Din Square (Heliopolis)", "formatted_address": "Almazah, Heliopolis, Cairo Governorate, Egypt", "lat": 30.095142, "lng": 31.330309, "types": ["transit_station", "point_of_interest", "establishment"], "place_id": "ChIJx-7fO4sVWBQRUqgo5g4UHVw"}, {"name": "الكينج آخر فرصة", "formatted_address": "8 Tella, Almazah, Heliopolis, Cairo Governorate, Egypt", "lat": 30.0945353, "lng": 31.3302382, "types": ["point_of_interest", "store", "establishment"], "place_id": "ChIJX5VbJIsVWBQRF45Cxsxuprc"}, {"name": "Maadi Island", "formatted_address": "Dar Al Salam, Giza Governorate, Egypt", "lat": 29.965527, "lng": 31.239237, "types": ["restaurant", "tourist_attraction", "park", "food", "point_of_interest", "establishment"], "place_id": "ChIJwY7d5MFHWBQRl1nMXlW_tUY"}, {"name": "Capital Hospital Heliopolis", "formatted_address": "ميدان صلاح الدين، El-Bostan, Heliopolis, Cairo Governorate, Egypt", "lat": 30.0956967, "lng": 31.3309065, "types": ["hospital", "health", "point_of_interest", "establishment"], "place_id": "ChIJ-UxPTIsVWBQRtB4WWX5rP_Y"}, {"name": "Baron Hotel Heliopolis", "formatted_address": "14 Al Baroon, El-Montaza, Heliopolis, Cairo Governorate, Egypt", "lat": 30.0860748, "lng": 31.3314609, "types": ["lodging", "point_of_interest", "establishment"], "place_id": "ChIJUbVOACI-WBQRWsi5B7gYfxs"}, {"name": "Super Supplement Store", "formatted_address": "2nd floor of Gold's Gym, 18 Salah El-Din St., Almazah, Heliopolis, Cairo Governorate, Egypt", "lat": 30.0930111, "lng": 31.3322021, "types": ["point_of_interest", "establishment"], "place_id": "ChIJPTD34V4VWBQRj4DNogmhwPY"}, {"name": "Porto Heliopolis", "formatted_address": "Almazah, Heliopolis, Cairo Governorate, Egypt", "lat": 30.0827031, "lng": 31.348709, "types": ["lodging", "point_of_interest", "establishment"], "place_id": "ChIJR5FCXgE-WBQR471eyuZuvGw"}, {"name": "Cleopatra Hospital", "formatted_address": "39 Cleopatra Street, Opposite Maidan Salahuddin Square، Almazah, Heliopolis, Egypt", "lat": 30.0930721, "lng": 31.3298159, "types": ["hospital", "health", "point_of_interest", "establishment"], "place_id": "ChIJhdsOk4oVWBQR9Ar3ET-SLGQ"}, {"name": "جمعية السيدات المؤمنات", "formatted_address": "34 تلا، الماظة، قسم مصر الجديدة، محافظة القاهرة‬،، Egypt", "lat": 30.0940529, "lng": 31.3313359, "types": ["health", "point_of_interest", "establishment"], "place_id": "ChIJGcRgj7UVWBQRGLgAQY5-F0Q"}, {"name": "St. George clinic", "formatted_address": "12 Tella, Almazah, Heliopolis, Cairo Governorate, Egypt", "lat": 30.0938574, "lng": 31.3306764, "types": ["hospital", "health", "point_of_interest", "establishment"], "place_id": "ChIJxxEH14oVWBQRaGodlLig52U"}, {"name": "Radisson Blu Hotel, Cairo Heliopolis", "formatted_address": "Abdel Hamid Badawi St Heliopolis, Cairo Governorate 11787, Egypt", "lat": 30.1065093, "lng": 31.3753121, "types": ["lodging", "point_of_interest", "establishment"], "place_id": "ChIJQZJ8fWUWWBQRAUPO9I6SxPg"}, {"name": "Goganian Armenian Club", "formatted_address": "12 Menof, Almazah, Heliopolis, Cairo Governorate, Egypt", "lat": 30.0932746, "lng": 31.3310213, "types": ["point_of_interest", "establishment"], "place_id": "ChIJCVSTzYoVWBQRJfxwpMFLnns"}, {"name": "Aroma Flower", "formatted_address": "12 Tella, Almazah, Heliopolis, Cairo Governorate, Egypt", "lat": 30.0938712, "lng": 31.3306303, "types": ["florist", "point_of_interest", "store", "establishment"], "place_id": "ChIJ15uv24oVWBQRlPYakgMaoZ8"}, {"name": "Heliopolis Towers Hotel", "formatted_address": "El Shaheed Sayed Zakaria, Sheraton Al Matar, El Nozha, Cairo Governorate 11736, Egypt", "lat": 30.1074763, "lng": 31.3661798, "types": ["lodging", "point_of_interest", "establishment"], "place_id": "ChIJZ9p3820WWBQRmZh2M_MSzOQ"}, {"name": "(Heliopolis Public library)", "formatted_address": "Beirut, Almazah, Heliopolis, Cairo Governorate, Egypt", "lat": 30.090914, "lng": 31.3328428, "types": ["library", "point_of_interest", "establishment"], "place_id": "ChIJd3h9YvUVWBQR2Oi9DLQTI8E"}, {"name": "Greek Cultural Center", "formatted_address": "1 ميدان صلاح الدين، El-Bostan, Heliopolis, Cairo Governorate, Egypt", "lat": 30.0959701, "lng": 31.3316764, "types": ["point_of_interest", "establishment"], "place_id": "ChIJqUvOiKtAWBQRTyx5-5Qk4_4"}]