[{"name": "Hanin Jewelry", "formatted_address": "Talkha, El-Bostan, Heliopolis, Cairo Governorate, Egypt", "lat": 30.0953905, "lng": 31.3278906, "types": ["point_of_interest", "establishment"], "place_id": "ChIJIS-er4sVWBQR_gjSo7VmiWQ"}, {"name": "Berlant Jewelry", "formatted_address": "57 Othman Ibn Affan, Almazah, Heliopolis, Cairo Governorate, Egypt", "lat": 30.097082, "lng": 31.336968, "types": ["point_of_interest", "establishment"], "place_id": "ChIJXw3Q1_MVWBQRXtzfDqHro4c"}, {"name": "Bolbol Meat", "formatted_address": "شارع طلخا متفرع من هارون الرشيد, Al Gamea Sq., El-Bostan, Heliopolis, Cairo Governorate, Egypt", "lat": 30.0955828, "lng": 31.327562, "types": ["food", "point_of_interest", "establishment"], "place_id": "ChIJg6P8eKAVWBQRR0LhMTVkUNA"}, {"name": "Al-Hussain Mosque", "formatted_address": "Al-Mashhad Al-Hussaini شارع المشهد الحسين، شارع Hasan El-Adawy, امتداد، Egypt", "lat": 30.0476847, "lng": 31.2630585, "types": ["mosque", "tourist_attraction", "place_of_worship", "point_of_interest", "establishment"], "place_id": "ChIJtV4bG2A_WBQRVZjDa4cjz_E"}, {"name": "Palais D'or", "formatted_address": "4 shebin st.، El-Bostan, Heliopolis, Cairo Governorate, Egypt", "lat": 30.0956358, "lng": 31.330234, "types": ["jewelry_store", "point_of_interest", "store", "establishment"], "place_id": "ChIJq8JBVPMVWBQR9168FzmBb1k"}, {"name": "Adel Abd El Salam", "formatted_address": "8 Talkha, El-Bostan, Heliopolis, Cairo Governorate, Egypt", "lat": 30.0954478, "lng": 31.3276148, "types": ["jewelry_store", "point_of_interest", "store", "establishment"], "place_id": "ChIJ7dEAsIsVWBQRi6shlCPv4Ik"}, {"name": "Mahmoud Bayoumi", "formatted_address": "3 Talkha, El-Bostan, Heliopolis, Cairo Governorate, Egypt", "lat": 30.0952185, "lng": 31.3283321, "types": ["plumber", "point_of_interest", "establishment"], "place_id": "ChIJfQSrqYsVWBQRiJRoe6Y7Lro"}, {"name": "Ameer", "formatted_address": "8 Talkha, El-Bostan, Heliopolis, Cairo Governorate, Egypt", "lat": 30.0950481, "lng": 31.3277583, "types": ["book_store", "point_of_interest", "store", "establishment"], "place_id": "ChIJvYNzsosVWBQRG4xcOGa5LpU"}, {"name": "بسم الله الرحمن الرحيم", "formatted_address": "شارع طلخا حي المطرية، El Matareya, Egypt", "lat": 30.0914142, "lng": 31.2695789, "types": ["furniture_store", "home_goods_store", "point_of_interest", "store", "establishment"], "place_id": "ChIJ5yUx5vM_WBQRYL4mP-4IPwk"}, {"name": "منظفات فردوس الشيخ", "formatted_address": "شارع طلخا حي المطرية، El Matareya, Egypt", "lat": 30.0918348, "lng": 31.269602, "types": ["point_of_interest", "establishment"], "place_id": "ChIJz3oA4fM_WBQRziBDpurb1LE"}, {"name": "الدكتور", "formatted_address": "شارع طلخا حى، El-Zawya El-Hamraa, El Zawya El Hamra, Egypt", "lat": 30.0911244, "lng": 31.26922889999999, "types": ["point_of_interest", "establishment"], "place_id": "ChIJG6l47vM_WBQRB2C_DFfRUMo"}, {"name": "Halem Fahem", "formatted_address": "46 Beirut, El-Bostan, Heliopolis, Cairo Governorate 11341, Egypt", "lat": 30.0944877, "lng": 31.3271089, "types": ["jewelry_store", "point_of_interest", "store", "establishment"], "place_id": "ChIJh8YLSYoVWBQR6om9CuW6PhY"}, {"name": "العارف بالله للأدوات المنزليه", "formatted_address": "شارع طلخا حى، El-Zawya El-Hamraa, El Zawya El Hamra, Egypt", "lat": 30.0913652, "lng": 31.2693291, "types": ["home_goods_store", "point_of_interest", "store", "establishment"], "place_id": "ChIJQXJp7_M_WBQR54YAByIkcAk"}, {"name": "Rafla Jewelry", "formatted_address": "11 Ramsis, El-Montaza, Heliopolis, Cairo Governorate, Egypt", "lat": 30.090805, "lng": 31.3230259, "types": ["jewelry_store", "point_of_interest", "store", "establishment"], "place_id": "ChIJ_____yY-WBQRVLNTzbpybdE"}, {"name": "جزارة أولاد محمد أبو شوال", "formatted_address": "شارع طلخا حي المطرية، El Matareya, Egypt", "lat": 30.0914322, "lng": 31.26959799999999, "types": ["food", "point_of_interest", "store", "establishment"], "place_id": "ChIJXYc15vM_WBQRVVRnErVu-Kk"}, {"name": "طيور أبو ملك لجميع أنواع الطيور", "formatted_address": "شارع طلخا،، El Zawya El Hamra, Cairo Governorate, Egypt", "lat": 30.0882348, "lng": 31.2684963, "types": ["food", "point_of_interest", "store", "establishment"], "place_id": "ChIJGRKoX_M_WBQR3ay-btBi5Zk"}, {"name": "صيدلية الفيشاوى", "formatted_address": "٦٠ شارع طلخا، القصيرين،، الزاوية، Egypt", "lat": 30.0890987, "lng": 31.2688745, "types": ["pharmacy", "health", "point_of_interest", "store", "establishment"], "place_id": "ChIJ080Ae_M_WBQRKCP6MdMRwos"}, {"name": "الطاحونة", "formatted_address": "10 شارع الفتح متفرع من شارع طلخا الزاوية الحمراء - حي المطرية، El Matareya, Egypt", "lat": 30.09200049999999, "lng": 31.2692808, "types": ["point_of_interest", "store", "establishment"], "place_id": "ChIJYe1d4vM_WBQRb3uQRGoafVo"}, {"name": "البطل الرومانى", "formatted_address": "شارع طلخا حي المطرية قسم المطرية، El Zawya El Hamra, Egypt", "lat": 30.0917916, "lng": 31.2698173, "types": ["food", "point_of_interest", "store", "establishment"], "place_id": "ChIJa5_T3_M_WBQRXiNjWnFJ4N8"}, {"name": "طيورعباد الرحمن", "formatted_address": "شارع السوق، Talkha, El-Zawya El-Hamraa, Cairo Governorate, Egypt", "lat": 30.0937468, "lng": 31.2707279, "types": ["food", "point_of_interest", "store", "establishment"], "place_id": "ChIJaTcKBfE_WBQR0ZfG4dG_AEQ"}, {"name": "سوبر ماركت", "formatted_address": "شارع السوق، Talkha, الزاوية الحمراء،، Cairo Governorate, Egypt", "lat": 30.0937167, "lng": 31.270633, "types": ["shopping_mall", "point_of_interest", "establishment"], "place_id": "ChIJX1UFycA_WBQRRnHwRo3ivhM"}, {"name": "سرجة الطيب", "formatted_address": "شارع طلخا حى، El-Zawya El-Hamraa, El Zawya El Hamra, Cairo Governorate, Egypt", "lat": 30.0917603, "lng": 31.2698246, "types": ["grocery_or_supermarket", "food", "point_of_interest", "store", "establishment"], "place_id": "ChIJKdIt3vM_WBQR5FqZqcF9XO4"}, {"name": "مكتبة الحاج حسين", "formatted_address": "شارع طلخا حي المطرية، El Matareya, Egypt", "lat": 30.0910864, "lng": 31.2692211, "types": ["point_of_interest", "store", "establishment"], "place_id": "ChIJV9HR7fM_WBQRCjd8EBuKmv0"}, {"name": "أولاد أسامة لقطع غيار الموتوسيكلات", "formatted_address": "شارع طلخا،، El Zawya El Hamra, Egypt", "lat": 30.0903368, "lng": 31.26853719999999, "types": ["car_repair", "point_of_interest", "store", "establishment"], "place_id": "ChIJS95_iPM_WBQRuCRItFCxVto"}, {"name": "مصوغات مجوهرات الامانة", "formatted_address": "١ شارع طلخا، السوق، El-Zawya El-Hamraa, Cairo Governorate, Egypt", "lat": 30.0920475, "lng": 31.2697479, "types": ["jewelry_store", "point_of_interest", "store", "establishment"], "place_id": "ChIJBzjdX_E_WBQRauPIF3ZifsE"}, {"name": "El Saada", "formatted_address": "5 Talkha, El-Bostan, Heliopolis, Cairo Governorate, Egypt", "lat": 30.0957356, "lng": 31.32682999999999, "types": ["cafe", "food", "point_of_interest", "store", "establishment"], "place_id": "ChIJ06CLvIsVWBQR-PpQegvORrQ"}, {"name": "شركة العروسة للأقمشة والمفروشات", "formatted_address": "شارع طلخا حى، El-Zawya El-Hamraa, El Zawya El Hamra, Egypt", "lat": 30.0911842, "lng": 31.2692574, "types": ["furniture_store", "home_goods_store", "point_of_interest", "store", "establishment"], "place_id": "ChIJNW-K7vM_WBQRvwUz2t8y8cg"}, {"name": "أسماك أبو رومانى", "formatted_address": "شارع طلخا حى، El-Zawya El-Hamraa, El Zawya El Hamra, Egypt", "lat": 30.0917965, "lng": 31.2698052, "types": ["food", "point_of_interest", "store", "establishment"], "place_id": "ChIJUUPU3_M_WBQRCv4pFozP1o0"}, {"name": "جوهرة الشرق", "formatted_address": "شارع طلخا،، El Zawya El Hamra, Cairo Governorate, Egypt", "lat": 30.0890859, "lng": 31.2686629, "types": ["point_of_interest", "establishment"], "place_id": "ChIJVbaXfPM_WBQRplUK4eWBq7U"}, {"name": "العمدة لتركيب احدث انواع العطور", "formatted_address": "شارع طلخا، السوق، El Zawya El Hamra, Cairo Governorate, Egypt", "lat": 30.0923579, "lng": 31.2698263, "types": ["point_of_interest", "clothing_store", "store", "establishment"], "place_id": "ChIJ4U1mZ_E_WBQR2_iQG6uJbS8"}, {"name": "البان ماركت أنس", "formatted_address": "شارع طلخا حي المطرية، El Matareya, Egypt", "lat": 30.0914107, "lng": 31.2695477, "types": ["supermarket", "grocery_or_supermarket", "food", "point_of_interest", "store", "establishment"], "place_id": "ChIJdWk75vM_WBQRNk-IpsoSOEE"}, {"name": "أسواق الرضا", "formatted_address": "شارع طلخا،، El Zawya El Hamra, Cairo Governorate, Egypt", "lat": 30.0886804, "lng": 31.26864279999999, "types": ["supermarket", "grocery_or_supermarket", "food", "point_of_interest", "store", "establishment"], "place_id": "ChIJy97hY_M_WBQR1i7U8hJ6dXs"}, {"name": "كرم فون لخدمات المحمول", "formatted_address": "14 شارع الجيش، من ش طلخا القصيرين، El Zawya El Hamra, Cairo Governorate 11291, Egypt", "lat": 30.0977525, "lng": 31.272994, "types": ["point_of_interest", "store", "establishment"], "place_id": "ChIJL0yQolI_WBQRWVurnCDV4UM"}, {"name": "صيدلية د. سناء منصور", "formatted_address": "شارع طلخا حى، El-Zawya El-Hamraa, El Zawya El Hamra, Egypt", "lat": 30.0915906, "lng": 31.2685784, "types": ["pharmacy", "health", "point_of_interest", "store", "establishment"], "place_id": "ChIJ-SN79_M_WBQRZYHnjsG72mA"}, {"name": "سنتر أولاد ناجح", "formatted_address": "شارع طلخا حي المطرية، El Matareya, Egypt", "lat": 30.0912274, "lng": 31.2694773, "types": ["furniture_store", "home_goods_store", "point_of_interest", "store", "establishment"], "place_id": "ChIJByfY6PM_WBQRNqX19P7EnDc"}, {"name": "Arab African International Bank", "formatted_address": "33 El Hegaz St, El-Bostan, Heliopolis, Cairo Governorate, Egypt", "lat": 30.0991398, "lng": 31.32351, "types": ["atm", "bank", "finance", "point_of_interest", "establishment"], "place_id": "ChIJKXtExI4VWBQRDQjtHPQia-c"}, {"name": "فطير مشلتت الصعيدى", "formatted_address": "شارع طلخا حي المطرية، El Matareya, Egypt", "lat": 30.0917606, "lng": 31.26979279999999, "types": ["bakery", "food", "point_of_interest", "store", "establishment"], "place_id": "ChIJQcMp3vM_WBQRHEPLTj8FcJI"}, {"name": "من أحب لقاء الله أحب الله لقائه", "formatted_address": "أمام مسجد الحاج محمود، 8 شارع طلخا، القصيرين،، El Zawya El Hamra, Cairo Governorate, Egypt", "lat": 30.0889148, "lng": 31.2685472, "types": ["food", "point_of_interest", "store", "establishment"], "place_id": "ChIJDxsdY_M_WBQRZy6M9MYj44s"}, {"name": "Arab African International Bank - Western Union", "formatted_address": "Mandarine Koueider Pastry, 6 Baghdad St El Korba, Heliopolis, In Front Of, Cairo Governorate, Egypt", "lat": 30.0893493, "lng": 31.3217103, "types": ["atm", "bank", "finance", "point_of_interest", "establishment"], "place_id": "ChIJS-QebiY-WBQRykU8ORcllNs"}, {"name": "Cairo Scan Radiology & Labs", "formatted_address": "Next to the Adventist Church, 18 El-Qobba, El-Montaza, Heliopolis, Cairo Governorate, Egypt", "lat": 30.0939911, "lng": 31.3141073, "types": ["doctor", "health", "point_of_interest", "establishment"], "place_id": "ChIJ8yMFKCo-WBQRoQ-r7e9tuzw"}, {"name": "طيور أبو سيد لجميع أنواع الطيور", "formatted_address": "٦٥ شارع السوق طلخا بالزاوية الحمراء، الإسكندرية، Egypt", "lat": 30.0938527, "lng": 31.2704667, "types": ["pet_store", "point_of_interest", "store", "establishment"], "place_id": "ChIJm_XQGvE_WBQRT3ZUDUUTc4g"}, {"name": "مصنع عقل للصناعات المغذيه للسيارات", "formatted_address": "7 Dr Zaki Mobarak, Sherif, Elsahel, Cairo Governorate, Egypt", "lat": 30.0921605, "lng": 31.2476361, "types": ["point_of_interest", "establishment"], "place_id": "ChIJ___b0WxAWBQR5XeFsyl-s1I"}, {"name": "د.آية حسين الشاذلى", "formatted_address": "شارع السوق، Talkha, El-Zawya El-Hamraa, Cairo Governorate, Egypt", "lat": 30.0941561, "lng": 31.270577, "types": ["doctor", "health", "point_of_interest", "establishment"], "place_id": "ChIJzecjA_E_WBQRF3yLWRJlpAQ"}, {"name": "مسجد القصيرين", "formatted_address": "شارع جامع السنيه حى، El-Zawya El-Hamraa, El Zawya El Hamra, Cairo Governorate, Egypt", "lat": 30.0911372, "lng": 31.2701556, "types": ["mosque", "place_of_worship", "point_of_interest", "establishment"], "place_id": "ChIJo-igxPM_WBQRW5JhHV7x_jU"}, {"name": "مؤسسة الحمد لقطع غيار الاجهزة المنزليةوالتكيف", "formatted_address": "بلوك ٤١ خلف الإمبراطور بالزاوية الحمراء مدخل 1 شارع سوق، طلخا،، الزاوية الحمراء، قسم الزاوية الحمراء، محافظة القاهرة‬،، خلف الشركات،، Egypt", "lat": 30.09388239999999, "lng": 31.2707664, "types": ["home_goods_store", "point_of_interest", "store", "establishment"], "place_id": "ChIJA0QF-oE_WBQRmdxFnTWLDL4"}, {"name": "جنة طيور الأمانة", "formatted_address": "شارع السد العالي، Talkha, ،، El Zawya El Hamra, Cairo Governorate, Egypt", "lat": 30.0887526, "lng": 31.2684188, "types": ["pet_store", "point_of_interest", "store", "establishment"], "place_id": "ChIJjUMcYvM_WBQRnub5XzGdVvM"}, {"name": "El Ekhwa El Motahedin", "formatted_address": "شارع محمد خالد متفرع من السوق طلخا ،، El Zawya El Hamra, Cairo Governorate, Egypt", "lat": 30.093433, "lng": 31.2710191, "types": ["food", "point_of_interest", "store", "establishment"], "place_id": "ChIJ-W0uD_E_WBQRgZMsaYVMdLo"}, {"name": "مسجد الخازندارة", "formatted_address": "Menyat as Serg, Elsahel, Cairo Governorate, Egypt", "lat": 30.0829859, "lng": 31.2457159, "types": ["mosque", "place_of_worship", "point_of_interest", "establishment"], "place_id": "ChIJNzEeAWZAWBQRJSSfayigUz4"}, {"name": "محل بيتزا وحووشي اسكندراني", "formatted_address": "بلوك ٤١ خلف الإمبراطور بالزاوية الحمراء مجخل 1 شارع سوق، طلخا،، Egypt", "lat": 30.0939235, "lng": 31.2707903, "types": ["restaurant", "food", "point_of_interest", "establishment"], "place_id": "ChIJ7fCFogs_WBQRE_2fxxAqCUY"}, {"name": "Rizkalla", "formatted_address": "102 Al Merghani, El-Montaza, Heliopolis, Cairo Governorate, Egypt", "lat": 30.0852743, "lng": 31.3312881, "types": ["home_goods_store", "point_of_interest", "store", "establishment"], "place_id": "ChIJ-UqC8x4-WBQR7kqIBohdVcA"}, {"name": "مسجد مستشفى بولاق العام", "formatted_address": "Boulaq Ad Dakrour, Bolak Al Dakrour, Giza Governorate, Egypt", "lat": 30.0285907, "lng": 31.199112, "types": ["mosque", "place_of_worship", "point_of_interest", "establishment"], "place_id": "ChIJ55rqmMZGWBQRevfYW_8_m9w"}, {"name": "Carina", "formatted_address": "461 شارع الملك فيصل, 461 الملك فيصل, Bolak Al Dakrour, Egypt", "lat": 30.0110645, "lng": 31.1927984, "types": ["point_of_interest", "establishment"], "place_id": "ChIJ2ZhIjAxHWBQRC8Gt-3siqbs"}, {"name": "Cairo Scan", "formatted_address": "7A Farid Smeika Street - Infront of Gate 3 of El Shams Club Between Hegaz square and، Al Alf Maskan Square, Egypt", "lat": 30.1170131, "lng": 31.3411774, "types": ["doctor", "health", "point_of_interest", "establishment"], "place_id": "ChIJkxcP4cQVWBQRrZ0KTVvTs7k"}, {"name": "ماكينة صراف آلي البنك العربي الأفريقي الدولي", "formatted_address": "شارع أبو بكر الصديق ميدان، Haroun El-Rashid, El Nozha, Cairo Governorate, Egypt", "lat": 30.10027779999999, "lng": 31.3349822, "types": ["atm", "finance", "point_of_interest", "establishment"], "place_id": "ChIJrcfxcPIVWBQRUNLOS39L2Jw"}, {"name": "Gaara Establishment For Import & Export", "formatted_address": "17 ش احمد ماهر، El-Darb El-Ahmar, Cairo Governorate, Egypt", "lat": 30.043444, "lng": 31.255014, "types": ["point_of_interest", "establishment"], "place_id": "ChIJyf9WYqRAWBQRQpxTmzLhe1Y"}, {"name": "ملعب الحلوانى", "formatted_address": "شارع طلخا - شربين، جوجر، طلخا، الدقهلية،، Egypt", "lat": 31.0536153, "lng": 31.359317, "types": ["point_of_interest", "establishment"], "place_id": "ChIJU3lcZTad9xQR7y3YBnxSGyE"}, {"name": "بنك فيصل الاسلامى المصرى", "formatted_address": "شارع السيد مسعود قسم الزيتون، AZ Zaytoun Al Gharbeyah, Cairo Governorate, Egypt", "lat": 30.1108567, "lng": 31.3041388, "types": ["atm", "finance", "point_of_interest", "establishment"], "place_id": "ChIJTwwGGHcVWBQR1j42wTazuMg"}, {"name": "نادي جاردينيا لضباط الحرب الكيميائية", "formatted_address": "Suez Rd, Ezbet el-Haggana, Nasr City, Cairo Governorate, Egypt", "lat": 30.0800235, "lng": 31.4006213, "types": ["point_of_interest", "establishment"], "place_id": "ChIJk3aeOtMXWBQRvOwVstRIZ_0"}, {"name": "معامل البرج", "formatted_address": "115 ش سليم الاول، Mansheya El-Tahrir, Ein Shams, Cairo Governorate, Egypt", "lat": 30.1184501, "lng": 31.3205392, "types": ["health", "point_of_interest", "establishment"], "place_id": "ChIJcQjtZZkVWBQRqR56STx5-aU"}, {"name": "Rizkalla", "formatted_address": "نبيل الوقاد، Al Golf, Nasr City, Cairo Governorate, Egypt", "lat": 30.0815716, "lng": 31.3383746, "types": ["point_of_interest", "establishment"], "place_id": "ChIJFQpCNRo-WBQRjm-c5BX9-CY"}]