[{"name": "El Haj Mahrous Sons Stationery", "formatted_address": "القاهرة, سراى القبة، Egypt", "lat": 30.093269, "lng": 31.304263, "types": ["point_of_interest", "establishment"], "place_id": "ChIJH_V8ddQ_WBQRyxjgk2NTh60"}, {"name": "Mohamed Abdel Azim Furniture", "formatted_address": "15 ش بنى طى، سراى القبة، Zeitoun, Cairo Governorate, Egypt", "lat": 30.093459, "lng": 31.304887, "types": ["point_of_interest", "establishment"], "place_id": "ChIJR2YQetQ_WBQRx3nb5owx_ho"}, {"name": "Ramzy", "formatted_address": "القاهرة, سراى القبة، Egypt", "lat": 30.091835, "lng": 31.30462399999999, "types": ["point_of_interest", "establishment"], "place_id": "ChIJizeEvdM_WBQRMypG0u46kzw"}, {"name": "Mostafa Tolba Workshop", "formatted_address": "القاهرة, سراى القبة، Egypt", "lat": 30.093269, "lng": 31.304263, "types": ["point_of_interest", "establishment"], "place_id": "ChIJH_V8ddQ_WBQRXt5XotUf2M0"}, {"name": "Allam", "formatted_address": "القاهرة, سراى القبة، Egypt", "lat": 30.093575, "lng": 31.304437, "types": ["point_of_interest", "establishment"], "place_id": "ChIJGzblc9Q_WBQRRtMN8Y4ZDoc"}, {"name": "Egypt's Daughter Association", "formatted_address": "90 Ibn Sandar St.، SARAY EL KOBA، Zeitoun, Cairo Governorate, Egypt", "lat": 30.094, "lng": 31.3048, "types": ["point_of_interest", "establishment"], "place_id": "ChIJ3aC07dE_WBQRCBTfLKzzM48"}, {"name": "United Equipment Co.", "formatted_address": "12 Ibn Sender Sq., El-Qobba Bridge, Zeitoun, Cairo Governorate, Egypt", "lat": 30.0920412, "lng": 31.303645, "types": ["point_of_interest", "establishment"], "place_id": "ChIJ3aC07dE_WBQRXxQHjShIDCE"}, {"name": "Mekka Butchery", "formatted_address": "القاهرة, سراى القبة، Egypt", "lat": 30.09254, "lng": 31.305276, "types": ["point_of_interest", "establishment"], "place_id": "ChIJbR6Yg9M_WBQR7WE_wNCcr4I"}, {"name": "Abou El Fotouh", "formatted_address": "القاهرة, سراى القبة، Egypt", "lat": 30.093554, "lng": 31.303632, "types": ["point_of_interest", "establishment"], "place_id": "ChIJwZilCdQ_WBQRfofeovdMM-w"}, {"name": "مسجد الشفاء", "formatted_address": "الفريق محمود شكري، الزيتون الشرقية، الزيتون،، Cairo Governorate, Egypt", "lat": 30.0917061, "lng": 31.3034108, "types": ["mosque", "place_of_worship", "point_of_interest", "establishment"], "place_id": "ChIJscOe5Do_WBQRtgyl3EaFzcA"}, {"name": "Misr Group For Office Equipment", "formatted_address": "10 ش الشيخ عليش، حمامات القبة، Zeitoun, Cairo Governorate, Egypt", "lat": 30.091682, "lng": 31.3023754, "types": ["point_of_interest", "establishment"], "place_id": "ChIJ-XJmfNE_WBQRD13dIDMsQ_w"}, {"name": "U.Turnret", "formatted_address": "AZ Zaytoun Ash Sharqeyah, AZ Zaytoun, Cairo Governorate, Egypt", "lat": 30.0930573, "lng": 31.3047271, "types": ["point_of_interest", "establishment"], "place_id": "ChIJkT0_iNM_WBQRW0lJ-fmTby4"}, {"name": "Tabark", "formatted_address": "AZ Zaytoun Ash Sharqeyah, AZ Zaytoun, Cairo Governorate, Egypt", "lat": 30.0927885, "lng": 31.3051048, "types": ["point_of_interest", "establishment"], "place_id": "ChIJIQjAhtM_WBQROYSNjdKz8BM"}, {"name": "Egyptian Co. For Office Equipment", "formatted_address": "10 متفرع من ش ابن سندر، حمامات القبة، Zeitoun, Cairo Governorate, Egypt", "lat": 30.091693, "lng": 31.301762, "types": ["point_of_interest", "establishment"], "place_id": "ChIJb8H0PNI_WBQRyB2puw5-SP8"}, {"name": "Soma El Nil", "formatted_address": "AZ Zaytoun Ash Sharqeyah, AZ Zaytoun, Cairo Governorate, Egypt", "lat": 30.0931089, "lng": 31.3041463, "types": ["point_of_interest", "establishment"], "place_id": "ChIJy2wpi9M_WBQRXpqlSuL4dBU"}, {"name": "Alameya Motors", "formatted_address": "القاهرة, سراى القبة، Egypt", "lat": 30.091874, "lng": 31.303407, "types": ["point_of_interest", "establishment"], "place_id": "ChIJL7tUw9M_WBQRrWR417B2xm4"}, {"name": "Amira Stationery", "formatted_address": "القاهرة, سراى القبة، Egypt", "lat": 30.092058, "lng": 31.302822, "types": ["point_of_interest", "establishment"], "place_id": "ChIJw8w639M_WBQR6rBz_xk0RRM"}, {"name": "Scientific Center For Projector", "formatted_address": "11 Ibn Sinder St.، SARAY EL KOBA، Zeitoun, Cairo Governorate, Egypt", "lat": 30.0931, "lng": 31.3045, "types": ["point_of_interest", "establishment"], "place_id": "ChIJ3aC07dE_WBQRSoAdIREFl44"}, {"name": "Abdel Hadi Mahmoud Al Ansary", "formatted_address": "86 Ibn Sinder St.، SARAY EL KOBA، Zeitoun, Cairo Governorate, Egypt", "lat": 30.0934, "lng": 31.3044, "types": ["point_of_interest", "establishment"], "place_id": "ChIJb8H0PNI_WBQRb7-cVHRAi0Y"}, {"name": "مسجد المصطفى", "formatted_address": "القاهرة, سراى القبة، Egypt", "lat": 30.0928809, "lng": 31.3031809, "types": ["mosque", "place_of_worship", "point_of_interest", "establishment"], "place_id": "ChIJBcQb4dM_WBQReoI0Rl4lNug"}, {"name": "Atef El Ghandour", "formatted_address": "AZ Zaytoun Ash Sharqeyah, AZ Zaytoun, Cairo Governorate, Egypt", "lat": 30.0914946, "lng": 31.3019851, "types": ["point_of_interest", "establishment"], "place_id": "ChIJg0veedE_WBQRQTbFwQQ-21s"}, {"name": "Taba Tours", "formatted_address": "8 ش السينما، شبرا الخيمة، Zeitoun, Al Qalyubia Governorate, Egypt", "lat": 30.0935673, "lng": 31.3035374, "types": ["point_of_interest", "establishment"], "place_id": "ChIJq6paCNQ_WBQRcuDcTxe0nQQ"}, {"name": "Integrated Inks", "formatted_address": "7 Bani tay St.، SARAY EL KOBA، Zeitoun, Cairo Governorate, Egypt", "lat": 30.0919032, "lng": 31.30284469999999, "types": ["point_of_interest", "establishment"], "place_id": "ChIJLf8Y2dM_WBQRMBTWoMYFr7Y"}, {"name": "San Beter", "formatted_address": "القاهرة, سراى القبة، Egypt", "lat": 30.091874, "lng": 31.303407, "types": ["point_of_interest", "establishment"], "place_id": "ChIJL7tUw9M_WBQRzW3see6m8XQ"}, {"name": "Consulting For General Supplies", "formatted_address": "11 ش ابن سندر، سراى القبة، Zeitoun, Cairo Governorate, Egypt", "lat": 30.093223, "lng": 31.304469, "types": ["point_of_interest", "establishment"], "place_id": "ChIJb8H0PNI_WBQRxOmfxCIbtO4"}, {"name": "Marwan", "formatted_address": "القاهرة, سراى القبة، Egypt", "lat": 30.09242, "lng": 31.303077, "types": ["point_of_interest", "establishment"], "place_id": "ChIJvQcp59M_WBQRedDo6wNUolY"}, {"name": "مستورد ماكينات تصوير والات الطابعة والفاكسات", "formatted_address": "محمود شكري، الزيتون الشرقية، الزيتون،، Cairo Governorate, Egypt", "lat": 30.0920955, "lng": 31.3042985, "types": ["point_of_interest", "establishment"], "place_id": "ChIJ8wxtUyw_WBQR2HDQj12zttY"}, {"name": "El Amaan Electric", "formatted_address": "القاهرة, سراى القبة، Egypt", "lat": 30.09154699999999, "lng": 31.304432, "types": ["point_of_interest", "establishment"], "place_id": "ChIJtQNQudM_WBQR3tVqleOO92E"}, {"name": "Ittihadia Palace", "formatted_address": "Al Nadi، El-Montaza, Heliopolis, Cairo Governorate, Egypt", "lat": 30.0888643, "lng": 31.3193929, "types": ["tourist_attraction", "premise", "point_of_interest", "establishment"], "place_id": "ChIJuftqUS8-WBQRtM7fDk0QcPk"}, {"name": "Nada Glass", "formatted_address": "6 ش ابن مروان، حمامات القبة، Zeitoun, Cairo Governorate, Egypt", "lat": 30.091477, "lng": 31.304887, "types": ["point_of_interest", "establishment"], "place_id": "ChIJv61Zo9M_WBQRfj3JsJ9Ucxo"}, {"name": "Shahir", "formatted_address": "القاهرة, سراى القبة، Egypt", "lat": 30.092638, "lng": 31.303882, "types": ["point_of_interest", "establishment"], "place_id": "ChIJn-aW7dM_WBQRX10U8wgtJw0"}, {"name": "محل موسى لاصلاح الاحذية", "formatted_address": "الفريق محمود شكري، الزيتون الشرقية، الزيتون،، Cairo Governorate, Egypt", "lat": 30.0926297, "lng": 31.3040685, "types": ["clothing_store", "point_of_interest", "store", "establishment"], "place_id": "ChIJJf5zEew_WBQRaXCjFaeOpfg"}, {"name": "Lobna", "formatted_address": "AZ Zaytoun Ash Sharqeyah, AZ Zaytoun, Cairo Governorate, Egypt", "lat": 30.0925958, "lng": 31.3029117, "types": ["point_of_interest", "establishment"], "place_id": "ChIJ-TPg49M_WBQR1FHcHqISOQM"}, {"name": "Our Lady of Heliopolis Co-Cathedral", "formatted_address": "Nazih Khalifa crossroad، Al Ahram, Heliopolis, Cairo Governorate, Egypt", "lat": 30.0935707, "lng": 31.3251828, "types": ["church", "place_of_worship", "point_of_interest", "establishment"], "place_id": "ChIJJdgh-okVWBQR5TqTmKuQ0IM"}, {"name": "Ali Baba", "formatted_address": "AZ Zaytoun Ash Sharqeyah, AZ Zaytoun, Cairo Governorate, Egypt", "lat": 30.0909936, "lng": 31.3038354, "types": ["point_of_interest", "establishment"], "place_id": "ChIJuRwoytM_WBQRSFA4EbaFvJw"}, {"name": "مطعم قاصد كريم", "formatted_address": "23 El-Farik Mahmoud Shokry, El-Zaytoun Sharkeya, Zeitoun, Cairo Governorate, Egypt", "lat": 30.095483, "lng": 31.3061718, "types": ["restaurant", "food", "point_of_interest", "establishment"], "place_id": "ChIJSU58AdU_WBQRKGkOdb2bnVY"}, {"name": "الشركة الهندسية للمقاولات و التجارة", "formatted_address": "القاهرة, حمامات القبة، Egypt", "lat": 30.0926169, "lng": 31.3043075, "types": ["general_contractor", "point_of_interest", "establishment"], "place_id": "ChIJY40q89M_WBQRVbw8f2Tw-jE"}, {"name": "مسجد الرحمن", "formatted_address": "القاهرة, سراى القبة، Toman Bai, Zeitoun, Cairo Governorate, Egypt", "lat": 30.0934155, "lng": 31.3040201, "types": ["mosque", "place_of_worship", "point_of_interest", "establishment"], "place_id": "ChIJmTwCM9I_WBQR-iOleQsNioE"}, {"name": "International Co. For Office Equipment - ICOE", "formatted_address": "28 ش الفريق محمود شكرى، El-Qobba Bridge, Zeitoun, Cairo Governorate, Egypt", "lat": 30.0922491, "lng": 31.3037589, "types": ["store", "point_of_interest", "establishment"], "place_id": "ChIJZQSA6dM_WBQRrw_RE3egebs"}, {"name": "مكتب فوزى محمد فؤاد", "formatted_address": "شارع طومان باى ، سراى القبة، قسم الزيتون ،، Egypt", "lat": 30.0910156, "lng": 31.3043671, "types": ["lawyer", "point_of_interest", "establishment"], "place_id": "ChIJsxyUttM_WBQRauAYOY23MZ8"}, {"name": "مارفن سولار للمقاولات وانظمة الطاقة الشمسية", "formatted_address": "بني مروان، الزيتون الشرقية، الزيتون،، Cairo Governorate, Egypt", "lat": 30.0923176, "lng": 31.3037188, "types": ["point_of_interest", "establishment"], "place_id": "ChIJrzmTgA0_WBQRPhmKTsAKmm0"}, {"name": "El Tahrir Bakery", "formatted_address": "القاهرة, سراى القبة، Egypt", "lat": 30.093269, "lng": 31.304263, "types": ["bakery", "food", "point_of_interest", "store", "establishment"], "place_id": "ChIJH_V8ddQ_WBQRCbpCMphf4tM"}, {"name": "مدرسة الشهيد عقيد/ وليد محمود محمد الصادق الثانوية العسكرية بنين", "formatted_address": "شارع ابن سندر، 5, Zeitoun, Cairo Governorate, Egypt", "lat": 30.0915535, "lng": 31.3039397, "types": ["secondary_school", "school", "point_of_interest", "establishment"], "place_id": "ChIJfdFDxtM_WBQRJ4b8a_BuwZE"}, {"name": "5alto", "formatted_address": "القاهرة, سراى القبة،, El-Zaytoun Sharkeya, Zeitoun, Cairo Governorate, Egypt", "lat": 30.0919338, "lng": 31.3048574, "types": ["point_of_interest", "establishment"], "place_id": "ChIJdRCBmig_WBQR2GT3wjjlOEc"}, {"name": "علام", "formatted_address": "شارع ابن سندر، سراى القبة، قسم، Zeitoun, Cairo Governorate, Egypt", "lat": 30.0924031, "lng": 31.3037325, "types": ["point_of_interest", "clothing_store", "store", "establishment"], "place_id": "ChIJOcJT6dM_WBQR3M7T_qYZ1Ig"}, {"name": "نقطة قصر القبة", "formatted_address": "شارع El-Farik Mahmoud Shokry, El-Zaytoun Sharkeya, Zeitoun, Cairo Governorate, Egypt", "lat": 30.0923176, "lng": 31.3038083, "types": ["lodging", "point_of_interest", "establishment"], "place_id": "ChIJL0ix0RM_WBQRi0c1Kjwpixc"}, {"name": "Kidzinia Nursery", "formatted_address": "شارع طومان باى ، سراى القبة، قسم، Zeitoun, Cairo Governorate, Egypt", "lat": 30.0918157, "lng": 31.30505909999999, "types": ["school", "point_of_interest", "establishment"], "place_id": "ChIJB32SmNM_WBQRVQc0VJrkwwc"}, {"name": "Feteria City", "formatted_address": "شارع بنى طى، Saraya Al Koba, قسم الزيتون، Cairo Governorate, Egypt", "lat": 30.0935693, "lng": 31.304464, "types": ["restaurant", "food", "point_of_interest", "establishment"], "place_id": "ChIJSSbjc9Q_WBQR4yTrmn3uXrI"}, {"name": "مكتبات مكه", "formatted_address": "شارع ابن سندر ، سراى القبة، قسم، Zeitoun, Cairo Governorate, Egypt", "lat": 30.0928011, "lng": 31.30432089999999, "types": ["point_of_interest", "store", "establishment"], "place_id": "ChIJUylajNM_WBQRQmDobMeehBI"}, {"name": "أبو غريبة", "formatted_address": "شارع كاظم اغا ، سراى القبة، قسم، Zeitoun, Cairo Governorate, Egypt", "lat": 30.0923303, "lng": 31.3054984, "types": ["point_of_interest", "store", "establishment"], "place_id": "ChIJ2yG7gtM_WBQRrz_v6iEaQkA"}, {"name": "دكتور حسام شكرى محمد", "formatted_address": "5 شارع النادي، إمتداد شارع الميرغنى، قريب من نادى هليوبوليس، روكسي 02 26966900, Egypt", "lat": 30.0903383, "lng": 31.3137991, "types": ["doctor", "health", "point_of_interest", "establishment"], "place_id": "ChIJ-RLRZIU_WBQReYf7l_7pIsQ"}, {"name": "مكتبة ابن سندر", "formatted_address": "شارع ابن سندر ، سراى القبة، قسم، Zeitoun, Cairo Governorate, Egypt", "lat": 30.0932905, "lng": 31.3043362, "types": ["point_of_interest", "store", "establishment"], "place_id": "ChIJe3mAddQ_WBQRM2eck_zPIY0"}, {"name": "Cam Market", "formatted_address": "80 أ شارع ابن سيندر، حمامات، القبة، الزيتون،، ابن سندر، محافظة القاهرة‬،، Egypt", "lat": 30.0926141, "lng": 31.3040567, "types": ["electronics_store", "home_goods_store", "point_of_interest", "store", "establishment"], "place_id": "ChIJhyMQ51UXWBQRi_MshpBqOFo"}, {"name": "مؤسسة محمود مختار الهلباوى", "formatted_address": "شارع ابن سندر ، سراى القبة، قسم، Cairo Governorate, Egypt", "lat": 30.0911357, "lng": 31.3034639, "types": ["lawyer", "point_of_interest", "establishment"], "place_id": "ChIJ6ZTuzdM_WBQRNPu3A-a_XEs"}, {"name": "دكتور محمد محمود عبد الحميد", "formatted_address": "٤ طومان باي -برج السماح - الدور الثاني EG, Egypt", "lat": 30.0908318, "lng": 31.30384279999999, "types": ["doctor", "health", "point_of_interest", "establishment"], "place_id": "ChIJbSq-Wfs_WBQRbfe4MsjuPTc"}, {"name": "الدولية للعقارات", "formatted_address": "شارع ابن سندر ، سراى القبة، قسم، Zeitoun, Cairo Governorate, Egypt", "lat": 30.0909437, "lng": 31.3031866, "types": ["real_estate_agency", "point_of_interest", "establishment"], "place_id": "ChIJbTkt09M_WBQRAixQB4eUjl4"}, {"name": "مسجد السرور", "formatted_address": "ش سكة بني طي، Saraya Al Koba, قسم الزيتون، Cairo Governorate, Egypt", "lat": 30.093222, "lng": 31.30371229999999, "types": ["mosque", "place_of_worship", "point_of_interest", "establishment"], "place_id": "ChIJF5aI9tM_WBQRdFR4w_4hb0M"}, {"name": "الرحمة للمستلزمات الطبية", "formatted_address": "شارع El-Farik Mahmoud Shokry, El-Zaytoun Sharkeya, Zeitoun, Cairo Governorate, Egypt", "lat": 30.0922491, "lng": 31.3037589, "types": ["health", "point_of_interest", "store", "establishment"], "place_id": "ChIJcccxYMY_WBQRYWObgT1_gxA"}, {"name": "SEPS Tok", "formatted_address": "AZ Zaytoun Ash Sharqeyah, AZ Zaytoun, Cairo Governorate, Egypt", "lat": 30.0925189, "lng": 31.3046546, "types": ["school", "point_of_interest", "establishment"], "place_id": "ChIJT00rjtM_WBQRrTdCVJl7GBE"}, {"name": "Elsmah", "formatted_address": "Mansheyat Al Bakri, Heliopolis, Cairo Governorate, Egypt", "lat": 30.0910008, "lng": 31.3050346, "types": ["point_of_interest", "establishment"], "place_id": "ChIJxY0Cr9M_WBQRrTLV4qQOPQs"}]