[{"name": "El Khawaga", "formatted_address": "11 Wahba Ghobrial, Almazah, Heliopolis, Cairo Governorate, Egypt", "lat": 31.3517843, "types": ["point_of_interest", "establishment"], "place_id": "ChIJc7xZhP8VWBQRP0BlL_tb7P8"}, {"name": "Baron Empain Palace", "formatted_address": "El-Orouba, El-Montaza, Heliopolis, Cairo Governorate 11757, Egypt", "lat": 31.3303332, "types": ["point_of_interest", "establishment"], "place_id": "ChIJ1_GM8iE-WBQRLNVi-RT7vDA"}, {"name": "منزل محمد يوسف", "formatted_address": "9 وهبة غبريال، الماظة، قسم مصر الجديدة،، Cairo Governorate, Egypt", "lat": 31.3516726, "types": ["lodging", "point_of_interest", "establishment"], "place_id": "ChIJebfLHNAVWBQR8bMv6qtQpIQ"}, {"name": "Hluoplis-Home Tools", "formatted_address": "7 Moheb Kasem, Almazah, Heliopolis, Cairo Governorate, Egypt", "lat": 31.351371, "types": ["point_of_interest", "establishment"], "place_id": "ChIJ--Regv8VWBQRYpfkqhc7K6M"}, {"name": "Ittihadia Palace", "formatted_address": "Al Nadi، El-Montaza, Heliopolis, Cairo Governorate, Egypt", "lat": 31.3193929, "types": ["tourist_attraction", "premise", "point_of_interest", "establishment"], "place_id": "ChIJuftqUS8-WBQRtM7fDk0QcPk"}, {"name": "Bon Voyage", "formatted_address": "16 Adly, Al Fawalah, Abdeen, Cairo Governorate, Egypt", "lat": 31.244439, "types": ["tourist_attraction", "point_of_interest", "establishment"], "place_id": "ChIJJZ3TEL5AWBQRc-PhG_sO-S0"}, {"name": "Our Lady of Heliopolis Co-Cathedral", "formatted_address": "Nazih Khalifa crossroad، Al Ahram, Heliopolis, Cairo Governorate, Egypt", "lat": 31.3251828, "types": ["church", "place_of_worship", "point_of_interest", "establishment"], "place_id": "ChIJJdgh-okVWBQR5TqTmKuQ0IM"}, {"name": "Al Hassan WA Al Hossin", "formatted_address": "2 Wahba Ghobrial, Almazah, Heliopolis, Cairo Governorate, Egypt", "lat": 31.3511923, "types": ["pharmacy", "health", "point_of_interest", "store", "establishment"], "place_id": "ChIJvSEVf_8VWBQRvPYPZY1Q14E"}, {"name": "The Hanging Church", "formatted_address": "Kom Ghorab, Old Cairo, Cairo Governorate, Egypt", "lat": 31.2301826, "types": ["church", "tourist_attraction", "place_of_worship", "point_of_interest", "establishment"], "place_id": "ChIJn3WoRhBHWBQRuhsCgung4tQ"}, {"name": "Abo Ali-Haberdashery", "formatted_address": "Almazah, Heliopolis, Cairo Governorate, Egypt", "lat": 31.3519589, "types": ["point_of_interest", "establishment"], "place_id": "ChIJqZBOhf8VWBQR36YKL91vncs"}, {"name": "Ahmed Afifi", "formatted_address": "6 ش عبد الله محمد، Almazah, Heliopolis, Cairo Governorate, Egypt", "lat": 31.3520213, "types": ["point_of_interest", "establishment"], "place_id": "ChIJvXoKiP8VWBQRCox2dGstXx0"}, {"name": "Porto Heliopolis", "formatted_address": "Almazah, Heliopolis, Cairo Governorate, Egypt", "lat": 31.348709, "types": ["lodging", "point_of_interest", "establishment"], "place_id": "ChIJR5FCXgE-WBQR471eyuZuvGw"}, {"name": "El Antare Fone", "formatted_address": "11 Wahba Ghobrial, Almazah, Heliopolis, Cairo Governorate, Egypt", "lat": 31.3517843, "types": ["point_of_interest", "establishment"], "place_id": "ChIJkzhchP8VWBQRDZvW6UCoTKE"}, {"name": "Fine Arts", "formatted_address": "1 ش الشهيد مهيب قاسم، Al Gazirah Al Gadidah, Heliopolis, Cairo Governorate, Egypt", "lat": 31.351088, "types": ["point_of_interest", "establishment"], "place_id": "ChIJdbrRfv8VWBQRu7k6n7gD6zY"}, {"name": "TAA TAA", "formatted_address": "Almazah, Heliopolis, Cairo Governorate, Egypt", "lat": 31.3514373, "types": ["point_of_interest", "establishment"], "place_id": "ChIJVXzFnf8VWBQRSzevDK8dULc"}, {"name": "Saad Group", "formatted_address": "295 Omar Ebn El Khattab St.، EL NOZHA EL GADIDA، Heliopolis, Cairo Governorate, Egypt", "lat": 31.3511914, "types": ["point_of_interest", "establishment"], "place_id": "ChIJGbbwwvYVWBQRLHJqLVNlAAw"}, {"name": "Shaheer", "formatted_address": "Almazah, Heliopolis, Cairo Governorate, Egypt", "lat": 31.3519299, "types": ["point_of_interest", "establishment"], "place_id": "ChIJbTXth_8VWBQR1Lu_v6p8OW4"}, {"name": "مسجد العمال بألماظة", "formatted_address": "Almazah, Heliopolis, Cairo Governorate, Egypt", "lat": 31.3517943, "types": ["mosque", "place_of_worship", "point_of_interest", "establishment"], "place_id": "ChIJu54Smf8VWBQRm2Ho54i0iFk"}, {"name": "Citystars Heliopolis", "formatted_address": "Citystars, Cairo Governorate 11771, Egypt", "lat": 31.3458082, "types": ["shopping_mall", "point_of_interest", "establishment"], "place_id": "ChIJo0ecE_gVWBQRGGrouhZFdME"}, {"name": "Maadi Island", "formatted_address": "Dar Al Salam, Giza Governorate, Egypt", "lat": 31.239237, "types": ["restaurant", "tourist_attraction", "park", "food", "point_of_interest", "establishment"], "place_id": "ChIJwY7d5MFHWBQRl1nMXlW_tUY"}, {"name": "Radisson Blu Hotel, Cairo Heliopolis", "formatted_address": "Abdel Hamid Badawi St Heliopolis, Cairo Governorate 11787, Egypt", "lat": 31.3753121, "types": ["lodging", "point_of_interest", "establishment"], "place_id": "ChIJQZJ8fWUWWBQRAUPO9I6SxPg"}, {"name": "Heliopolis Towers Hotel", "formatted_address": "El Shaheed Sayed Zakaria, Sheraton Al Matar, El Nozha, Cairo Governorate 11736, Egypt", "lat": 31.3661798, "types": ["lodging", "point_of_interest", "establishment"], "place_id": "ChIJZ9p3820WWBQRmZh2M_MSzOQ"}, {"name": "City Centre Almaza", "formatted_address": "Passage Inside Almaza Airport, Sheraton Al Matar, El Nozha, Cairo Governorate, Egypt", "lat": 31.3651812, "types": ["shopping_mall", "point_of_interest", "establishment"], "place_id": "ChIJae0gF_g9WBQRz6pWyx0wl7U"}, {"name": "Panorama", "formatted_address": "2 Othman Hasan, Almazah, Heliopolis, Cairo Governorate, Egypt", "lat": 31.3512482, "types": ["point_of_interest", "establishment"], "place_id": "ChIJ97iSf_8VWBQRnn91S0O4Dxw"}, {"name": "Computer & Communication Concept - C & CC", "formatted_address": "6 Aflaton St.، Masaken Al Mohandesin, Heliopolis, Cairo Governorate, Egypt", "lat": 31.344988, "types": ["point_of_interest", "establishment"], "place_id": "ChIJVznwLfEVWBQR_2KCGtndzME"}, {"name": "صوت الفن", "formatted_address": "16 Adly, Bab Al Louq, Abdeen, Cairo Governorate, Egypt", "lat": 31.244439, "types": ["point_of_interest", "establishment"], "place_id": "ChIJ__8vEb5AWBQRqaCYbvGsNWU"}, {"name": "Baron Hotel Heliopolis", "formatted_address": "14 Al Baroon, El-Montaza, Heliopolis, Cairo Governorate, Egypt", "lat": 31.3314609, "types": ["lodging", "point_of_interest", "establishment"], "place_id": "ChIJUbVOACI-WBQRWsi5B7gYfxs"}, {"name": "Tivoli Dome", "formatted_address": "Omar Ibn El-Khattab, Almazah, Heliopolis, Cairo Governorate, Egypt", "lat": 31.3479517, "types": ["food", "point_of_interest", "establishment"], "place_id": "ChIJsSxOPgI-WBQRz6H2FJMg2uE"}, {"name": "Golden Park Hotel", "formatted_address": "شارع الحجاز ، مصر الجديده، 221 شارع الحجاز ، هيليوبوليس ،، El Nozha, Cairo Governorate, Egypt", "lat": 31.3525102, "types": ["lodging", "point_of_interest", "establishment"], "place_id": "ChIJsQQdRNgVWBQRss6fVxNFk_8"}, {"name": "InterContinental Citystars Cairo, an IHG Hotel", "formatted_address": "Omar Ibn El Khattab، Street، Cairo Governorate 11737, Egypt", "lat": 31.3478955, "types": ["lodging", "point_of_interest", "establishment"], "place_id": "ChIJJYCniw4-WBQRDaNySSZ_iuI"}, {"name": "Khattab Paper Point", "formatted_address": "4 ش صلاح الدين، Almazah, Heliopolis, Cairo Governorate, Egypt", "lat": 31.3341, "types": ["point_of_interest", "establishment"], "place_id": "ChIJx9lCdfUVWBQRkBpdq15VFcs"}, {"name": "The Great Pyramid of Giza", "formatted_address": "Al Haram, Nazlet El-Semman, Al Giza Desert, Giza Governorate, Egypt", "lat": 31.1342019, "types": ["tourist_attraction", "premise", "point_of_interest", "establishment"], "place_id": "ChIJGymPrIdFWBQRJCSloj8vDIE"}, {"name": "Lemon Spaces sheraton Heliopolis", "formatted_address": "Building # 19، El-Safa, Sheraton Al Matar, El Nozha, Cairo Governorate, Egypt", "lat": 31.3667492, "types": ["lodging", "point_of_interest", "establishment"], "place_id": "ChIJ0dUH_3oXWBQRT1ZYgsJShvE"}, {"name": "TOLIP El Galaa - Heliopolis", "formatted_address": "El Orouba St, Sheraton Al Matar, El Nozha, Cairo Governorate, Egypt", "lat": 31.3490226, "types": ["lodging", "point_of_interest", "establishment"], "place_id": "ChIJvyeGu-QVWBQRkPqc2rg6IsE"}, {"name": "Eslam", "formatted_address": "Almazah, Heliopolis, Cairo Governorate, Egypt", "lat": 31.3519468, "types": ["point_of_interest", "establishment"], "place_id": "ChIJUWi0mv8VWBQR5TyQ9t6y_0g"}, {"name": "Medo Car", "formatted_address": "Almazah, Heliopolis, Cairo Governorate, Egypt", "lat": 31.3519546, "types": ["point_of_interest", "establishment"], "place_id": "ChIJCYhMhf8VWBQRXEzVWqwZnFw"}, {"name": "Photo Wahba", "formatted_address": "2 Haroun El Rashid St.، El-Bostan, Heliopolis, Cairo Governorate, Egypt", "lat": 31.32624089999999, "types": ["point_of_interest", "establishment"], "place_id": "ChIJ_QWWbhIVWBQR9Furxgreo1c"}, {"name": "لايف ماركت", "formatted_address": "1-11 عطا الله مسعود، الماظة، قسم مصر الجديدة،، Cairo Governorate, Egypt", "lat": 31.3518017, "types": ["supermarket", "grocery_or_supermarket", "food", "point_of_interest", "store", "establishment"], "place_id": "ChIJQ_mseaEVWBQRitaODYaHY8Q"}, {"name": "Rodi Glass", "formatted_address": "7 Othman Hasan, Almazah, Heliopolis, Cairo Governorate, Egypt", "lat": 31.351627, "types": ["health", "point_of_interest", "establishment"], "place_id": "ChIJzya0mv8VWBQRup-X5neGBa4"}, {"name": "ISmail Refaei", "formatted_address": "أحمد عبد العزيز، الماظة، قسم مصر الجديدة،، Cairo Governorate, Egypt", "lat": 31.3518436, "types": ["car_rental", "point_of_interest", "establishment"], "place_id": "ChIJzba63joVWBQRF2sNOaHglSs"}, {"name": "ألبان الباشا", "formatted_address": "9 Ahmed Abd El-Aziz, Almazah, Heliopolis, Cairo Governorate, Egypt", "lat": 31.3521305, "types": ["grocery_or_supermarket", "food", "point_of_interest", "store", "establishment"], "place_id": "ChIJy-tvGwA-WBQRkbc_OUV-2_0"}, {"name": "Hussein sadat", "formatted_address": "3 Moheb Kasem, Almazah, Heliopolis, Cairo Governorate, Egypt", "lat": 31.3511923, "types": ["hair_care", "health", "point_of_interest", "establishment"], "place_id": "ChIJ6W62yQUVWBQRmZKI0LgsBXQ"}, {"name": "تكييق", "formatted_address": "12 Ibrahim El-Sayed, Almazah, Heliopolis, Cairo Governorate, Egypt", "lat": 31.3515149, "types": ["car_rental", "point_of_interest", "establishment"], "place_id": "ChIJGeUPkkEVWBQR0e_0WziimLQ"}, {"name": "Bolman", "formatted_address": "12 Othman Hasan, Almazah, Heliopolis, Cairo Governorate, Egypt", "lat": 31.3517284, "types": ["hair_care", "health", "point_of_interest", "establishment"], "place_id": "ChIJySkshP8VWBQRMVFKL0cA5zI"}, {"name": "Hilton Cairo Heliopolis", "formatted_address": "El-Orouba, Sheraton Al Matar, El Nozha, Cairo Governorate, Egypt", "lat": 31.3646213, "types": ["lodging", "point_of_interest", "establishment"], "place_id": "ChIJUYFpLCELRRQRzCxbUHFt6Vs"}, {"name": "El Raay", "formatted_address": "6 ATA Allah Masoud, Almazah, Heliopolis, Cairo Governorate, Egypt", "lat": 31.3515345, "types": ["store", "point_of_interest", "establishment"], "place_id": "ChIJ0wJkKAA-WBQR4YTkVpMm1G4"}, {"name": "سامي و ابو زكري Wolf Service Center", "formatted_address": "30 Othman Ibn Affan, Almazah, Heliopolis, Cairo Governorate, Egypt", "lat": 31.3515568, "types": ["car_repair", "point_of_interest", "establishment"], "place_id": "ChIJ55vInP8VWBQRCLuxGwXWmVY"}, {"name": "يلا تى فى", "formatted_address": "Al Ezba Al Gadida, Almazah, Heliopolis, Cairo Governorate 11000, Egypt", "lat": 31.3512162, "types": ["point_of_interest", "establishment"], "place_id": "ChIJrd1y1QE-WBQRyB-s-YSry_g"}, {"name": "(Heliopolis Public library)", "formatted_address": "Beirut, Almazah, Heliopolis, Cairo Governorate, Egypt", "lat": 31.3328428, "types": ["library", "point_of_interest", "establishment"], "place_id": "ChIJd3h9YvUVWBQR2Oi9DLQTI8E"}, {"name": "Hedeya Heliopolis Branch", "formatted_address": "25 El-Horreya St. - off, El-Nozha, Cairo Governorate 11757, Egypt", "lat": 31.3394971, "types": ["point_of_interest", "clothing_store", "store", "establishment"], "place_id": "ChIJzXYzCrE_WBQRFRjWzFCKNaE"}, {"name": "Hossam", "formatted_address": "5 Moheb Kasem, Almazah, Heliopolis, Cairo Governorate, Egypt", "lat": 31.35128169999999, "types": ["supermarket", "grocery_or_supermarket", "food", "point_of_interest", "store", "establishment"], "place_id": "ChIJpYueeP8VWBQRNvxGlu3-PJU"}, {"name": "Barclone", "formatted_address": "12 ATA Allah Masoud, Almazah, Heliopolis, Cairo Governorate, Egypt", "lat": 31.3518709, "types": ["point_of_interest", "establishment"], "place_id": "ChIJNWp8i_8VWBQRZWZC-zTLiLw"}, {"name": "Burger King - Tivoli Dome Heliopolis", "formatted_address": "Tivoli Dome, Omar Ibn El Khattab St، Almazah, Heliopolis, Cairo Governorate, Egypt", "lat": 31.3478102, "types": ["restaurant", "food", "point_of_interest", "establishment"], "place_id": "ChIJ8asB1I8_WBQR-CVqCM1YprU"}, {"name": "Post Office - West Heliopolis", "formatted_address": "El-Nozha, El Nozha, Cairo Governorate, Egypt", "lat": 31.33018539999999, "types": ["post_office", "finance", "point_of_interest", "establishment"], "place_id": "ChIJ-1tRxpIVWBQR8pyCMmqAgXM"}, {"name": "Misr El Dawleya", "formatted_address": "96 ش محمد فريد، وسط البلد، Abdeen, Cairo Governorate, Egypt", "lat": 31.2442814, "types": ["point_of_interest", "establishment"], "place_id": "ChIJYaZ29JVAWBQRfDHDvqzkKAg"}, {"name": "City Stars Cinema", "formatted_address": "Masaken Al Mohandesin, Nasr City, Cairo Governorate, Egypt", "lat": 31.3440642, "types": ["movie_theater", "point_of_interest", "establishment"], "place_id": "ChIJeQM7kA4-WBQRl3pI9iYM-BQ"}, {"name": "Scooty Service", "formatted_address": "شارع Moheb Kasem, Almazah, Heliopolis, Cairo Governorate, Egypt", "lat": 31.3515306, "types": ["car_repair", "point_of_interest", "establishment"], "place_id": "ChIJPzGRlIo4WBQRLSQzA9CYlDQ"}, {"name": "El Asta", "formatted_address": "9 Ahmed Khalaf, Almazah, Heliopolis, Cairo Governorate, Egypt", "lat": 31.3514604, "types": ["car_repair", "point_of_interest", "establishment"], "place_id": "ChIJAR6Cnv8VWBQR-vNhqL8H-HE"}, {"name": "Williams Furnture", "formatted_address": "1 ATA Allah Masoud, Almazah, Heliopolis, Cairo Governorate, Egypt", "lat": 31.351257, "types": ["shopping_mall", "point_of_interest", "establishment"], "place_id": "ChIJEZoQ1QE-WBQRfZOCgMzYBkY"}, {"name": "Sonesta Hotel Tower & Casino Cairo", "formatted_address": "3 El Tayaran St, Ash Sharekat, Nasr City, Cairo Governorate, Egypt", "lat": 31.3175599, "types": ["casino", "lodging", "point_of_interest", "establishment"], "place_id": "ChIJKYApCUc-WBQROTn4JL8ozhI"}]